STATION_ID,TOOLTIP,ORGANIZATION,STATION_NAME,LATITUDE,COUNTRY,STATION_SHORTNAME,ALTITUDE,LONGITUDE,SUBBASIN
0009BBB009E7F4067B498FC0073C2AA63D064D27,TRENQUE LAUQUEN - TH,WHOS,TRENQUE LAUQUEN - TH,-35.96667,,TRENQUELAUQU,,-62.71667000000001,
000BE3CB65DF1F7D571EF045272E048FCD0072BD,PORTO MAUÁ,WHOS,PORTO MAUÁ,-27.5781,Brazil,PORTOMAUÁ,,-54.6831,
002403599F381B2F8F7A4C4ED973FBAF03CAB149,CAXIAS DO SUL - SANTA FE,WHOS,CAXIAS DO SUL - SANTA FE,-29.125,Brazil,CAXIASDOSUL-,,-51.179,
002DFD2CCAF2AC386A9F252EF4EA313A9E615598,PCH ENG. JOSÉ GELÁSIO DA ROCHA BARRAMENTO,WHOS,PCH ENG. JOSÉ GELÁSIO DA ROCHA BARRAMENTO,-16.7128,Brazil,PCHENG.JOSÉG,,-54.7478,
002E6BCF79185B7891784205217E2ED958098F81,INDAIAL - ESTRADINHA,WHOS,INDAIAL - ESTRADINHA,-26.8808,Brazil,INDAIAL-ESTR,,-49.2852,
00338D8993E5003D0A41D1942BC4E20553907219,JAGUARIUNA - DELEGACIA DE POLICIA,WHOS,JAGUARIUNA - DELEGACIA DE POLICIA,-22.7036,Brazil,JAGUARIUNA-D,,-46.98556,
004BAF6F284B4A848A96490D94F0EC354BC9CBBB,GUALAXO NORTE 08 - BARRA LONGA,WHOS,GUALAXO NORTE 08 - BARRA LONGA,-20.2858,Brazil,GUALAXONORTE,,-43.0658,
004CC06CDC3091C5D8C56777E6D6510DA7410877,RIO DO POUSO,WHOS,RIO DO POUSO,-28.4206,Brazil,RIODOPOUSO,,-49.1064,
004EE5C6F3BAFB143A3E0A94BCC6D2C6FD30AA79,CANGUCU - SANTA CLARA,WHOS,CANGUCU - SANTA CLARA,-31.35449,Brazil,CANGUCU-SANT,,-52.89736,
0073A5FB05E42702BC76D9823CC1631EABE2F781,PORTO ALEGRE - CIDADE BAIXA,WHOS,PORTO ALEGRE - CIDADE BAIXA,-30.03932,Brazil,PORTOALEGRE-,,-51.22765,
0077D7E2BF65D26E5408DE298E5AE20C6484D268,"Caazapa, Dpto de Caazapa",WHOS,"Caazapa, Dpto de Caazapa",-26.16985556,Paraguay,"Caazapa,Dpto",,-56.359875,
007FFA33587C7EEBAC615F4369521ED4228B9BF6,MOJI DAS CRUZES - VILA ANDRADE,WHOS,MOJI DAS CRUZES - VILA ANDRADE,-23.482764,Brazil,MOJIDASCRUZE,,-46.085967,
008A3B28C2C216A50B63EA850C943E2EA52DE200,victoria,WHOS,victoria,-32.6127777777778,Argentina,victoria,,-60.1391666666667,
00929CA05BD5A2A08091424D0231BEFEDBF1C4B9,SAO PAULO - VILA ARICANDUVA,WHOS,SAO PAULO - VILA ARICANDUVA,-23.569,Brazil,SAOPAULO-VIL,,-46.504,
00A15AD2A7B460CF3EB1E5F3A317AD97BDA12821,ITAJAI,WHOS,ITAJAI,-26.910393,Brazil,ITAJAI,,-48.660379,
00AA97998608EFCB16FF3E9AA98706B2854DCF15,CASCAVEL - UN. DE SAUDE CENTRO,WHOS,CASCAVEL - UN. DE SAUDE CENTRO,-24.9571,Brazil,CASCAVEL-UN.,,-53.45782,
00B07F3872D3D7107095B6ED2B80F6B15BDC5193,JACAREZINHO,WHOS,JACAREZINHO,-23.15,Brazil,JACAREZINHO,,-49.97,
00BBA1F0C288DD6B35120E54D437A1CB09D85C4F,RIO DE JANEIRO - EM JORNALISTA BRITO BROCA,WHOS,RIO DE JANEIRO - EM JORNALISTA BRITO BROCA,-22.943,Brazil,RIODEJANEIRO,,-43.241,
00BBEAFAC662743ED0023E34E4B16B5964160089,FAZENDA SÃO CARLOS,WHOS,FAZENDA SÃO CARLOS,-16.6075,Brazil,FAZENDASÃOCA,,-47.3258,
00BDE074C6D1D537BF906D8918D2EC352E10491F,MONTE ALEGRE DO SUL - CENTRO,WHOS,MONTE ALEGRE DO SUL - CENTRO,-22.68455,Brazil,MONTEALEGRED,,-46.67947,
00BFDEE51D8F89D5B91B5F0D6529AF4F220B64D3,NIQUELANDIA - AVENIDA BRASIL,WHOS,NIQUELANDIA - AVENIDA BRASIL,-14.458,Brazil,NIQUELANDIA-,,-48.437,
00CA430CE3A27B18FEBE559B9A359C0D9D9F7B65,UHE PIRAJU BARRAMENTO,WHOS,UHE PIRAJU BARRAMENTO,-23.1544,Brazil,UHEPIRAJUBAR,,-49.38,
00D3297FBC6A70359AC9C78EC0A56AE2EBBD8B6C,Aporte Salto Grande,WHOS,Aporte Salto Grande,-31.273969,Argentina,AporteSaltoG,,-57.938011,
00D4C89DF6DAB60193E530424B28FA7D07FA4BB9,CGH AGUTI BARRAMENTO,WHOS,CGH AGUTI BARRAMENTO,-27.3194,Brazil,CGHAGUTIBARR,,-49.1008,
00E2C7AB63893564BB8EE190960684F987E7009A,PENHA,WHOS,PENHA,-22.82,Brazil,PENHA,,-43.22,
00FD2B00C1D68548EA04A1B2F8DD1F67F9B318C0,CORREIA PINTO - SAO PEDRO,WHOS,CORREIA PINTO - SAO PEDRO,-27.580594,Brazil,CORREIAPINTO,,-50.358817,
00FE49F3F4D923224C9E0CD2DCE1B81518318DF2,UHE MONJOLINHO CRUZALTENSE,WHOS,UHE MONJOLINHO CRUZALTENSE,-27.6694,Brazil,UHEMONJOLINH,,-52.5842,
01145AD695CCD206277280D6276D732B4EACF8FB,MATO GROSSO (VILA BELA),WHOS,MATO GROSSO (VILA BELA),-15.03,Brazil,MATOGROSSO(V,,-60.05,
0114FDDE4533514C70072EA786B07B6EA6A73AFE,COMENDADOR LEVY GASPARIAN - SAELEG,WHOS,COMENDADOR LEVY GASPARIAN - SAELEG,-22.0311111,Brazil,COMENDADORLE,,-43.20694444,
011A9BB242185B7C19F32018FA9C1047016629E4,CACADOR - DEFESA CIVIL,WHOS,CACADOR - DEFESA CIVIL,-26.77705,Brazil,CACADOR-DEFE,,-51.00946,
0120CB3C2D16CF165B92A9992928B38148F6CA9F,PCH DERIVAÇÃO DO RIO JORDÃO RIO NEGRO,WHOS,PCH DERIVAÇÃO DO RIO JORDÃO RIO NEGRO,-26.1097,Brazil,PCHDERIVAÇÃO,,-49.8011,
012612B6B1E20C89E89B4D832B9967A69E89F443,TUBARÃO,WHOS,TUBARÃO,-28.47,Brazil,TUBARÃO,,-48.9917,
0131C7FDD56AC29559AC108D063670F7CDFD7630,SAO PAULO - SAO JOAO CLIMACO,WHOS,SAO PAULO - SAO JOAO CLIMACO,-23.622,Brazil,SAOPAULO-SAO,,-46.583,
014AB0A0798449C6ED5C0FEA1B82BB05C2D870CD,PCH VERDE 4A RIBEIRÃO SALGADO,WHOS,PCH VERDE 4A RIBEIRÃO SALGADO,-19.7936,Brazil,PCHVERDE4ARI,,-53.4861,
014B8949A3E1FEDF00930EA055B4D7692A2EF9E1,UHE BATALHA MONTANTE 1,WHOS,UHE BATALHA MONTANTE 1,-16.7578,Brazil,UHEBATALHAMO,,-47.2342,
014C9EA6CE9A05EF88D120CF4A7C162F687E1838,Compuerta Alternativa Norte AD,WHOS,Compuerta Alternativa Norte AD,-34.2419444444444,Argentina,CompuertaAlt,,-62.1211111111111,
0156B2319F736A916599B06D00D2CBF07153FE7A,PCH SANTANA MONTANTE 1,WHOS,PCH SANTANA MONTANTE 1,-22.1114,Brazil,PCHSANTANAMO,,-47.9964,
0164D91111F3A91F8603D12911E4A30E41AFC823,LAGOA VERMELHA,WHOS,LAGOA VERMELHA,-28.22237,,LAGOAVERMELH,,-51.512820000000005,
0176E0540AD62D00551A64C6621C3CC6B990F213,SOROCABA - RETIRO SAO JOAO,WHOS,SOROCABA - RETIRO SAO JOAO,-23.4553,Brazil,SOROCABA-RET,,-47.4428,
0196D2B911ABF88BBE5A44F444CECE2168D63647,SAO PAULO - JARDIM ARICANDUVA,WHOS,SAO PAULO - JARDIM ARICANDUVA,-23.564791,Brazil,SAOPAULO-JAR,,-46.513474,
019E9171EA1B6460ED3F7A95F32BE52591AEE6CC,JULIO DE CASTILHO,WHOS,JULIO DE CASTILHO,-29.23,Brazil,JULIODECASTI,,-53.68,
01A5F313AE0EF8CC9B6713667C4BDA7324E10E73,BARBACENA - SENHORA DOS DORES,WHOS,BARBACENA - SENHORA DOS DORES,-21.194,Brazil,BARBACENA-SE,,-43.644,
01ACD06B13AD0FC9AA07A97F69289E7923948C58,UBERLANDIA,WHOS,UBERLANDIA,-18.917052,Brazil,UBERLANDIA,,-48.255676,
01AD41D0966DEA76AC59F2C61CD77777C8AD9707,CGH CACHOEIRA DOS PRAZERES BARRAMENTO,WHOS,CGH CACHOEIRA DOS PRAZERES BARRAMENTO,-20.4678,Brazil,CGHCACHOEIRA,,-43.4703,
01EBEC925C74A6BF7B2AF458FCFE11C3FBA30B75,CONCORDIA - SALETE,WHOS,CONCORDIA - SALETE,-27.2164,Brazil,CONCORDIA-SA,,-52.0149,
01F910F8D1B0308AD576B334380E13B7DF4F25B6,PCH SÃO SEBASTIÃO BARRAMENTO,WHOS,PCH SÃO SEBASTIÃO BARRAMENTO,-27.3192,Brazil,PCHSÃOSEBAST,,-49.0419,
0201D520C608FF906A732CC736E32DCD7D46FF81,CAPIVARI - JARDIM ELISA,WHOS,CAPIVARI - JARDIM ELISA,-23.005,Brazil,CAPIVARI-JAR,,-47.513,
02137775C072604A8CB6EB531E613E9BC2AB7790,CARAGUATATUBA - INDAIA,WHOS,CARAGUATATUBA - INDAIA,-23.637,Brazil,CARAGUATATUB,,-45.426,
0216E67FF34D5078A689FEB9981D3A9D15ABA585,ITIQUIRA I,WHOS,ITIQUIRA I,-17.0833333,Brazil,ITIQUIRAI,,-54.8333333,
0239DA6302F487C0EFD40BEA3DDE60E4D2319252,PCH MATA COBRA MONTANTE 1,WHOS,PCH MATA COBRA MONTANTE 1,-28.2653,Brazil,PCHMATACOBRA,,-52.8969,
0242CB7E2F0597B738BF0F394CEABBBAD7BACBB2,ESTRELA - POSTO DE SAUDE BOA UNIAO,WHOS,ESTRELA - POSTO DE SAUDE BOA UNIAO,-29.4844,Brazil,ESTRELA-POST,,-51.9482,
024CB013FC06B52BA235E92B75318DF8E9B8E751,APIAI - CENTRO,WHOS,APIAI - CENTRO,-24.507622,Brazil,APIAI-CENTRO,,-48.848371,
0264A3C29E1FE79681500264BA5170C828E2DAE7,PCH UNAÍ BAIXO CÓRREGO SANTA MARIA,WHOS,PCH UNAÍ BAIXO CÓRREGO SANTA MARIA,-16.1783,Brazil,PCHUNAÍBAIXO,,-47.0028,
02674D9CA6E801F228A84649FD6F7CD6EAE3525B,VACARIA - CENTRO,WHOS,VACARIA - CENTRO,-28.478,Brazil,VACARIA-CENT,,-50.965,
026A12451A5B9BD6E54B125B70500B786E8C57ED,CGH AGUDO JUSANTE,WHOS,CGH AGUDO JUSANTE,-27.5278,Brazil,CGHAGUDOJUSA,,-51.5228,
0274DDFE569E25244095D2BEEB6ACE490D73E0BE,SAO PAULO - JARAGUA,WHOS,SAO PAULO - JARAGUA,-23.47999999,Brazil,SAOPAULO-JAR,,-46.76194444,
028C9C242E6EC5C6CBA6796A39CC408266FE5F35,GARIMPAGEM,WHOS,GARIMPAGEM,-18.7136,Brazil,GARIMPAGEM,,-54.5672,
028F26A72DD585EEE4BD9B003C39A6723AFCB1C9,PCH CARLOS GONZATTO BARRAMENTO,WHOS,PCH CARLOS GONZATTO BARRAMENTO,-27.6247,Brazil,PCHCARLOSGON,,-53.8028,
02984AA91EBC9DF43C7DEE87A64F8019628526D7,PORTO LUCENA,WHOS,PORTO LUCENA,-27.8525,Brazil,PORTOLUCENA,,-55.0256,
029DBE2448BAE9EF9237C4C769C217DA0996AD0D,PONTES E LACERDA - JARDIM MARILIA,WHOS,PONTES E LACERDA - JARDIM MARILIA,-15.2243,Brazil,PONTESELACER,,-59.32018,
02B1DC1D4E677523B62D178FD30C169147DEC3E4,PCH SÃO JOSÉ MONTANTE 1,WHOS,PCH SÃO JOSÉ MONTANTE 1,-21.9389,Brazil,PCHSÃOJOSÉMO,,-46.8161,
02C67FD58B548C13E63A8CC7ED989262099CA6B0,BLUMENAU - GARCIA,WHOS,BLUMENAU - GARCIA,-26.938,Brazil,BLUMENAU-GAR,,-49.057,
02CAD82339DC404C01A3251987868DDDC6FF3AAD,REGISTRO - REGISTRO,WHOS,REGISTRO - REGISTRO,-24.4945,Brazil,REGISTRO-REG,,-47.8468,
02D6119F1F488D4A06DC88DE53AEA4DA0E5A6649,CAPINZAL - CENTRO,WHOS,CAPINZAL - CENTRO,-27.343,Brazil,CAPINZAL-CEN,,-51.614,
02DEE6E7F46268C921F06B19A6AEA78B30666A2A,PCH INDAIÁ GRANDE MONTANTE 2,WHOS,PCH INDAIÁ GRANDE MONTANTE 2,-19.2067,Brazil,PCHINDAIÁGRA,,-52.3378,
02E07E2F72A815E237B7896D79BC68193EF3A0A6,Recreo - Ruta Provincial nº 70,WHOS,Recreo - Ruta Provincial nº 70,-31.4912222222222,Argentina,Recreo-RutaP,,-60.7805555555556,
02F452A2F63ECE86E6273A59BAF892BE81961AC4,BELO HORIZONTE - VILA PINHO,WHOS,BELO HORIZONTE - VILA PINHO,-19.999,Brazil,BELOHORIZONT,,-44.026,
02F5060C0CB8C90C224DD4701673BC31A63037B3,SAO LEOPOLDO - VICENTINA,WHOS,SAO LEOPOLDO - VICENTINA,-29.773,Brazil,SAOLEOPOLDO-,,-51.16,
02FB5081C9C1E889C75958F9A0F7815310D7A471,Marmaraja,WHOS,Marmaraja,-34.26,Uruguay,Marmaraja,,-54.955,
02FFE3EB705BD97665FB3BB6F86C08E00FC3457A,SANTA FÉ,WHOS,SANTA FÉ,-23.0336,Brazil,SANTAFÉ,,-51.7531,
0321BF383D872DCCC4E2CF43D56159CA6E48B91B,Arenales - El Encon,WHOS,Arenales - El Encon,-24.8423055555556,Argentina,Arenales-ElE,,-65.59325,
03221AE5839193A6B2928AB651054187DF0469FC,PRIMAVERA DO LESTE,WHOS,PRIMAVERA DO LESTE,-15.57999999,Brazil,PRIMAVERADOL,,-54.3811111,
033640CBCE2F78B4CF46283B200B77DE989C5F77,CGH SALTO DA BARRA BARRAMENTO,WHOS,CGH SALTO DA BARRA BARRAMENTO,-24.0644,Brazil,CGHSALTODABA,,-48.7269,
0353A26A6F6877C17812FD94FA5238A04CF6E76C,CAPAO DO LEAO - CENTRO,WHOS,CAPAO DO LEAO - CENTRO,-31.7644166,Brazil,CAPAODOLEAO-,,-52.76451,
035642B35C906CA0522E227228BF5639540BE019,RIO BRANCO DO SUL - CENTRO,WHOS,RIO BRANCO DO SUL - CENTRO,-25.193,Brazil,RIOBRANCODOS,,-49.313,
035E1B41CF4C2A8871DF710831528E9BC25EE541,XAVANTINA,WHOS,XAVANTINA,-14.6725,Brazil,XAVANTINA,,-52.355,
03618ACA7F706F9A16F296E96875A757674FAEE1,PCH MORRO GRANDE JUSANTE 2,WHOS,PCH MORRO GRANDE JUSANTE 2,-28.5919,Brazil,PCHMORROGRAN,,-51.3247,
037018C4CACDA192A8B92D7A4B7C8A2BFDD6A699,monje,WHOS,monje,-32.3675003051758,Argentina,monje,,-60.9319458007812,
039C42AF775D04BA68802A8A1A0BF46A637B482D,PRAIA GRANDE - JARDIM ALICE,WHOS,PRAIA GRANDE - JARDIM ALICE,-24.082475,Brazil,PRAIAGRANDE-,,-46.604711,
03C374EB21A381FD55E11B5F55C508DDB027E3AA,Río Salado - RP 41,WHOS,Río Salado - RP 41,-35.7263888888889,Argentina,RíoSalado-RP,,-58.5363888888889,
03D89429E6C9568220DF9738EC5AA8EDF3FA95AB,SANTA TEREZINHA - UBS CENTRO,WHOS,SANTA TEREZINHA - UBS CENTRO,-26.77489,Brazil,SANTATEREZIN,,-50.00846,
03E6697031899AB6B4977D97C88BE4DEB9EF4FED,PARAIBUNA,WHOS,PARAIBUNA,-23.42,Brazil,PARAIBUNA,,-45.65,
03E6F0480D3A4A7E54BD99733AF75D399EA581A3,SAO PAULO - LIMAO,WHOS,SAO PAULO - LIMAO,-23.511,Brazil,SAOPAULO-LIM,,-46.667,
03EC2C77ED6F29E58289A23363EE16E8756690FE,Salto,WHOS,Salto,-31.436670000000003,,Salto,,-57.980000000000004,
03ED4E1B7E96221888C3AA57B4C49E4DFCF3F18D,ITUPORANGA,WHOS,ITUPORANGA,-27.41833332,Brazil,ITUPORANGA,,-49.64694444,
03F9352C2D13DEA4C00B56E9B6865B60708A70F6,Canal Liag - Quebrachal,WHOS,Canal Liag - Quebrachal,-25.3452777777778,Argentina,CanalLiag-Qu,,-64.045,
03F95766FEF3AB28E73BD074560AA3B28EB5E863,CAJATI - JACUPIRANGUINHA,WHOS,CAJATI - JACUPIRANGUINHA,-24.777,Brazil,CAJATI-JACUP,,-48.2,
0401460CB4BA5C63A2B7F51516789C1F82120C4B,UHE BARRA JUSANTE,WHOS,UHE BARRA JUSANTE,-24.0283,Brazil,UHEBARRAJUSA,,-47.3567,
0409C41130DFEDF7991E6EE2D85DA44C50986127,PCH ALTO SUCURIÚ JUSANTE,WHOS,PCH ALTO SUCURIÚ JUSANTE,-19.245,Brazil,PCHALTOSUCUR,,-52.8794,
04228B2269E6DC94956C9922BF613FB28462F28C,Santa Lucía,WHOS,Santa Lucía,-28.9911111111111,Argentina,SantaLucía,,-59.0982222222222,
042F7DF1FAA431D12FE3535129B2DDC9ABF885BA,CAMPINAS,WHOS,CAMPINAS,-22.9,Brazil,CAMPINAS,,-47.08,
043265795C4E93F5D23FC3B6E9A2FDA23195C9FF,PCH ARVOREDO BARRAMENTO,WHOS,PCH ARVOREDO BARRAMENTO,-27.0586,Brazil,PCHARVOREDOB,,-52.47,
04579EC3A789FD04969F405E2F16C8E597CB04CD,LEOBERTO LEAL - PREFEITURA MUNICIPAL,WHOS,LEOBERTO LEAL - PREFEITURA MUNICIPAL,-27.50424,Brazil,LEOBERTOLEAL,,-49.28839,
048E01A8111918754632F1AE08CDB563BCA79838,PCH CAPÃO PRETO BARRAMENTO,WHOS,PCH CAPÃO PRETO BARRAMENTO,-21.8983,Brazil,PCHCAPÃOPRET,,-47.7753,
0492FC90DE16CB5791B6B546CF318EE8111A9950,PCH APUCARANINHA RESERVATÓRIO FIU,WHOS,PCH APUCARANINHA RESERVATÓRIO FIU,-23.7489,Brazil,PCHAPUCARANI,,-50.9406,
049D066C26D8A163F5AF40AA0B4CACD11AF7291F,CORUMBA,WHOS,CORUMBA,-19.00461,Brazil,CORUMBA,,-57.672338,
04A663A2001A0EA71C4A743D95845FC3FC19436D,CAMPO GRANDE - AEROPORTO,WHOS,CAMPO GRANDE - AEROPORTO,-20.47,Brazil,CAMPOGRANDE-,,-54.67,
04AE291961B3D5846125E959E478656262698148,SANTA LUZIA - CARREIRA COMPRIDA,WHOS,SANTA LUZIA - CARREIRA COMPRIDA,-19.75276,Brazil,SANTALUZIA-C,,-43.88199,
04C7B9766B6BAB62987DCA4FE3900718EAAC8D2F,ITABIRA - JOAO XXIII,WHOS,ITABIRA - JOAO XXIII,-19.654,Brazil,ITABIRA-JOAO,,-43.233,
04D2297E4452E6F77C99A430723853475D062535,PEDRO DE TOLEDO - CENTRO,WHOS,PEDRO DE TOLEDO - CENTRO,-24.275,Brazil,PEDRODETOLED,,-47.232,
04DDEC0DF72384AA7898F599F605043543111B28,PCH ADO POPINHAK JUSANTE,WHOS,PCH ADO POPINHAK JUSANTE,-27.4881,Brazil,PCHADOPOPINH,,-50.5225,
04F33DAD465F7BD2F923BF7289D01B6989870531,TRAVESSÃO,WHOS,TRAVESSÃO,-15.5358,Brazil,TRAVESSÃO,,-50.7047,
04F39F139BB309DE3C628CBBF6FD57B9E6C1D37F,NOVA PALMA - CENTRO,WHOS,NOVA PALMA - CENTRO,-29.47,Brazil,NOVAPALMA-CE,,-53.465,
04FEA6901ABEFD0FB26A8FDAB319FD47C07000DB,RIO NEGRINHO - ALEGRE,WHOS,RIO NEGRINHO - ALEGRE,-26.261,Brazil,RIONEGRINHO-,,-49.509,
0504572A0F1A4AFCA35FC1D1D6FDC79309F246A5,SAO PAULO - MOOCA,WHOS,SAO PAULO - MOOCA,-23.547,Brazil,SAOPAULO-MOO,,-46.596,
05154265B9369E810D78EDFCACFA30CD3F9A21DB,IRATI,WHOS,IRATI,-25.502846,Brazil,IRATI,,-50.637609,
051D876AF2659E74C5CBFCBED11C6F03AEC697A6,NITEROI,WHOS,NITEROI,-22.9,Brazil,NITEROI,,-43.12,
051D902E4FFB3ED0C01A07C230EC34F3F029ADEC,PCH ARTURO ANDREOLI FLOR DA SERRA,WHOS,PCH ARTURO ANDREOLI FLOR DA SERRA,-25.6822,Brazil,PCHARTUROAND,,-52.9844,
05248ED61D88590DF59A49229768C42C8F8D78BB,PCH BARRA ESCONDIDA JUSANTE,WHOS,PCH BARRA ESCONDIDA JUSANTE,-26.9044,Brazil,PCHBARRAESCO,,-53.0303,
052D7DF30728E97E810264D54345ADA0655E6571,UEL SANTA CECÍLIA SAÍDA TÚNEL,WHOS,UEL SANTA CECÍLIA SAÍDA TÚNEL,-22.5111,Brazil,UELSANTACECÍ,,-43.8244,
0567A0C89BD477D251B695B16FC349E5FC1CDBB1,SAO JOSE - AREIAS,WHOS,SAO JOSE - AREIAS,-27.559,Brazil,SAOJOSE-AREI,,-48.631,
056E2B56202DD0CAB4B8EC0E86F4BFF279AF23AC,PCH CULUENE JUSANTE 2,WHOS,PCH CULUENE JUSANTE 2,-14.5744,Brazil,PCHCULUENEJU,,-53.6967,
058C88B54E605494F3357CC703BE7FCAD897068F,BETIM - ANGOLA,WHOS,BETIM - ANGOLA,-19.95077,Brazil,BETIM-ANGOLA,,-44.19897,
059087AA00D9293FEA2F1CE4D5C7FE421608F8AD,SANTA LUZIA - PALMITAL,WHOS,SANTA LUZIA - PALMITAL,-19.76634,Brazil,SANTALUZIA-P,,-43.93589,
05A9D8776CFDA246435E0E2C7AF5ADB696688D56,BLUMENAU - NOVA ESPERANCA,WHOS,BLUMENAU - NOVA ESPERANCA,-26.891,Brazil,BLUMENAU-NOV,,-49.055,
05BD5C53B32050076AA6ACE50879E5CC1AAA28CB,CAMPOS DO JORDAO - MONTE CARLO,WHOS,CAMPOS DO JORDAO - MONTE CARLO,-22.74833,Brazil,CAMPOSDOJORD,,-45.58384,
05D539487C3C6E140C395FDAEDC3643834CC9780,SANTOS - SABESP - MORRO JOSE MENINO,WHOS,SANTOS - SABESP - MORRO JOSE MENINO,-23.960236,Brazil,SANTOS-SABES,,-46.358779,
05E61E3108E433C248E82D42A110ACDCACB45341,SANTA MARIA,WHOS,SANTA MARIA,-29.7,Brazil,SANTAMARIA,,-53.68,
05EBB307AD1C5B7B1C9F7869724F21E342090237,TRES BARRAS - DEFESA CIVIL,WHOS,TRES BARRAS - DEFESA CIVIL,-26.13026,Brazil,TRESBARRAS-D,,-50.30978,
05EF2221660296180958B7F44930E9F3FC804B34,SAO LEOPOLDO - ARROIO DO MANTEIGA,WHOS,SAO LEOPOLDO - ARROIO DO MANTEIGA,-29.73,Brazil,SAOLEOPOLDO-,,-51.179,
05F59F8F9862A3FF860C1C86213A6B80501925B5,Paraná Miní,WHOS,Paraná Miní,-34.185121,Argentina,ParanáMiní,,-58.501874,
06010D76E704135B1424174A37205892A66CD155,PIRAPORA BARREIRO,WHOS,PIRAPORA BARREIRO,-17.3692,Brazil,PIRAPORABARR,,-44.9431,
061372682E74913BE463E3123748913A66C3B5CC,UHE CACHOEIRA DOURADA MONTANTE,WHOS,UHE CACHOEIRA DOURADA MONTANTE,-18.5097,Brazil,UHECACHOEIRA,,-49.2475,
0626A555E57FD2ACB6DEC1F65572464C6F63F17B,SAN ESTANISLAO - SGA,WHOS,SAN ESTANISLAO - SGA,-24.450000000000003,,SANESTANISLA,,-56.41667,
0627A0F3A97873D9469B3E0C3E81178489C79B9B,PCH CRISTALINO JUSANTE,WHOS,PCH CRISTALINO JUSANTE,-24.5736,Brazil,PCHCRISTALIN,,-51.5572,
0631B7B04F01E90D4B4EBCC982CCDF085789D708,Olivos,WHOS,Olivos,-34.506666,Argentina,Olivos,,-58.475863,
0661DAD08D78B2CF346EBFDF7466385B7372211A,UHE LUIZ CARLOS BARRETO DE CARVALHO RIO VERDE,WHOS,UHE LUIZ CARLOS BARRETO DE CARVALHO RIO VERDE,-21.7031,Brazil,UHELUIZCARLO,,-45.2481,
066485F601E8002E99757D9A607C446FD068B22D,CORUMBA,WHOS,CORUMBA,-18.99666666,Brazil,CORUMBA,,-57.63749999,
066F125ECC0500AE35ECE028F8CD219E28EC76C7,SAO PAULO - JARDIM SAO ROBERTO,WHOS,SAO PAULO - JARDIM SAO ROBERTO,-23.622,Brazil,SAOPAULO-JAR,,-46.501,
067185AD9C29857397067B70706985FDEF1167A6,MARIA DA FE,WHOS,MARIA DA FE,-22.314567,Brazil,MARIADAFE,,-45.373049,
0673A9C98415A37CBF76173F668FB7D6C15C7BB6,BOTUVERA - RIBEIRAO DO OURO,WHOS,BOTUVERA - RIBEIRAO DO OURO,-27.2034,Brazil,BOTUVERA-RIB,,-49.15148,
0676D5DAF99400A2DB983EB025CD01CEE2C1450D,CUBATAO - PARQUE FERNANDO JORGE,WHOS,CUBATAO - PARQUE FERNANDO JORGE,-23.88,Brazil,CUBATAO-PARQ,,-46.417,
06807A1422BC300E2A21FE62B94FCB41AFA2157C,PCH SÃO LUIZ BARRAMENTO,WHOS,PCH SÃO LUIZ BARRAMENTO,-26.9406,Brazil,PCHSÃOLUIZBA,,-51.9528,
0685A43E85A6C45346506383FC91D6A45FB86341,JUIZ DE FORA - AEROPORTO,WHOS,JUIZ DE FORA - AEROPORTO,-21.793,Brazil,JUIZDEFORA-A,,-43.384,
06868DE54080A40AF2597B7A25DFD520FA99EEF8,PCH PERY JUSANTE,WHOS,PCH PERY JUSANTE,-27.4528,Brazil,PCHPERYJUSAN,,-50.6714,
06881C26385793EB7DB39E3E13456E964C1D5359,Pasaje Talavera c/ Canal Irigoyen,WHOS,Pasaje Talavera c/ Canal Irigoyen,-33.923719,Argentina,PasajeTalave,,-58.965237,
068FE7D25A12EB476EAF3B09F99C2D5D215460C5,NOVA TRENTO - CENTRO2,WHOS,NOVA TRENTO - CENTRO2,-27.288,Brazil,NOVATRENTO-C,,-48.93,
06994790C0691868854CCC75CFB5774C38C9F834,CGH ILHÉUS MONTANTE 1,WHOS,CGH ILHÉUS MONTANTE 1,-21.2708,Brazil,CGHILHÉUSMON,,-43.8811,
069AB4E7A8AD6CA89FCEB3E673B614C6134B624E,BUENOS AIRES OBSERVA,WHOS,BUENOS AIRES OBSERVA,-34.433330000000005,,BUENOSAIRESO,,-58.46667000000001,
069B5812822A731F4518895A7B1DFAE9A59F604E,PCH PESQUEIRO MONTANTE 2,WHOS,PCH PESQUEIRO MONTANTE 2,-24.2236,Brazil,PCHPESQUEIRO,,-49.6886,
06AEA8FF4D38E0C95F83AC8A8D7AFB6582AB7B86,JUIZ DE FORA,WHOS,JUIZ DE FORA,-21.769990000000004,,JUIZDEFORA,,-43.36433,
06B29CF798332C3E104C8AA6AB9C53425357956A,PCH DONA RITA BARRAMENTO,WHOS,PCH DONA RITA BARRAMENTO,-19.4233,Brazil,PCHDONARITAB,,-43.2008,
06BB71BB7641F09F3B7E9E827C1434EFA10A2E00,RIBEIRÃO MARIA PEREIRA,WHOS,RIBEIRÃO MARIA PEREIRA,-16.0422,Brazil,RIBEIRÃOMARI,,-47.8486,
06EA9817B704AB240FF468E4A5EB1CDE9D986F52,BELO HORIZONTE - RODOVIA MG,WHOS,BELO HORIZONTE - RODOVIA MG,-20.00056,Brazil,BELOHORIZONT,,-43.90303,
06F4C976EDBEBB37DBEAE443624D2BF222E4713A,JACUPIRANGA - VILA ELIAS,WHOS,JACUPIRANGA - VILA ELIAS,-24.699,Brazil,JACUPIRANGA-,,-48.003,
06F53AE13E57594C5F6EAB8BE264AE968C5B2F91,UHE BARIRI RIO BAURU,WHOS,UHE BARIRI RIO BAURU,-22.2619,Brazil,UHEBARIRIRIO,,-48.81,
0703BCCD79950759BBF18709307ADD3DCD225E31,AEROPUERTO INT. GUAR,WHOS,AEROPUERTO INT. GUAR,-25.51667,,AEROPUERTOIN,,-54.833330000000004,
070E68BE34BE6E0BC26A8E33E5D8ED35338B0CD0,TIMBO GRANDE - SECRETARIA DA AGRICULTURA,WHOS,TIMBO GRANDE - SECRETARIA DA AGRICULTURA,-26.61264,Brazil,TIMBOGRANDE-,,-50.67652,
071BA4B5AA9D1E42E1BB6BA66C1812CBF3EA6330,GUALEGUAYCHU AERO -,WHOS,GUALEGUAYCHU AERO -,-33.28333,,GUALEGUAYCHU,,-58.6,
07448D4204144D6B237E80148E4D5DED09A0DE13,UHE CAMPOS NOVOS MONTANTE 2,WHOS,UHE CAMPOS NOVOS MONTANTE 2,-27.6556,Brazil,UHECAMPOSNOV,,-49.9522,
074E47194249571C2E96AA4C337989DF5C97CA25,PEDREIRA - VILA SANTO ANTONIO,WHOS,PEDREIRA - VILA SANTO ANTONIO,-22.743,Brazil,PEDREIRA-VIL,,-46.895,
075F3D2206DA0DFFB6C6067B848D01602B6859C1,UHE JAGUARI JUSANTE,WHOS,UHE JAGUARI JUSANTE,-23.1992,Brazil,UHEJAGUARIJU,,-46.0183,
07610AD706DF617D3764AA027E2DD7AF4166F7D6,LAVRAS,WHOS,LAVRAS,-21.2261111,Brazil,LAVRAS,,-44.97972221,
0771C9EB87F2F7D575130F05DF171C8251D08902,Arroyo San Francisco - Dr. Torre,WHOS,Arroyo San Francisco - Dr. Torre,-34.7650541,Argentina,ArroyoSanFra,,-58.3234008,
077DD9C162758894B49F46A3766B3FB0C91FB2BC,Represa Capanema,WHOS,Represa Capanema,-25.583779,BRASIL,RepresaCapan,,-53.817043,
0796D6101A9903431156C0D3C030D6D90F4C8E79,TAIO - MARGEM ESQUERDA,WHOS,TAIO - MARGEM ESQUERDA,-27.157,Brazil,TAIO-MARGEME,,-50.037,
07A2E12FE47E6D44796C4D63225A700BABC835F0,Rio Guayquiraró en Pueblo Libe,WHOS,Rio Guayquiraró en Pueblo Libe,-30.2211111111111,Argentina,RioGuayquira,,-59.385,
07BE0540E1ED8FC00284AA9D6D2A6CBA02D7A301,JUNDIAI - ROSEIRA,WHOS,JUNDIAI - ROSEIRA,-23.143,Brazil,JUNDIAI-ROSE,,-46.818,
07DA95953F3613A09F1B26E3E89D643667C2B3C1,El Dorado,WHOS,El Dorado,-26.3833333333333,Argentina,ElDorado,,-54.7,
07DC3554D45C7A36971C99CBCF08C804D56EED03,UHEGOV. JAYME CANET JUNIOR UVAIA MONTANTE,WHOS,UHEGOV. JAYME CANET JUNIOR UVAIA MONTANTE,-25.0756,Brazil,UHEGOV.JAYME,,-50.3889,
07DF3C61EE3C0A4EEC7896CD0C50212079125017,PORTO ALEGRE - CRISTAL,WHOS,PORTO ALEGRE - CRISTAL,-30.11142,Brazil,PORTOALEGRE-,,-51.11248,
07EE662EE605954131B36F7D2EF3F40F038D9BDC,GENERAL CARNEIRO - CENTRO,WHOS,GENERAL CARNEIRO - CENTRO,-26.428,Brazil,GENERALCARNE,,-51.317,
07EF2DF80478F6FAC4AD0695130E849DDEA4E9B5,PONTE NOVA,WHOS,PONTE NOVA,-23.582,Brazil,PONTENOVA,,-45.972,
07F24F8229E6229C0BAE49A1F8C8C72B2B88C41B,SAO BERNARDO DO CAMPO - JARDIM SILVINA,WHOS,SAO BERNARDO DO CAMPO - JARDIM SILVINA,-23.737,Brazil,SAOBERNARDOD,,-46.537,
07FACF02B1693ADAB63521664C5D2A032761B06D,PCH ERNESTO JORGE DREHER PONTE RINCÃO DO IVAI,WHOS,PCH ERNESTO JORGE DREHER PONTE RINCÃO DO IVAI,-29.0333,Brazil,PCHERNESTOJO,,-53.5094,
07FFA694ED1A86347E733D67D392973DF4759551,SB-CA-BRJ Barragem Paiva Castro,WHOS,SB-CA-BRJ Barragem Paiva Castro,-23.3289,Brazil,SB-CA-BRJBar,,-46.6783,
08095BDDC011C8B4153A08F5138B62686661CC17,IGREJINHA - XV DE NOVEMBRO,WHOS,IGREJINHA - XV DE NOVEMBRO,-29.58722221,Brazil,IGREJINHA-XV,,-50.80361111,
080A04A37312369F4726AECA7E5200662AFB7EE9,PCH ANNA MARIA RIBEIRÃO DAS POSSES,WHOS,PCH ANNA MARIA RIBEIRÃO DAS POSSES,-21.4914,Brazil,PCHANNAMARIA,,-43.4719,
0819FF192BDCB1947F1BA9B59C43C6F150D3227E,ANAPOLIS -  RIO DAS ANTAS,WHOS,ANAPOLIS -  RIO DAS ANTAS,-16.324916,Brazil,ANAPOLIS-RIO,,-48.948508,
08305C231824562803FF3F6C9B1483E9704C3437,PCH PONTAL DO PRATA JUSANTE,WHOS,PCH PONTAL DO PRATA JUSANTE,-18.74,Brazil,PCHPONTALDOP,,-52.2836,
083988DC8C2E39D6E0C82B296A857F6A088B8028,Río Corriente - Paso Lucero,WHOS,Río Corriente - Paso Lucero,-28.995,Argentina,RíoCorriente,,-58.5583333333333,
084C0B79CC047B65207DC15CB3EBA627EAC43DA8,ESTÂNCIA DO ESPANTOSO,WHOS,ESTÂNCIA DO ESPANTOSO,-31.5339,Brazil,ESTÂNCIADOES,,-54.2944,
0855CE242DE77BB40E4B546871F6AF5A4E5DFE73,Gualeguaychú - RN N° 136,WHOS,Gualeguaychú - RN N° 136,-32.9796666666667,Argentina,Gualeguaychú,,-58.5043888888889,
0867207DA89BA9D72FBDEDF2C19FB1AAABE1F59F,SAO BORJA,WHOS,SAO BORJA,-28.650090000000002,,SAOBORJA,,-56.016290000000005,
087C97BCC377EBC4182CAB0DE5B6DF33364A8F5C,UHE 14 DE JULHO JUSANTE,WHOS,UHE 14 DE JULHO JUSANTE,-29.0797,Brazil,UHE14DEJULHO,,-51.6814,
088B8AF3E66AC1B89E81E50C5D36EAD6EF40F317,UHE CHAVANTES OLARIA DOS PADRES,WHOS,UHE CHAVANTES OLARIA DOS PADRES,-23.7233,Brazil,UHECHAVANTES,,-49.5558,
089B2770F036DC7CF7DFEB9E95DA5E735E910052,DOURADOS - CENTRO,WHOS,DOURADOS - CENTRO,-22.2275,Brazil,DOURADOS-CEN,,-54.7884,
089C73DCA6C8251F8FF22B318B3BAE1FB05F2CE8,QUADRA - CENTRO,WHOS,QUADRA - CENTRO,-23.29928,Brazil,QUADRA-CENTR,,-48.0526,
08B8576D1E186B346EA5B447FFD3E13A4F50EE98,PCH JOSÉ BARASUOL MONTANTE,WHOS,PCH JOSÉ BARASUOL MONTANTE,-28.2739,Brazil,PCHJOSÉBARAS,,-53.6486,
08B88EA33920F0E72199AE1B7AFCEE9E6B5DF415,CONTAGEM - CENTRO,WHOS,CONTAGEM - CENTRO,-19.917,Brazil,CONTAGEM-CEN,,-44.08,
08C405BC547A27A9D3ECBFF81C43C390FC7E9A7A,CGH DIAMANTINO JUSANTE,WHOS,CGH DIAMANTINO JUSANTE,-17.3306,Brazil,CGHDIAMANTIN,,-52.8025,
08C5CC2E9FBC35AB891E25926124CB043642D6FB,Mariscala,WHOS,Mariscala,-34.0441,Uruguay,Mariscala,,-54.7806,
08C763965BC0FC90CCF5643A5E59F7F9A785E2F6,PCH ESMERIL MONTANTE 1,WHOS,PCH ESMERIL MONTANTE 1,-20.8411,Brazil,PCHESMERILMO,,-47.2942,
08CA092D6803FEF786E868DED25F42E6184DBF6C,Punta del Este,WHOS,Punta del Este,-34.9689399754841,Uruguay,PuntadelEste,,-54.9512230873108,
08CAD4376008366DE185B1F9CEB9FFCD0DA50803,POUSO ALEGRE - MORRO DO CRISTO,WHOS,POUSO ALEGRE - MORRO DO CRISTO,-22.2218,Brazil,POUSOALEGRE-,,-45.9839,
08DA4149E315FC3D656308E25D06BCEF654DC50A,PCH SANTA ROSA MONTANTE,WHOS,PCH SANTA ROSA MONTANTE,-28.0017,Brazil,PCHSANTAROSA,,-49.1139,
08DCE7D1B65C3EB71FF12FA9B26C9DFF69F95FD2,VIAMAO - JARDIM VIAMAR,WHOS,VIAMAO - JARDIM VIAMAR,-30.056,Brazil,VIAMAO-JARDI,,-51.022,
08E6A50973F3AD221EAF5ECAC1FD50B3F4F7FF05,Salto - Aeropuerto Internacional de Nueva Hespérides,WHOS,Salto - Aeropuerto Internacional de Nueva Hespérides,-31.4383972222222,Uruguay,Salto-Aeropu,,-57.9830033333333,
08FC856488B74B2EC7EBB8E82043A76C9CECF20F,RIO DO OESTE - CENTRO,WHOS,RIO DO OESTE - CENTRO,-27.19567,Brazil,RIODOOESTE-C,,-49.79585,
090056B810B086BD5A306CF72A0353348B9AF8FB,UHE SÃO SIMÃO RIO MEIA PONTE,WHOS,UHE SÃO SIMÃO RIO MEIA PONTE,-18.4775,Brazil,UHESÃOSIMÃOR,,-49.615,
090B3B8C73E284E3D75AB0234C04085F9F71C213,Colonia - Aeropuerto Internacional de Laguna de los Patos,WHOS,Colonia - Aeropuerto Internacional de Laguna de los Patos,-34.4518741666667,Uruguay,Colonia-Aero,,-57.7677702777778,
091967DA4303ADCC7A7ED042066DCF958E864AE1,SABARA - ANA LUCIA,WHOS,SABARA - ANA LUCIA,-19.881,Brazil,SABARA-ANALU,,-43.904,
09237D83697805F5EC7AE1EAC4B62D247832B37C,PIRAPORA - DISTRITO INDUSTRIAL,WHOS,PIRAPORA - DISTRITO INDUSTRIAL,-17.322144,Brazil,PIRAPORA-DIS,,-44.92644,
0924F03144D32C0862B8720F6ECBB42DCFBBB5F9,SALETE - RIO WILDY,WHOS,SALETE - RIO WILDY,-26.9559,Brazil,SALETE-RIOWI,,-50.033,
092E0A78766AFF17973C1AAD46EB2C7354066409,FAZENDINHA,WHOS,FAZENDINHA,-25.5192,Brazil,FAZENDINHA,,-49.1456,
093ECA2538AF16B11DA45C9ABCAED6625EE254BA,PRESIDENTE OLEGARIO - AEROPORTO,WHOS,PRESIDENTE OLEGARIO - AEROPORTO,-18.421022,Brazil,PRESIDENTEOL,,-46.41618,
0944A270893C20FD9710D53DF1778DA48641C855,LAJEADO - SANTO ANTONIO,WHOS,LAJEADO - SANTO ANTONIO,-29.487,Brazil,LAJEADO-SANT,,-51.987,
0945ABAE680BEA49EF4A28EB72A55E12E89FF7E9,CUNHA - ETA 2,WHOS,CUNHA - ETA 2,-23.07946,Brazil,CUNHA-ETA2,,-44.94617,
097BA85150EEEA83226EFED42D3D4DF56342C926,Pepirí Miní,WHOS,Pepirí Miní,-27.153304,Argentina,PepiríMiní,,-53.933283,
099F545FB361AC276CEEBAC82F740CA724513AF3,GUIRATINGA,WHOS,GUIRATINGA,-16.35,Brazil,GUIRATINGA,,-53.93,
09B0A1873BC731DDED49D55CE3CD0AAC2276A6D7,UHE MIRANDA BARRAMENTO,WHOS,UHE MIRANDA BARRAMENTO,-18.9097,Brazil,UHEMIRANDABA,,-48.0408,
09C0030EA8A586B8B09A947C3991A54622C34A9B,ENCARNACION - SGAS,WHOS,ENCARNACION - SGAS,-27.71667,,ENCARNACION-,,-55.81667,
09C05F01E05B4F8D95FEFB3AE3EE9CD0780A2855,SAN JAVIER - SANTA ROSA,WHOS,SAN JAVIER - SANTA ROSA,-31.4176111111111,Argentina,SANJAVIER-SA,,-60.3294444444444,
09CAD3704913ED397CA869387EA69B3EAE2A7899,ANAPOLIS - SANTA MARIA DO NAZARE,WHOS,ANAPOLIS - SANTA MARIA DO NAZARE,-16.326,Brazil,ANAPOLIS-SAN,,-48.941,
09F6B82BF55F706678CAC2E1C189C7382C790842,LARANJAL PAULISTA - CENTRO,WHOS,LARANJAL PAULISTA - CENTRO,-23.05236,Brazil,LARANJALPAUL,,-47.83761,
09FCAD5F9B2FE856F73EAA1D046CA354BD30F510,FREDERICO WESTPHALEN,WHOS,FREDERICO WESTPHALEN,-27.39555555,Brazil,FREDERICOWES,,-53.42944443,
0A035A3DB99A8C62D0508BBF8F08BFE2C8E520BF,Río Paraná - Goya,WHOS,Río Paraná - Goya,-29.165,Argentina,RíoParaná- G,,-59.3283333333333,
0A0505AD8DFBA66FBB7887349B076919C13B744F,ANGRA DOS REIS - CAPUTERA,WHOS,ANGRA DOS REIS - CAPUTERA,-22.987,Brazil,ANGRADOSREIS,,-44.218,
0A08DD7D07A31A28BDD65EEAA7035C023EFE972A,CACHOEIRA DA MANTEIGA,WHOS,CACHOEIRA DA MANTEIGA,-16.6572,Brazil,CACHOEIRADAM,,-45.0808,
0A0AF97CA6F4EEEFCE022C1ECEB1AFDC4BE8BB6D,SANTO ANDRE - VILA BASTOS,WHOS,SANTO ANDRE - VILA BASTOS,-23.659,Brazil,SANTOANDRE-V,,-46.533,
0A1ABDE1C9A5EF12BCEAE3AA7CD245C2408D04EB,CGH ENXADRISTA MONTANTE,WHOS,CGH ENXADRISTA MONTANTE,-25.3847,Brazil,CGHENXADRIST,,-51.3853,
0A31AD6EFC10143CCED160085045D29FA1C2F0C3,humboltd,WHOS,humboltd,-31.3888893127441,Argentina,humboltd,,-61.0716667175293,
0A3BE3AD2F4E0E8D26212E85195422E0595E38DB,PCH SÃO BERNARDO MONTANTE,WHOS,PCH SÃO BERNARDO MONTANTE,-22.6122,Brazil,PCHSÃOBERNAR,,-45.5661,
0A5549E1DB506B0E74BA72BCBB8D32E2AF6ACF73,SAO BENTO DO SUL,WHOS,SAO BENTO DO SUL,-26.4,Brazil,SAOBENTODOSU,,-49.38,
0A61E94D40575A7F1F5A1FC428CD18F75CECD82E,PCH PAINA II BARRAMENTO,WHOS,PCH PAINA II BARRAMENTO,-24.8886,Brazil,PCHPAINAIIBA,,-49.5919,
0A767BF826102F212FC98E2846E20F39D7A4AEF6,PCH APUCARANINHA BARRAMENTO,WHOS,PCH APUCARANINHA BARRAMENTO,-23.7494,Brazil,PCHAPUCARANI,,-50.9081,
0A8DFC0F6DE1B1565D1D8DE9767CABFBA9AACD0A,BRASILIA,WHOS,BRASILIA,-15.78972221,Brazil,BRASILIA,,-47.92583332,
0A91CCE62791F8EFE71C95DAF2BF3D82EB2280A2,ALVORADA - PIRATI,WHOS,ALVORADA - PIRATI,-30.023,Brazil,ALVORADA-PIR,,-51.051,
0A9326BE9F981CE010061F53E38B4FB30794055F,BLUMENAU - VELHA GRANDE,WHOS,BLUMENAU - VELHA GRANDE,-26.951,Brazil,BLUMENAU-VEL,,-49.133,
0A99E2E817B9774B9C99936E38C9BAE59A63443D,RIBEIRAO PRETO - SUBSETOR OESTE,WHOS,RIBEIRAO PRETO - SUBSETOR OESTE,-21.152,Brazil,RIBEIRAOPRET,,-47.839,
0AA051730821BB74ABF93AA6C276D09A86663A09,PCH SÃO JOSÉ BARRAMENTO,WHOS,PCH SÃO JOSÉ BARRAMENTO,-21.9381,Brazil,PCHSÃOJOSÉBA,,-46.8156,
0AA7E9B4820659A398D64E9B8813605990AC66B0,CONGONHAS - DOM OSCAR,WHOS,CONGONHAS - DOM OSCAR,-20.504,Brazil,CONGONHAS-DO,,-43.87,
0ABA1DDDFFB21B5B7F49F7EC50A8D4D1C1988630,Riacho Victoria - Victoria,WHOS,Riacho Victoria - Victoria,-32.6316666666667,Argentina,RiachoVictor,,-60.1652777777778,
0AC72440DA05FBF22CE46B20A65E95FAFA6FED8D,FERRAZ DE VASCONCELOS - JARDIM LAZARO,WHOS,FERRAZ DE VASCONCELOS - JARDIM LAZARO,-23.5217,Brazil,FERRAZDEVASC,,-46.3727,
0AE1303A9B4B823FB7662EED383D0C268A03B886,BICO DA PEDRA,WHOS,BICO DA PEDRA,-15.829092,Brazil,BICODAPEDRA,,-43.262394,
0AEBB7D963F6EA9C5D7ACEF2F2B70546893C7261,CAPIVARI -  RIO CAPIVARI,WHOS,CAPIVARI -  RIO CAPIVARI,-23.003429,Brazil,CAPIVARI-RIO,,-47.501019,
0AFF20C34F171F79FAB5D1C8A6F3BA7655EADEC9,BELFORD ROXO - NOVA AURORA,WHOS,BELFORD ROXO - NOVA AURORA,-22.721,Brazil,BELFORDROXO-,,-43.398,
0B101B5F705F6BBEC29DB08A7836771345C11169,LORENA - POLICIA MILITAR,WHOS,LORENA - POLICIA MILITAR,-22.73684,Brazil,LORENA-POLIC,,-45.1237,
0B188ED68F5278B19A772719206B9805DA393356,San Javier - Romang,WHOS,San Javier - Romang,-29.5051111111111,Argentina,SanJavier-Ro,,-59.7397222222222,
0B3D3EC442A698D2A5866EE40AD4E4018726FA34,ILHA DO MEL,WHOS,ILHA DO MEL,-25.49444444,Brazil,ILHADOMEL,,-48.3261111,
0B7B344923E7A2F087087685412E3A6BFC65AA21,OSASCO - QUITAUNA,WHOS,OSASCO - QUITAUNA,-23.524,Brazil,OSASCO-QUITA,,-46.811,
0B8619CDB53BAFC1386AD2D1B1AC9C8996F0D297,LORENA -  RIO MANDI,WHOS,LORENA -  RIO MANDI,-22.735031,Brazil,LORENA-RIOMA,,-45.106828,
0B896874606893005606C92D1704978FD9B35CC9,San Pedro,WHOS,San Pedro,-33.6852989196777,Argentina,SanPedro,,-59.6411018371582,
0BA8B5FC87DF4663D047DA29ADB7DCDF0B92F0FB,MACHADINHO,WHOS,MACHADINHO,-27.5236111,Brazil,MACHADINHO,,-51.7847222,
0BAABBE3C5CFB4DC3A73D853A5BBE8FAE27AD804,BLUMENAU - CORIPOS BAIXO,WHOS,BLUMENAU - CORIPOS BAIXO,-26.905402,Brazil,BLUMENAU-COR,,-49.101902,
0BBAFAB675C7CE35E57FD5E556985DE228B29EC6,SAO PAULO - BOA ESPERANCA,WHOS,SAO PAULO - BOA ESPERANCA,-23.603,Brazil,SAOPAULO-BOA,,-46.449,
0BC15F36AE4A218857949DD8DEF1130C068B25ED,PCH PARAÍSO I JUSANTE,WHOS,PCH PARAÍSO I JUSANTE,-19.0531,Brazil,PCHPARAÍSOIJ,,-52.9936,
0BCAF911FE58D29F89742A05C9514D14C96C7EF0,SEARA - SECRETARIA MUNICIPAL DA AGRICULTURA,WHOS,SEARA - SECRETARIA MUNICIPAL DA AGRICULTURA,-27.15106,Brazil,SEARA-SECRET,,-52.30892,
0BF0607F20CED5548E7A36436C56CD44B9D9380D,UHE CACHOEIRA DOURADA JUSANTE,WHOS,UHE CACHOEIRA DOURADA JUSANTE,-18.4914,Brazil,UHECACHOEIRA,,-49.5181,
0C16E32247C0A1F1FF9F5992B544CEBF29715214,ANGRA DOS REIS - SERTAO DE MAMBUCABA,WHOS,ANGRA DOS REIS - SERTAO DE MAMBUCABA,-22.951,Brazil,ANGRADOSREIS,,-44.565,
0C592A3BB44A548302F9F3CE51B71A0E2C00E6CB,Melo,WHOS,Melo,-32.3516666666667,Uruguay,Melo,,-54.1933333333333,
0C5F98FB6C472C58CAC4F0E2B4DCE5D1D188B1B6,JUIZ DE FORA,WHOS,JUIZ DE FORA,-21.76999999,Brazil,JUIZDEFORA,,-43.36444444,
0C61581FE957B2F7EBB026B47612803905B910F6,JANUARIA - CENTRO,WHOS,JANUARIA - CENTRO,-15.49,Brazil,JANUARIA-CEN,,-44.361,
0C649B20430C882593531870308E527DACDB1A88,SANTO ANTONIO DO ITAMBE,WHOS,SANTO ANTONIO DO ITAMBE,-18.453339,Brazil,SANTOANTONIO,,-43.288778,
0C6D706A828767590648F6AA95CA6F20B4914CA4,SÍTIO JAPUIRA,WHOS,SÍTIO JAPUIRA,-14.8142,Brazil,SÍTIOJAPUIRA,,-56.8381,
0C72DE937EF81801E5C107B5F66E7A4CF1832868,SAO JOSE DO RIO PRETO - ELDORADO,WHOS,SAO JOSE DO RIO PRETO - ELDORADO,-20.795,Brazil,SAOJOSEDORIO,,-49.41,
0C7DBCC229E69A4EA4F497A364F118D2775ED51D,UHE RETIRO BAIXO PONTE NOVA DO PARAOPEBA,WHOS,UHE RETIRO BAIXO PONTE NOVA DO PARAOPEBA,-19.9483,Brazil,UHERETIROBAI,,-44.3056,
0C86F08C0A573C341CD37DE9AEDD57DC0A5D22A4,ITAIPU,WHOS,ITAIPU,-25.4269444,Brazil,ITAIPU,,-54.5930556,
0C8ACB1C3C8CB047975A34A8BC4919C7E8E1A8C2,ITAQUAQUECETUBA - SABESP RESERVATORIO CR4,WHOS,ITAQUAQUECETUBA - SABESP RESERVATORIO CR4,-23.4639,Brazil,ITAQUAQUECET,,-46.3039,
0C91EAD141BEA3951E95FF62E2A01A25DC4245D6,PCH CRIÚVA  ALÇA,WHOS,PCH CRIÚVA  ALÇA,-28.9639,Brazil,PCHCRIÚVAALÇ,,-50.8028,
0C937248516F668D72D94BE6046DEE6585E79D22,Sistema Setúbal - Santa Fe - L,WHOS,Sistema Setúbal - Santa Fe - L,-31.6302777777778,Argentina,SistemaSetúb,,-60.6777777777778,
0C99E28EE73BB7192CF17B0185BCB42F72FCC7CD,LAGES - MORRO DO PANDOLFO,WHOS,LAGES - MORRO DO PANDOLFO,-27.81348,Brazil,LAGES-MORROD,,-50.37122,
0CB300C793BB9054CD2F5F15A9C19189FAEEBCB0,PARIQUERA-ACU - CENTRO,WHOS,PARIQUERA-ACU - CENTRO,-24.714,Brazil,PARIQUERA-AC,,-47.881,
0CB419423E4D7B1C7C39A035FD12D8518AAA9E39,SOROCABA - CERRADO,WHOS,SOROCABA - CERRADO,-23.508,Brazil,SOROCABA-CER,,-47.486,
0CC1426BF78D0F6251C0C5687950A04AA25344D4,RAFARD - CENTRO,WHOS,RAFARD - CENTRO,-23.01328,Brazil,RAFARD-CENTR,,-47.53084,
0CC4322B870E5C265DE8FC2411A1242426B02463,ALBERTO FLORES,WHOS,ALBERTO FLORES,-20.1667,Brazil,ALBERTOFLORE,,-44.1606,
0CCEC82926E845DC4E3F2F3BA03B5EC7B4E6BED8,RAPOSOS - RIO DAS VELHAS,WHOS,RAPOSOS - RIO DAS VELHAS,-19.9666,Brazil,RAPOSOS-RIOD,,-43.806,
0CE5B629B4B60BA442FA98BA649DEF8330863AC2,SANTANA,WHOS,SANTANA,-22.533,Brazil,SANTANA,,-43.817,
0CE758D8B881B17BBB5F872A3D1916F86D9DE38F,PCH PEDRO AFFONSO JUNQUEIRA (ANTAS I) BARRAMENTO,WHOS,PCH PEDRO AFFONSO JUNQUEIRA (ANTAS I) BARRAMENTO,-21.7678,Brazil,PCHPEDROAFFO,,-46.6075,
0CFF532AFBAD7BC4E7D4F2C93FA981615E33542F,ITAPEVA,WHOS,ITAPEVA,-23.981920000000002,,ITAPEVA,,-48.88582,
0D1389C07C4F17B66108EF66D140A067E56C9E62,UHE SALTO OSÓRIO BARRAMENTO,WHOS,UHE SALTO OSÓRIO BARRAMENTO,-25.5331,Brazil,UHESALTOOSÓR,,-53.0106,
0D1803F6522DEDBF66F7597E3F7B89FCB42DB96F,TRES CORACOES,WHOS,TRES CORACOES,-21.7,Brazil,TRESCORACOES,,-45.25,
0D2B3319BF4B2A74FC6C3AFA26395267CD99104E,ITUMBIARA,WHOS,ITUMBIARA,-18.40972222,Brazil,ITUMBIARA,,-49.19194444,
0D2DC5829F2CA42ACAE9CB273766203A043931B2,PARATI,WHOS,PARATI,-23.2247,Brazil,PARATI,,-44.7614,
0D30E11AEE4C22D9800001464A117E01FE28A6C6,emilia,WHOS,emilia,-31.057222366333,Argentina,emilia,,-60.7425003051758,
0D38E3DBEC227BFC28272A34E9BF523C7FE36CC1,PCH CULUENE BARRAMENTO,WHOS,PCH CULUENE BARRAMENTO,-14.6333,Brazil,PCHCULUENEBA,,-53.9128,
0D5602C39972BC800A0FA77B0D01735CD0D0B149,JECEABA - CENTRO,WHOS,JECEABA - CENTRO,-20.54128,Brazil,JECEABA-CENT,,-43.98742,
0D68B6CB3422EF5C1E92AFD123DE89FB8BD943EE,CAMPO LIMPO PAULISTA - AVENIDA JOAO AMATO,WHOS,CAMPO LIMPO PAULISTA - AVENIDA JOAO AMATO,-23.201,Brazil,CAMPOLIMPOPA,,-46.795,
0D7A7AB55C08DB61A1E6C2E34A27B2D63EDFAF2C,EMBU-GUACU - JARDIM FLORIDA,WHOS,EMBU-GUACU - JARDIM FLORIDA,-23.848,Brazil,EMBU-GUACU-J,,-46.819,
0D827B216AB24CC03E80FFFDB28722CFCD524D67,UHE CACHOEIRA DOURADA RIO PIEDADE,WHOS,UHE CACHOEIRA DOURADA RIO PIEDADE,-18.5247,Brazil,UHECACHOEIRA,,-49.2181,
0D9645B5A32C37D81B87F8194F8CCFDC69659B9D,UHE ITAIPU SÃO FRANCISCO FALSO,WHOS,UHE ITAIPU SÃO FRANCISCO FALSO,-24.96,Brazil,UHEITAIPUSÃO,,-54.175,
0DA8A7F5A84C43E06394E335D5916814D5319312,PCH SANTA LAURA BARRAMENTO,WHOS,PCH SANTA LAURA BARRAMENTO,-26.7672,Brazil,PCHSANTALAUR,,-52.3233,
0DA8BC964E79B1699A093F4AA3021E5E87C47B66,MANGARATIBA - MURIQUI,WHOS,MANGARATIBA - MURIQUI,-22.91888888,Brazil,MANGARATIBA-,,-43.94888888,
0DAFE282D739A78058E31BE62DF20EE921ED441E,ANTONINA - CENTRO,WHOS,ANTONINA - CENTRO,-25.429,Brazil,ANTONINA-CEN,,-48.71,
0DCDDE0DD1F9590CBB4FB61C7F75FAD0A14B2BB7,JOAO MONLEVADE - N. S. DA CONCEICAO,WHOS,JOAO MONLEVADE - N. S. DA CONCEICAO,-19.811,Brazil,JOAOMONLEVAD,,-43.176,
0DD7D7C187D990CA4D7038E704051F15E086F3B6,ITAPEVA,WHOS,ITAPEVA,-23.95,Brazil,ITAPEVA,,-48.88,
0DD84206A7A5D23F9ED92C034C6ADE78055A592C,FORMIGAS,WHOS,FORMIGAS,-25.5378,Brazil,FORMIGAS,,-49.5444,
0DECE4FE81F768ADA44F35910BE3015D5DE76939,VARZEA PAULISTA - COMDEC,WHOS,VARZEA PAULISTA - COMDEC,-23.211,Brazil,VARZEAPAULIS,,-46.832,
0DF0D5419603049E59E1CBA9FC7C09A6552E1D15,UHE ASSIS CHATEAUBRIAND LIMÃO,WHOS,UHE ASSIS CHATEAUBRIAND LIMÃO,-19.8808,Brazil,UHEASSISCHAT,,-53.9408,
0DF4C4284AA14E0A545C0F855B4F6FF558693CEE,Monte Caseros,WHOS,Monte Caseros,-30.25,Argentina,MonteCaseros,,-57.6333333333333,
0DF4DB2C10C0CFF7DF0D54A576C7F7E7F434B1A9,SAO LOURENCO - RIO VERDE,WHOS,SAO LOURENCO - RIO VERDE,-22.113072,Brazil,SAOLOURENCO-,,-45.051502,
0DFB18B147D8D78FF208A03917B35589C919146F,Villa Cardal,WHOS,Villa Cardal,-34.291,Uruguay,VillaCardal,,-56.396,
0E0001394259502173ED795CDAEE8EFB888E4DE6,CAMPINAS -  CORREGO SERAFIM,WHOS,CAMPINAS -  CORREGO SERAFIM,-22.893,Brazil,CAMPINAS-COR,,-47.06,
0E0C9D938F752B9777B4EE9C2C973331C01D964E,GARUVA - ESTRADA GERAL QUIRIRI,WHOS,GARUVA - ESTRADA GERAL QUIRIRI,-26.11388,Brazil,GARUVA-ESTRA,,-49.00358,
0E13156A491FFB97A608AB81DD214DBD10EC5B8E,BLUMENAU - FORTALEZA ALTA,WHOS,BLUMENAU - FORTALEZA ALTA,-26.852,Brazil,BLUMENAU-FOR,,-49.047,
0E179EF36A530492CD495CE94B8F3BCC808E0AE4,APARECIDA DE GOIANIA - JARDIM MONTE SINAI,WHOS,APARECIDA DE GOIANIA - JARDIM MONTE SINAI,-16.84,Brazil,APARECIDADEG,,-49.315,
0E1C2C7A9D02CF584B0A349E32E3A81D293B0D2E,EL TREBOL - TH12-24,WHOS,EL TREBOL - TH12-24,-32.23333,,ELTREBOL-TH1,,-61.650000000000006,
0E279EF44D80542996633A2EF03C472D234F4D51,PCH SANTA CAROLINA BARRAMENTO,WHOS,PCH SANTA CAROLINA BARRAMENTO,-28.6153,Brazil,PCHSANTACARO,,-51.4033,
0E3BAFD601AC9D1A7D2B7609344799BE98D08D04,PCH SALTO DONNER I DOUTOR PEDRINHO CENTRO,WHOS,PCH SALTO DONNER I DOUTOR PEDRINHO CENTRO,-26.715,Brazil,PCHSALTODONN,,-49.4853,
0E3E4068314F09B2CD674623A309FA2B4EAD5C8D,LAVRAS-ESAL.,WHOS,LAVRAS-ESAL.,-21.23,Brazil,LAVRAS-ESAL.,,-45.0,
0E61AA107827AB7A11C233B7385483CABA051E45,BALNEARIO CAMBORIU - BARRA,WHOS,BALNEARIO CAMBORIU - BARRA,-27.007,Brazil,BALNEARIOCAM,,-48.596,
0E62ED51FDF59BABD95E1125C94586B4626437F3,B. BONITA,WHOS,B. BONITA,-22.52,Brazil,B.BONITA,,-48.5413889,
0E7616E6047B0C7A56B3A34F229E16CBE83D790A,RIO DE JANEIRO - PENHA,WHOS,RIO DE JANEIRO - PENHA,-22.839,Brazil,RIODEJANEIRO,,-43.279,
0E89C1C9348974ADEEB2F983C789D91B95305CAC,JATAI,WHOS,JATAI,-17.923622,Brazil,JATAI,,-51.717467,
0E8AD1D96FE08119C2DA3955D7F5E7214C90F524,BARRA DO GARCAS,WHOS,BARRA DO GARCAS,-15.85,Brazil,BARRADOGARCA,,-52.38,
0E9972095C994AE32136547E6CC3700AFA5C4DD4,SAO CAETANO DO SUL - MAUA,WHOS,SAO CAETANO DO SUL - MAUA,-23.644,Brazil,SAOCAETANODO,,-46.572,
0E9C3601E9E118AE14B10CBBF0A902549BA41830,FLORIANOPOLIS - AGRONOMICA,WHOS,FLORIANOPOLIS - AGRONOMICA,-27.58194443,Brazil,FLORIANOPOLI,,-48.53305554,
0E9CD8F13DD209AAE81185706B84C76A4B782F7E,PCH SÃO JOÃO BARRAMENTO,WHOS,PCH SÃO JOÃO BARRAMENTO,-20.8072,Brazil,PCHSÃOJOÃOBA,,-46.7092,
0EA04EAF7A55AB2E562DF710E078DBF63F22164F,PETROPOLIS - VALE DO CUIABA2,WHOS,PETROPOLIS - VALE DO CUIABA2,-22.336,Brazil,PETROPOLIS-V,,-43.047,
0EC4F836E24D22DA139C7E7EC6BA042CCD0C87E4,GENERAL CARNEIRO,WHOS,GENERAL CARNEIRO,-26.3986111,Brazil,GENERALCARNE,,-51.35361111,
0EC8D494DBE4C3C557663BC34F0E290BDAE2C3C4,PCH SANTO ANTÔNIO DO CAIAPÓ MONTANTE 1,WHOS,PCH SANTO ANTÔNIO DO CAIAPÓ MONTANTE 1,-16.555,Brazil,PCHSANTOANTÔ,,-51.2928,
0ED207F2CE7DF377020ABC6B1A36F646CFCF8ADB,UHE SALTO DO IPORANGA JUSANTE,WHOS,UHE SALTO DO IPORANGA JUSANTE,-24.1094,Brazil,UHESALTODOIP,,-47.6861,
0ED7C4706E055E2DCC9D19C1AB9C0B060C52F90A,Sequeira,WHOS,Sequeira,-31.004877,Uruguay,Sequeira,,-56.879045,
0EE98527EAEADD4FDC8136027AEA5F8E66184180,SAO LUIS DO PARAITINGA,WHOS,SAO LUIS DO PARAITINGA,-23.22833332,Brazil,SAOLUISDOPAR,,-45.41694443,
0EEBDFAA7EE830C98876BE347C6886661FAC5739,JARAGUA DO SUL - BOMBEIRO DE NEREU RAMOS,WHOS,JARAGUA DO SUL - BOMBEIRO DE NEREU RAMOS,-26.4548,Brazil,JARAGUADOSUL,,-49.1663,
0EEEC877475EFD58FC3A7BF9FB2A19D10865EDD9,PIPIRIPAU FRINOCAP - DF 230,WHOS,PIPIRIPAU FRINOCAP - DF 230,-15.6572,Brazil,PIPIRIPAUFRI,,-47.6247,
0EF1911663167EB3538CD7BCA42A3AD0581D6D98,PCH SALTO MAUÁ JUSANTE,WHOS,PCH SALTO MAUÁ JUSANTE,-24.045,Brazil,PCHSALTOMAUÁ,,-50.7128,
0F030731445B75496FB3B6C1DA0903DC06D236A2,CAMPINA GRANDE DO SUL - JARDIM DIAMANTE,WHOS,CAMPINA GRANDE DO SUL - JARDIM DIAMANTE,-25.334,Brazil,CAMPINAGRAND,,-49.079,
0F03397C97C9F2CA7A7630FE8B6BB59FF05058F4,VILLA DE MARIA DEL R,WHOS,VILLA DE MARIA DEL R,-29.966670000000004,,VILLADEMARIA,,-63.66667,
0F1684C897BC636BBDA7491C57F47AF4C0BAED03,SAO FRANCISCO DO SUL - CENTRO,WHOS,SAO FRANCISCO DO SUL - CENTRO,-26.2426,Brazil,SAOFRANCISCO,,-48.6385,
0F21DA32554D1E068D7B6D8CE1B97A33CE73B810,SAO SEBASTIAO,WHOS,SAO SEBASTIAO,-23.82,Brazil,SAOSEBASTIAO,,-45.42,
0F2A9C19722279EA805188D6030F1BA5A85201F9,MELCHIOR,WHOS,MELCHIOR,-15.9267,Brazil,MELCHIOR,,-48.2589,
0F2EF2B1A23A9F044115E83673EA8664BB286255,CACAPAVA DO SUL,WHOS,CACAPAVA DO SUL,-30.54527777,Brazil,CACAPAVADOSU,,-53.46694443,
0F413524CCFF6E7916C8077F1B6EC2B51F08952E,MOSTARDAS,WHOS,MOSTARDAS,-31.248889,Brazil,MOSTARDAS,,-50.908056,
0F4758F6F7345CE0A6A78E39809D7DDC9194172C,ANGRA DOS REIS - CAMORIM,WHOS,ANGRA DOS REIS - CAMORIM,-22.998,Brazil,ANGRADOSREIS,,-44.264,
0F4824EDAD4208BAFE73229F99A49A928FEFDD23,PCH ESMERALDA BARRAMENTO,WHOS,PCH ESMERALDA BARRAMENTO,-27.7886,Brazil,PCHESMERALDA,,-51.3469,
0F4A572F2763849B3F0E0EC17A0AC35666291EFE,BETIM - CASA AMARELA,WHOS,BETIM - CASA AMARELA,-20.013,Brazil,BETIM-CASAAM,,-44.222,
0F5BA64059E9BBEA61ADBCA5B3D0BB934338E3D6,LIMEIRA - JARDIM LAGOA NOVA,WHOS,LIMEIRA - JARDIM LAGOA NOVA,-22.611,Brazil,LIMEIRA-JARD,,-47.412,
0F725FE71D6F0563B6B2032E810FC6A5AF97C020,RIO GRANDE DA SERRA - VILA LOPES,WHOS,RIO GRANDE DA SERRA - VILA LOPES,-23.729,Brazil,RIOGRANDEDAS,,-46.392,
0F744A3B8055CC8E1FA6A78F73C138F867654466,PCH MOINHO MONTANTE,WHOS,PCH MOINHO MONTANTE,-28.0819,Brazil,PCHMOINHOMON,,-51.2583,
0F81E44FFD8EE8FD4D30603961B535DCD1BC1192,SAO PAULO - PENHA,WHOS,SAO PAULO - PENHA,-23.518,Brazil,SAOPAULO-PEN,,-46.553,
0F8B85F9523D76ADBF965B8DE0C7D53A460E369F,PCH CATAS ALTAS I MONTANTE 2,WHOS,PCH CATAS ALTAS I MONTANTE 2,-24.4822,Brazil,PCHCATASALTA,,-49.0664,
0F919F0ECAA90AF6CF754A12E43838C321284AA5,JACINTO MACHADO - RIO DA PEDRA,WHOS,JACINTO MACHADO - RIO DA PEDRA,-28.9975,Brazil,JACINTOMACHA,,-49.7621,
0F963B06A9084BB1B4E6FDD1E5F535F5F0BF6DB9,PCH PRIMAVERA MONTANTE 1,WHOS,PCH PRIMAVERA MONTANTE 1,-15.4072,Brazil,PCHPRIMAVERA,,-54.4322,
0FA45FB41312C9D657163F4C2FC71EA6634E4BD7,ARROIO DO TIGRE - TABOAZINHO,WHOS,ARROIO DO TIGRE - TABOAZINHO,-29.33448,Brazil,ARROIODOTIGR,,-53.0845,
0FABF3B649C1417CEF3170D41FE2047837123259,USINA COURO DO CERVO,WHOS,USINA COURO DO CERVO,-21.3422,Brazil,USINACOURODO,,-45.1714,
0FAE4B9F54EC7FA7F837FB35028588EDB254420A,CAMPINAS,WHOS,CAMPINAS,-23.0,Brazil,CAMPINAS,,-47.13,
0FB9DA6A38E56F9B857A563F717A489CA7430787,SAPUCAIA DO SUL - ARROIO JOSE JOAQUIM,WHOS,SAPUCAIA DO SUL - ARROIO JOSE JOAQUIM,-29.8126,Brazil,SAPUCAIADOSU,,-51.162,
0FC1A5E306A6B695FBE3C82D107580051F219784,VALLEGRANDE - SLLP,WHOS,VALLEGRANDE - SLLP,-18.816670000000002,,VALLEGRANDE-,,-64.08333,
0FC324BBBA4FFF1E03456BC98C7B8518340DE501,PETROPOLIS - ALTO DA SERRA,WHOS,PETROPOLIS - ALTO DA SERRA,-22.53,Brazil,PETROPOLIS-A,,-43.17,
0FC9B904584FDD0649D244AC4EF80A97A282E9F6,SAO PEDRO - PORTAL DAS FLORES,WHOS,SAO PEDRO - PORTAL DAS FLORES,-22.5606,Brazil,SAOPEDRO-POR,,-47.9067,
0FCB34BD13AAC78B19999D8794711F0C5DCC1F89,BAMBUI,WHOS,BAMBUI,-20.0311111,Brazil,BAMBUI,,-46.00888888,
0FD032AEFA172DC4932971F08C56773E31D0AF55,ITUIUTABA,WHOS,ITUIUTABA,-18.95277777,Brazil,ITUIUTABA,,-49.52499999,
0FD1408F05697A437B7DA3D24479F9B7C36CAF61,PCH SÃO GONÇALO BARRAMENTO,WHOS,PCH SÃO GONÇALO BARRAMENTO,-19.8139,Brazil,PCHSÃOGONÇAL,,-43.2661,
0FD7BE364D0D43D87449EB432654758338276437,BOTUCATU,WHOS,BOTUCATU,-22.87,Brazil,BOTUCATU,,-48.45,
0FDD71B128B824CE5C3AD8053064AFC48E6D7A44,PAPANDUVA - NOVA CULTURA,WHOS,PAPANDUVA - NOVA CULTURA,-26.6898,Brazil,PAPANDUVA-NO,,-50.14341,
0FFB2C225730752467B87A470F8737FC52077D30,UHE JURUPARA BARRAMENTO,WHOS,UHE JURUPARA BARRAMENTO,-23.9622,Brazil,UHEJURUPARAB,,-47.3897,
101AAB476F990E6A78893D06CCD68D5EF6830E85,bombal-i,WHOS,bombal-i,-33.4319458007812,Argentina,bombal-i,,-61.2861099243164,
103634A0A1063DE263465AB0E70ED7FBCCB0BC9C,CAMPO TENENTE,WHOS,CAMPO TENENTE,-25.98,Brazil,CAMPOTENENTE,,-49.68,
1037B7059251C9531092885A2122BF2112D8486A,ARINOS,WHOS,ARINOS,-15.91527777,Brazil,ARINOS,,-46.10722222,
1041531DDD1BCBE9DD78CCF285AAA42153E5B71F,ROLANTE - FAZENDA PASSOS,WHOS,ROLANTE - FAZENDA PASSOS,-29.668913,Brazil,ROLANTE-FAZE,,-50.662014,
1048CAEE53EB7D9085CCE192337A72B2649D77EA,BARRA DO TURVO - CENTRO,WHOS,BARRA DO TURVO - CENTRO,-24.757,Brazil,BARRADOTURVO,,-48.505,
104AC96CC8E949BA7D49F022B79CA6771AAE2D0F,CURITIBA - ATUBA,WHOS,CURITIBA - ATUBA,-25.384,Brazil,CURITIBA-ATU,,-49.197,
105FBC4A44622625D3764B7E5DC43DF96245CBA3,LAGOINHA - ETA SABESP,WHOS,LAGOINHA - ETA SABESP,-23.093178,Brazil,LAGOINHA-ETA,,-45.189203,
1066887FD64E197D798261FA209CCE5FEAAE81A1,TUPA,WHOS,TUPA,-21.927251,Brazil,TUPA,,-50.490251,
1078F77570260DB1579A328BB9A74F172A1D948F,SAO LOURENCO DA SERRA - PAIOL DO MEIO,WHOS,SAO LOURENCO DA SERRA - PAIOL DO MEIO,-24.571,Brazil,SAOLOURENCOD,,-48.645,
108EA5E9C7C0CFD735E1348453D71239A4892FF2,SAO DOMINGOS - CENTRO,WHOS,SAO DOMINGOS - CENTRO,-26.55964,Brazil,SAODOMINGOS-,,-52.53216,
109312915B23DB8AF425A71171BEA8C206EE24C2,Cerro Amarillo,WHOS,Cerro Amarillo,-30.62427,Uruguay,CerroAmarill,,-56.657495,
109745836DBF5BF42C5FFBA06EA899F49309DBAB,SAO MATEUS DO SUL,WHOS,SAO MATEUS DO SUL,-25.83555555,Brazil,SAOMATEUSDOS,,-50.36888888,
109AD2A2D88B8FA97AF6CF5DFE27031B76989EFD,PAROBE - PARA¡SO,WHOS,PAROBE - PARA¡SO,-29.629,Brazil,PAROBE-PARA¡,,-50.815,
10A4677F27D068EEB48646E321D0FE116CB0BF2D,JARAGUA DO SUL - CORPO DE BOMBEIROS,WHOS,JARAGUA DO SUL - CORPO DE BOMBEIROS,-26.42641,Brazil,JARAGUADOSUL,,-49.07919,
10A470A9E153FFCA3A1E436A2CE69E8B11B11C86,SAO PAULO - PIRAJUSSARA,WHOS,SAO PAULO - PIRAJUSSARA,-23.638,Brazil,SAOPAULO-PIR,,-46.78,
10A54D8BA64552EE73D3E5CA2B519B7F382969E7,PONTE DA BR-040 - PARACATU,WHOS,PONTE DA BR-040 - PARACATU,-17.5025,Brazil,PONTEDABR-04,,-46.5711,
10A869B1BFE7A5309198556A02BBD48B146A79D2,PETROPOLIS - RUA ARARUAMA/QUITANDINHA,WHOS,PETROPOLIS - RUA ARARUAMA/QUITANDINHA,-22.52,Brazil,PETROPOLIS-R,,-43.22,
10AD14ADDEFFBAA82A607B6B59CDECC06C523028,ALMIRANTE TAMANDARE - CENTRO,WHOS,ALMIRANTE TAMANDARE - CENTRO,-25.31,Brazil,ALMIRANTETAM,,-49.298,
10BF7860920652B866D4F1456C18B6DD4B17B94E,SAO PAULO - VILA CLEMENTINO 2,WHOS,SAO PAULO - VILA CLEMENTINO 2,-23.602743,Brazil,SAOPAULO-VIL,,-46.649511,
10C8D5BABBC379D34D37A5F6235C4234A8AE960D,CAMBORIU - MONTE ALEGRE,WHOS,CAMBORIU - MONTE ALEGRE,-27.002,Brazil,CAMBORIU-MON,,-48.665,
10F5D5BC669D2151B2FA5D918C6D6AD2DF2D4D0F,CORGUINHO - SAAE,WHOS,CORGUINHO - SAAE,-19.83127,Brazil,CORGUINHO-SA,,-54.83133,
10FA5D2731DFB6719C5DE9B1970540C5D62BED9A,CAMANDUCAIA - 04,WHOS,CAMANDUCAIA - 04,-22.772,Brazil,CAMANDUCAIA-,,-46.095,
110C845E936F01E879AC568E439D0116D6748EF0,PARACAMBI - CENTRO,WHOS,PARACAMBI - CENTRO,-22.5985,Brazil,PARACAMBI-CE,,-43.7142,
110CDE2C24665C03489506AF7F1A304C7D9ADBB3,SANTA CRUZ,WHOS,SANTA CRUZ,-22.92194443,Brazil,SANTACRUZ,,-43.68694444,
112AF2B4F2E85AAF94857C4A02C7481D075EAD17,PARATI - LARANJEIRAS,WHOS,PARATI - LARANJEIRAS,-23.333,Brazil,PARATI-LARAN,,-44.678,
1145F407D47E20C312FC60D97107F3105AEF600F,SOROCABA,WHOS,SOROCABA,-23.42603,,SOROCABA,,-47.585550000000005,
114B171C8C3E5903B73B112996619D04DE5C0017,CASSILANDIA,WHOS,CASSILANDIA,-19.12249999,Brazil,CASSILANDIA,,-51.72083332,
1153946E7D2F29C33EB50F518442E21ED1FB23A0,Durazno,WHOS,Durazno,-33.35108,,Durazno,,-56.50235000000001,
1175E9E378DE381962B34A84C6A81E591F51CBF0,ARAGARCAS,WHOS,ARAGARCAS,-15.90277777,Brazil,ARAGARCAS,,-52.24527777,
118AA839FDCA30961A2BFE53720E550FE119B510,MONTEIRO LOBATO - CENTRO,WHOS,MONTEIRO LOBATO - CENTRO,-22.9564,Brazil,MONTEIROLOBA,,-45.8379,
118C470E65CD656EBF713535C9ACE823D2EC921A,SAO PAULO - SAO MIGUEL PAULISTA,WHOS,SAO PAULO - SAO MIGUEL PAULISTA,-23.5,Brazil,SAOPAULO-SAO,,-46.451,
118F01D75FCC8C854DEBAE0CB4BF4D46E511C8F0,RIO DO FORNO MAMPITUBA,WHOS,RIO DO FORNO MAMPITUBA,-29.2933,Brazil,RIODOFORNOMA,,-49.8231,
119A863F049D6735F7A1079A4A3BA63107B3AB77,PCH BEDIM BARRAMENTO,WHOS,PCH BEDIM BARRAMENTO,-26.0911,Brazil,PCHBEDIMBARR,,-52.9558,
11C353D65BC878AE2113274EF923E31BF02C9E19,PCH ERNESTO JORGE DREHER  BARRAMENTO,WHOS,PCH ERNESTO JORGE DREHER  BARRAMENTO,-29.1203,Brazil,PCHERNESTOJO,,-53.3661,
11C4F9464191E99A318ECEC06F76EB2C06CC1F17,UBATUBA - UBATUMIRIM,WHOS,UBATUBA - UBATUMIRIM,-23.305,Brazil,UBATUBA-UBAT,,-44.869,
11CC4264CA650102BD10552D2DCB27E4AC2EDA4B,SAO GABRIEL,WHOS,SAO GABRIEL,-30.341438,Brazil,SAOGABRIEL,,-54.310909,
11CF8831703733C0CE516B4FCE2838056E943582,Uruguay  - Concepción,WHOS,Uruguay  - Concepción,-32.4776944444444,Argentina,Uruguay-Conc,,-58.2207777777778,
11D9707E9D0E494903DF3E028BBD858C9CB41F3E,CANANEIA - CENTRO,WHOS,CANANEIA - CENTRO,-25.00111111,Brazil,CANANEIA-CEN,,-47.93305554,
11DA8AF34F7D5A8B6211C98BB6F580ABB0C1C37C,TIRADENTES - PACU,WHOS,TIRADENTES - PACU,-21.109,Brazil,TIRADENTES-P,,-44.179,
11E98F14EE0BE5D1467FA5123CF877C877A39250,SAPUCAIA DO SUL - RUA SANTA LUZIA,WHOS,SAPUCAIA DO SUL - RUA SANTA LUZIA,-29.856,Brazil,SAPUCAIADOSU,,-51.097,
11ED98B058F21D0EED798B698F7FFE1D83D61620,MUNDO NOVO - UBS VALDIR PAZZOTI,WHOS,MUNDO NOVO - UBS VALDIR PAZZOTI,-23.93883,Brazil,MUNDONOVO-UB,,-54.29135,
11F906A561D5D3513AE69C3A5A5AA1470C490574,ALEGRETE,WHOS,ALEGRETE,-29.709083,Brazil,ALEGRETE,,-55.525486,
12075A1FBBB81CE32F29B495D11365B6E8955E22,SAO BERNARDO DO CAMPO - AREIAO,WHOS,SAO BERNARDO DO CAMPO - AREIAO,-23.755,Brazil,SAOBERNARDOD,,-46.531,
12087D35458C07376269CB43426C9D743AEB654A,Rivera,WHOS,Rivera,-30.8964733329487,Uruguay,Rivera,,-55.5426627810796,
1218E9AFBB904969278461FB52BA3B403D58E1EB,MARACAJA - CENTRO,WHOS,MARACAJA - CENTRO,-28.84704,Brazil,MARACAJA-CEN,,-49.45364,
122392DF404B45C7D4B0D7602AC957839ECC9F86,PCH SALTO BELO BARRAMENTO,WHOS,PCH SALTO BELO BARRAMENTO,-14.8689,Brazil,PCHSALTOBELO,,-53.3014,
122670C4EB1BBD36E801952DDC95965A4590D19A,CGH RIO VERMELHO JUSANTE,WHOS,CGH RIO VERMELHO JUSANTE,-26.3247,Brazil,CGHRIOVERMEL,,-49.3247,
123A9417FE10F6D9277C725738F151BD7E279D5A,BETIM - JARDIM TERESOPOLIS,WHOS,BETIM - JARDIM TERESOPOLIS,-19.952,Brazil,BETIM-JARDIM,,-44.12,
12416906ECD3F8D9A1A73ED41101E7B939505CD1,COTIA - MONTE CATINE,WHOS,COTIA - MONTE CATINE,-23.641,Brazil,COTIA-MONTEC,,-47.0,
1256573651AFD18A399D83E65578040D18D90575,PCH VERDE 4A MONTANTE 1,WHOS,PCH VERDE 4A MONTANTE 1,-19.7394,Brazil,PCHVERDE4AMO,,-53.4519,
126D020588C122B893BE6F4A794B4D41F7E9BF9E,UHE IGARAPAVA BARRAMENTO,WHOS,UHE IGARAPAVA BARRAMENTO,-19.9922,Brazil,UHEIGARAPAVA,,-47.7583,
1285F372BB032C7BFEEF22C844E5F0E412C4B2E4,PAROBE - LARANJEIRAS,WHOS,PAROBE - LARANJEIRAS,-29.634,Brazil,PAROBE-LARAN,,-50.846,
12A49F18C93FBA5CFD3146A842362EC99483DEFE,PCH SÃO FRANCISCO BARRAMENTO,WHOS,PCH SÃO FRANCISCO BARRAMENTO,-24.7328,Brazil,PCHSÃOFRANCI,,-53.8928,
12AEA04EEA3600DBF7B57752645FCF8D83BD1DC1,UHE CAPIVARA PORTO SANTA TEREZINHA,WHOS,UHE CAPIVARA PORTO SANTA TEREZINHA,-23.1225,Brazil,UHECAPIVARAP,,-50.4503,
12AFC881FEF9388D3AD16CF06F3A0F39E0262437,PCH NOVA FÁTIMA BARRAMENTO,WHOS,PCH NOVA FÁTIMA BARRAMENTO,-28.0414,Brazil,PCHNOVAFÁTIM,,-49.1283,
12B6E9C833B1F5B0308DBCCB73511917A9EBAC52,FAZENDA SANTA AMÁLIA,WHOS,FAZENDA SANTA AMÁLIA,-14.61,Brazil,FAZENDASANTA,,-57.7281,
12BADF52D494B15D33E724E5DF57325C3B335D76,MAUA - JARDIM ZAIRA VIII,WHOS,MAUA - JARDIM ZAIRA VIII,-23.651953,Brazil,MAUA-JARDIMZ,,-46.437139,
12BB6A90A05F06F1BAAE7E0F7F9819A43E4C8E3E,JUIZ DE FORA - NOVA ERA,WHOS,JUIZ DE FORA - NOVA ERA,-21.708611,Brazil,JUIZDEFORA-N,,-43.412222,
12C3E307AFB3EB38D41BDEEFC9AC357BFDBEFBCC,LOANDA,WHOS,LOANDA,-22.95,Brazil,LOANDA,,-53.12,
12D3C7F7012A2129A12661ADA465E5A9044CD191,UHE PASSO SÃO JOÃO JUSANTE,WHOS,UHE PASSO SÃO JOÃO JUSANTE,-28.1239,Brazil,UHEPASSOSÃOJ,,-55.0533,
12E1FC76353ADBB53CBDD30F328D3EE29217B1FF,UHE SALTO CURUCACA JUSANTE,WHOS,UHE SALTO CURUCACA JUSANTE,-25.5383,Brazil,UHESALTOCURU,,-51.8189,
12EA336AEA2547D4F9AB81379B4380CCBAED25C3,TRES LAGOAS,WHOS,TRES LAGOAS,-20.78333333,Brazil,TRESLAGOAS,,-51.71222222,
12ED936C2465F9EF42190351AECF5D37DF3453B0,MELEIRO - CENTRO,WHOS,MELEIRO - CENTRO,-28.70349,Brazil,MELEIRO-CENT,,-49.34789,
1300EA7C9FCC88EB8D39DA0DF4D99346603011D1,PCH VITORINO JUSANTE 1,WHOS,PCH VITORINO JUSANTE 1,-25.9972,Brazil,PCHVITORINOJ,,-52.785,
130F382FF77753A71B1D987D97DAB2AFCFD9BD66,PCH ADO POPINHAK BARRAMENTO,WHOS,PCH ADO POPINHAK BARRAMENTO,-27.4597,Brazil,PCHADOPOPINH,,-50.52,
13326F2768BAF9EAD53D13A3947DB181717C9910,CANOAS II,WHOS,CANOAS II,-22.9361111,Brazil,CANOASII,,-50.2497222,
1333AA30F1193FA3C2D914C31F3ED3A9FDB22CD6,SOROCABA,WHOS,SOROCABA,-23.47999999,Brazil,SOROCABA,,-47.42666666,
13377A8D7F4901EC0B972EDAAB0B94F6E6D4F62A,OSASCO - JAGUARIBE,WHOS,OSASCO - JAGUARIBE,-23.561,Brazil,OSASCO-JAGUA,,-46.784,
133C67E1EA92491F4B7094815B51D7912A5A6D98,CAMANDUCAIA - COPASA,WHOS,CAMANDUCAIA - COPASA,-22.855,Brazil,CAMANDUCAIA-,,-46.03,
133D2EC070D85763642C0BEB7A1D30D5ABC4DEF4,ITAPEVA,WHOS,ITAPEVA,-23.98194443,Brazil,ITAPEVA,,-48.88583333,
1345A5BC197A7809C3921A3DDDDF5BBEA967152D,CGH PACIFICO MASCARENHAS JUSANTE,WHOS,CGH PACIFICO MASCARENHAS JUSANTE,-19.2817,Brazil,CGHPACIFICOM,,-43.6169,
1353FE4F818F90D9877614D25CD76023CB5192AA,PCH INDIAVAÍ BARRAMENTO,WHOS,PCH INDIAVAÍ BARRAMENTO,-15.2622,Brazil,PCHINDIAVAÍB,,-58.7222,
1375E4F4BCA056F4B92FB1902EB60DE75E2F6822,LAGUNA - RIBEIRAO PEQUENO,WHOS,LAGUNA - RIBEIRAO PEQUENO,-28.482491,Brazil,LAGUNA-RIBEI,,-48.883162,
138C679973F47A8B7DF841B1E17F085169C083EB,PORTO LUCENA,WHOS,PORTO LUCENA,-27.85,Brazil,PORTOLUCENA,,-55.02,
138CF6E505B9175C342A02963C1349151F2A09FC,FRANCO DA ROCHA - PARQUE INDUSTRIAL,WHOS,FRANCO DA ROCHA - PARQUE INDUSTRIAL,-23.33164,Brazil,FRANCODAROCH,,-46.68594,
139D256D7C6780C7964B7816FA6A3E16EA383056,UHE NOVA PONTE FAZENDA CAMBAÚBA,WHOS,UHE NOVA PONTE FAZENDA CAMBAÚBA,-19.4144,Brazil,UHENOVAPONTE,,-47.0436,
13AE314190B6E67F545BB89151B7CA5F4741410C,SALETE - CEI PRIMEIROS PASSOS,WHOS,SALETE - CEI PRIMEIROS PASSOS,-26.97143,Brazil,SALETE-CEIPR,,-50.00102,
13DCD6569607D33E0DB7E9D23AD0C9791C9176F9,CONGONHAS -  RIO MARANHAO,WHOS,CONGONHAS -  RIO MARANHAO,-20.5055,Brazil,CONGONHAS-RI,,-43.8548,
13E643A48AA1EE45F96712B1BFC5D58AE7ED87C5,AGROPECUÁRIA VALE VERDE,WHOS,AGROPECUÁRIA VALE VERDE,-16.6853,Brazil,AGROPECUÁRIA,,-47.1992,
13F2B3AB37109F116260AEAD4ADB5C497AAB92ED,UHE JUPIÁ FAZENDA SÃO SEBASTIÃO,WHOS,UHE JUPIÁ FAZENDA SÃO SEBASTIÃO,-20.205,Brazil,UHEJUPIÁFAZE,,-52.0878,
140DA099F55B840C9DCF2833F9C8182A585BF3E9,Colonia Palma,WHOS,Colonia Palma,-30.58,Uruguay,ColoniaPalma,,-57.68,
142DC0362D435D29890C09EE468CE893028E1343,BAMBUI,WHOS,BAMBUI,-20.0311111,Brazil,BAMBUI,,-46.00888888,
14359AA7A62DC298833FAECE600577B7800B0515,Río Paraná en Corrientes,WHOS,Río Paraná en Corrientes,-27.4597222222222,Argentina,RíoParanáenC,,-58.8333333333333,
14372774F618BFE9639875039A46D58F39320309,UNIAO DA VITORIA - RIO DA PRAIA,WHOS,UNIAO DA VITORIA - RIO DA PRAIA,-26.251,Brazil,UNIAODAVITOR,,-51.1,
143ADA13D51E9F3E5A68BEF43F64D8CE2837DB45,BARRA MANSA - VILA ORLANDELIA,WHOS,BARRA MANSA - VILA ORLANDELIA,-22.53582,Brazil,BARRAMANSA-V,,-44.16231,
143E75635805FB7DF345CC8BF18B0B598F645D0C,RIO FORTUNA - PREFEITURA MUNICIPAL,WHOS,RIO FORTUNA - PREFEITURA MUNICIPAL,-28.04433,Brazil,RIOFORTUNA-P,,-49.28515,
1441DBE9CE58F31E03B9D44F9D2601D484084799,CGH ANIL JUSANTE,WHOS,CGH ANIL JUSANTE,-20.8242,Brazil,CGHANILJUSAN,,-45.0639,
14491F5EDDCE680F3645CA1A4F95B8B54A29816F,PCH GARCIA JUSANTE,WHOS,PCH GARCIA JUSANTE,-27.5197,Brazil,PCHGARCIAJUS,,-49.0064,
145087BEE94CBD929EE2133F8E485AE27B069F2C,CERRO AZUL - CERROAZUL01,WHOS,CERRO AZUL - CERROAZUL01,-24.82449,Brazil,CERROAZUL-CE,,-49.26312,
1455034E3221E821079597AB0C41088479C1FFA3,IPAMERI,WHOS,IPAMERI,-17.72453,,IPAMERI,,-48.17192000000001,
147AF87DEA8B67214AFB42F335D18422D77E8D87,RETIRO BAIXO,WHOS,RETIRO BAIXO,-18.8944444,Brazil,RETIROBAIXO,,-44.7816667,
147B0ECACA1CA9C9D077125E2B9C82A9D5A60E81,CGH CARIOCA BARRAMENTO,WHOS,CGH CARIOCA BARRAMENTO,-19.8072,Brazil,CGHCARIOCABA,,-44.7842,
148457CE83602A10717431A1AAF23DE1C7E409C6,BRASILIA,WHOS,BRASILIA,-15.78944444,Brazil,BRASILIA,,-47.92583332,
1489A2F8A4E58D8A19B66BC51113A5D129A7D76E,UHE SALTO CURUCACA BARRAMENTO,WHOS,UHE SALTO CURUCACA BARRAMENTO,-25.5353,Brazil,UHESALTOCURU,,-51.8158,
149BA5ED08232FCA4B61A85AC76269B46F48DC85,PCH TAMBORIL MONTANTE 2,WHOS,PCH TAMBORIL MONTANTE 2,-16.7658,Brazil,PCHTAMBORILM,,-51.6358,
14B073BF4123F6BD03A669230C13C4466F462F61,SAO PAULO - JARDIM PARANA,WHOS,SAO PAULO - JARDIM PARANA,-23.44805555,Brazil,SAOPAULO-JAR,,-46.68805555,
14B3A85871AAAED429037850C8670C0C80213947,SAO JOSE - DISTRITO INDUSTRIAL,WHOS,SAO JOSE - DISTRITO INDUSTRIAL,-27.614,Brazil,SAOJOSE-DIST,,-48.654,
14B4D93748623B4AA6F50ABE50BBEE169A959599,PCH JOÃO BORGES JUSANTE,WHOS,PCH JOÃO BORGES JUSANTE,-27.7161,Brazil,PCHJOÃOBORGE,,-50.6758,
14BDCD6A2B9ACD6E828E36F2DAF7D405BADE87C2,PATO BRANCO - ALVORADA,WHOS,PATO BRANCO - ALVORADA,-26.267,Brazil,PATOBRANCO-A,,-52.683,
14C9FE0147B5F62F280F8865DC99088E44C4518E,RIO NEGRO - VILA SAO JUDAS TADEU,WHOS,RIO NEGRO - VILA SAO JUDAS TADEU,-26.118,Brazil,RIONEGRO-VIL,,-49.776,
14D3ACAA0775521C6F25FE3A9D4F93B9F27CF75E,CACHOEIRA DA GRACA,WHOS,CACHOEIRA DA GRACA,-23.6,Brazil,CACHOEIRADAG,,-46.93,
14DF55B759229AF8AF1FE19197297C816599495D,UHE PASSO REAL RIO INGAI,WHOS,UHE PASSO REAL RIO INGAI,-28.8358,Brazil,UHEPASSOREAL,,-53.2986,
14E6E5E07BA2E5378A49B715A03D80D52F7546CA,Rosario,WHOS,Rosario,-32.9730987548828,Argentina,Rosario,,-60.6183013916016,
14F291711D22FE4A261BD8ECB307A61AD85E3FEE,TAIÓ,WHOS,TAIÓ,-27.1139,Brazil,TAIÓ,,-49.9953,
14F91461BCBC92800C8D1140D115789104A0AFB0,BATAGUASSU,WHOS,BATAGUASSU,-21.75,Brazil,BATAGUASSU,,-52.47138888,
150B56832569A34A900A9265926424FC85B24419,INACIO MARTINS,WHOS,INACIO MARTINS,-25.567880000000002,,INACIOMARTIN,,-51.07795,
15137A83687B0A8C12818AD502749F2D4C261E9D,LAJES,WHOS,LAJES,-22.702806,Brazil,LAJES,,-43.881216,
15180DCFB6D89C28099A66B38BA62156ECBE9DE7,Salado - Suncho Corral,WHOS,Salado - Suncho Corral,-27.940175,Argentina,Salado-Sunch,,-63.4397944444444,
152456B7AAA7A35F260A182CB0E96EFE40A080CD,PETROPOLIS - ARARAS,WHOS,PETROPOLIS - ARARAS,-22.427,Brazil,PETROPOLIS-A,,-43.249,
15353CD4C4127FF7C856B54903714950C7304264,PILAR - SGAS,WHOS,PILAR - SGAS,-26.666670000000003,,PILAR-SGAS,,-58.300000000000004,
15442C3222C1D3F2CB5E44330E7CB1B139C12408,BRUSQUE - AGUAS CLARAS,WHOS,BRUSQUE - AGUAS CLARAS,-27.143,Brazil,BRUSQUE-AGUA,,-48.907,
154D666CF3B1DAF0618D9916E1C4720F05123846,ITUMBIARA - CIDADE JARDIM,WHOS,ITUMBIARA - CIDADE JARDIM,-18.423,Brazil,ITUMBIARA-CI,,-49.246,
15549738C875329940FBDDBE57E0E4C35E174D70,PCH SALDO DO GUASSUPI MONTANTE,WHOS,PCH SALDO DO GUASSUPI MONTANTE,-29.4017,Brazil,PCHSALDODOGU,,-53.9408,
15A94D15F95782CAECA4F7DF2BFA28F4BFB6AFBB,ITAPACI,WHOS,ITAPACI,-14.979790000000001,,ITAPACI,,-49.53998000000001,
15AE7FF023B56B61411D2C5AA76216E3114266FD,PRAIA GRANDE - CACHOEIRA DE FATIMA,WHOS,PRAIA GRANDE - CACHOEIRA DE FATIMA,-29.14249999,Brazil,PRAIAGRANDE-,,-49.89249999,
15F6042C4F0038F3B532AB8213DA409FA456B653,EMBU - CENTRO,WHOS,EMBU - CENTRO,-23.658,Brazil,EMBU-CENTRO,,-46.857,
160594801F63CCB3DE77D7672720B77C7C4AD553,Estación Ataques,WHOS,Estación Ataques,-31.09,Uruguay,EstaciónAtaq,,-55.69,
161E9A3F5459D000D38CDF9FBCE0045CE1ABA012,AGUAS LINDAS DE GOIAS - M. CENTRO OESTE,WHOS,AGUAS LINDAS DE GOIAS - M. CENTRO OESTE,-15.733,Brazil,AGUASLINDASD,,-48.275,
16211AD96F9756F0F777CDEE7A04F1A12D7D026B,PCH SANTA ROSA BARRAMENTO,WHOS,PCH SANTA ROSA BARRAMENTO,-28.0131,Brazil,PCHSANTAROSA,,-49.1225,
162420F37A3D0D85D605E03A9238D39E0923B396,PADRE RICARDO REMETTER,WHOS,PADRE RICARDO REMETTER,-15.776,Brazil,PADRERICARDO,,-56.072,
162440109CA3C2B9CDE7611C25861A34D4A20DAF,SAO PAULO - CENTRO,WHOS,SAO PAULO - CENTRO,-23.541,Brazil,SAOPAULO-CEN,,-46.629,
1628305FBA900BCD426795F1C5491680D509E37B,ITAPETININGA - CENTRO,WHOS,ITAPETININGA - CENTRO,-23.588,Brazil,ITAPETININGA,,-48.043,
1635136BB291FED71BA21FB6CC201CE43DDBA002,CONCEICAO DO MATO DENTRO - CENTRO,WHOS,CONCEICAO DO MATO DENTRO - CENTRO,-19.034,Brazil,CONCEICAODOM,,-43.426,
1636F1477FEE224DEC898871F9D1F0E6C70D23B0,JAGUARAO,WHOS,JAGUARAO,-32.53482,,JAGUARAO,,-53.37586,
164DE3F6269C81EEFCDF6E831A0D51E36D8DD1F0,Bella Vista,WHOS,Bella Vista,-28.503999710083,Argentina,BellaVista,,-59.048900604248,
1659393C99A384A4F4FBE74552718955148ABADC,PCH SERRA DOS CAVALINHOS II JUSANTE,WHOS,PCH SERRA DOS CAVALINHOS II JUSANTE,-28.7869,Brazil,PCHSERRADOSC,,-50.7447,
165B9E0A45BFDC25DF59D5439E3B9D7B64C3F7DE,PCH CANTU 2 MONTANTE,WHOS,PCH CANTU 2 MONTANTE,-24.7247,Brazil,PCHCANTU2MON,,-52.3931,
1666259901F8DC08FD9FF18E805966C06AE4E948,SANTOS DUMONT - NOSSA SENHORA DA GLORIA,WHOS,SANTOS DUMONT - NOSSA SENHORA DA GLORIA,-21.454,Brazil,SANTOSDUMONT,,-43.566,
1679B172B28AE20C2D4F7DC5281188A86DD3F534,IUIU,WHOS,IUIU,-14.39484,Brazil,IUIU,,-43.67965,
1686A05A28280D5A16EAF48E7A61022F418B253B,VIAMAO,WHOS,VIAMAO,-30.08,Brazil,VIAMAO,,-50.78,
16A73A0BADDFCB153ED473929BDFE15412BD9640,UHE PETI JUSANTE,WHOS,UHE PETI JUSANTE,-19.8278,Brazil,UHEPETIJUSAN,,-43.3589,
16D8F94CD9C0A8152348B0B10D8943164D6E2745,PCH FURNAS DO SEGREDO BARRAMENTO,WHOS,PCH FURNAS DO SEGREDO BARRAMENTO,-29.3656,Brazil,PCHFURNASDOS,,-54.5044,
16F6F8298EE4DCC7D3CD7D07A2AF5DE02FAD101C,FRANCISCO BELTRAO - PINHEIRINHO,WHOS,FRANCISCO BELTRAO - PINHEIRINHO,-26.04632,Brazil,FRANCISCOBEL,,-53.06013,
16FAF5809AAF6372D595D27B0D85B5F52CB2E825,ITAQUAQUECETUBA - JARDIM MARAGOGIPE,WHOS,ITAQUAQUECETUBA - JARDIM MARAGOGIPE,-23.451,Brazil,ITAQUAQUECET,,-46.335,
170A178ADD9B3843E62FEC193E21BE3B49946A11,"Cap. Miranda, Dpto. de  Itapua",WHOS,"Cap. Miranda, Dpto. de  Itapua",-27.20021944,Paraguay,"Cap.Miranda,",,-55.78964167,
171B2073A38DCE4B62B10F7BDF6E2B9EE406C533,CGH RIBEIRÃO DO PINHAL BARRAMENTO,WHOS,CGH RIBEIRÃO DO PINHAL BARRAMENTO,-22.6603,Brazil,CGHRIBEIRÃOD,,-47.2789,
17395F6D4630A1044B60C33236AFC450F7BD80DA,UHE FRANÇA BARRAMENTO,WHOS,UHE FRANÇA BARRAMENTO,-23.9406,Brazil,UHEFRANÇABAR,,-47.1944,
173AA3DC5DC74A1D1447CDDF839D696F1E21CF8D,PCH SANTA GABRIELA JUSANTE,WHOS,PCH SANTA GABRIELA JUSANTE,-17.5328,Brazil,PCHSANTAGABR,,-54.445,
173BBCEF9B1C98D837E2ADB3F0C1BB251610A237,PETROPOLIS - VALE DO CUIABA,WHOS,PETROPOLIS - VALE DO CUIABA,-22.402,Brazil,PETROPOLIS-V,,-43.047,
17454CA5D64406DED803A9DBF66BF00E9435C687,UHE PARAIBUNA FAZENDA PALMEIRAS,WHOS,UHE PARAIBUNA FAZENDA PALMEIRAS,-23.4211,Brazil,UHEPARAIBUNA,,-45.2889,
174B615C6F7E1BDA060D1A542555DA13497ED668,ITAOCA - CENTRO,WHOS,ITAOCA - CENTRO,-24.638,Brazil,ITAOCA-CENTR,,-48.84,
17662FE44C6C379086729F53DE07295C6C34D254,CGH CABOCLO BARRAMENTO,WHOS,CGH CABOCLO BARRAMENTO,-20.4944,Brazil,CGHCABOCLOBA,,-43.5217,
1775DF569FDD3E425DE14769EF40516FB82CFE87,Canal MACAPILLO,WHOS,Canal MACAPILLO,-25.4136111111111,Argentina,CanalMACAPIL,,-63.9761111111111,
178D26DC81A1523B870B8412B7500D6359456CB0,Baigorria,WHOS,Baigorria,-32.88,Uruguay,Baigorria,,-56.8,
1792BD906412FC849E17D652E2226270CFCDF488,PCH VILA GALUPO MONTANTE,WHOS,PCH VILA GALUPO MONTANTE,-26.0864,Brazil,PCHVILAGALUP,,-52.9394,
17A3BA7B41DAA3F3C1CB2B27134DB06E6DAAD5A2,"Asunción, Silvio Pettirossi, Capital de la Republica",WHOS,"Asunción, Silvio Pettirossi, Capital de la Republica",-25.23610833,Paraguay,"Asunción,Sil",,-57.51474444,
17AB9FC486946159174066DF92F83432EC9EB855,PCH BOA VISTA II MONTANTE 2,WHOS,PCH BOA VISTA II MONTANTE 2,-21.6667,Brazil,PCHBOAVISTAI,,-45.3089,
17BE016802B6F9EB711AB7067692E643B82ED86B,UHE CHAMINÉ BARRAMENTO RES. VOSSOROCA,WHOS,UHE CHAMINÉ BARRAMENTO RES. VOSSOROCA,-25.8203,Brazil,UHECHAMINÉBA,,-49.065,
17CE925BE84ED511CB15D14AD82637AFD3BEFBDC,PCH MAFRÁS JUSANTE,WHOS,PCH MAFRÁS JUSANTE,-27.0322,Brazil,PCHMAFRÁSJUS,,-49.5869,
17DA9A6FD2788E2ABBE728760F14C96F0FF003DC,IVINHEMA - CENTRO,WHOS,IVINHEMA - CENTRO,-22.3041,Brazil,IVINHEMA-CEN,,-53.835,
17E30D7D6BFBD0BB6D582552E414AAD474BC182F,JAPERI - ESTRADA ARY SCHIVO,WHOS,JAPERI - ESTRADA ARY SCHIVO,-22.63999999,Brazil,JAPERI-ESTRA,,-43.65,
17EF9CE4753E70B522879C726BCE0C7BB6E2AB11,GUARUJA - VICENTE DE CARVALHO,WHOS,GUARUJA - VICENTE DE CARVALHO,-23.936,Brazil,GUARUJA-VICE,,-46.306,
180ADC4B12D87B2FFC83EA204932EEEBF4FF4840,Paso de los Libres,WHOS,Paso de los Libres,-29.721745,Argentina,PasodelosLib,,-57.082856,
1821D7ABEAED450E62FC93423C1DC1224FF53D38,PCH DA ILHA ALÇA,WHOS,PCH DA ILHA ALÇA,-28.8919,Brazil,PCHDAILHAALÇ,,-51.4617,
182DEBF77D8BBFE993DE68591DA47BED95053814,TUNEIRAS DO OESTE - CENTRO,WHOS,TUNEIRAS DO OESTE - CENTRO,-23.872,Brazil,TUNEIRASDOOE,,-52.877,
18304DA2D39AE0BEF96F88A92B0291D2DCB33CD0,SAO ROMAO,WHOS,SAO ROMAO,-16.362750000000002,,SAOROMAO,,-45.1238,
184997BE285E705728C3E0858FEAE160D37A026E,Fray Marcos,WHOS,Fray Marcos,-34.195,Uruguay,FrayMarcos,,-55.733,
185D8D3249BCB09FA56CB1FF7376BB5E028A2121,CHAPECO,WHOS,CHAPECO,-27.13555555,Brazil,CHAPECO,,-52.66305555,
185E44C032CDD865B0A487758111A712C51F31F1,BURITIS,WHOS,BURITIS,-15.524260000000002,,BURITIS,,-46.43554,
185F7710148DEFDAC20451A1786E46B67F9BAA0C,CURVELO,WHOS,CURVELO,-18.74771,,CURVELO,,-44.45378,
185FD999E902E063FA8B711A9A2EBE819776871E,FAZENDA CACHOEIRA,WHOS,FAZENDA CACHOEIRA,-18.6983,Brazil,FAZENDACACHO,,-48.7806,
187D41C7E0D7BE72FE5538F8529BC2A0A2B847A5,EXTREMA - EXTREMA02,WHOS,EXTREMA - EXTREMA02,-22.765,Brazil,EXTREMA-EXTR,,-46.284,
18914B81B845A295E43D90169A8316F6809154AC,PONTE MARMELEIRO MTE. ETA,WHOS,PONTE MARMELEIRO MTE. ETA,-26.1525,Brazil,PONTEMARMELE,,-53.02,
1891D5A7E70E8A9B05899AC900127D06131C65A8,saucedeluna,WHOS,saucedeluna,-31.2383333333333,Argentina,saucedeluna,,-59.2219444444444,
18937CC04086A7F973A847E8BF6ADED92C22EA16,DOIS IRMAOS DO BURITI - P. MUNICIPAL,WHOS,DOIS IRMAOS DO BURITI - P. MUNICIPAL,-20.69134,Brazil,DOISIRMAOSDO,,-55.28645,
18B08290D8E688F5A5FFC1C80D619A332D48C717,PCH OURO MONTANTE,WHOS,PCH OURO MONTANTE,-27.6433,Brazil,PCHOUROMONTA,,-51.4889,
18D0EFB736E4E5CB7FC0C1BA11A89C9D2964CA87,PCH LAVRINHAS RIO PIAGUI,WHOS,PCH LAVRINHAS RIO PIAGUI,-22.7469,Brazil,PCHLAVRINHAS,,-45.1883,
18D1C74E41C82B5CD497DB668450D25225D53264,PCH SÃO GONÇALO JUSANTE,WHOS,PCH SÃO GONÇALO JUSANTE,-19.815,Brazil,PCHSÃOGONÇAL,,-43.2606,
18F2BEE2512D135FC0EA78FB2E73B1F463C43012,FLORIANOPOLIS,WHOS,FLORIANOPOLIS,-27.6025,Brazil,FLORIANOPOLI,,-48.62027777,
19008D6B7943B6F2F3E9B07DFAB9C720BB90185F,BACACHERI,WHOS,BACACHERI,-25.4,Brazil,BACACHERI,,-49.23,
190966AABFEC500BD1AD83DFBF903609216C8BA9,CORONDA - PUERTO GABOTO,WHOS,CORONDA - PUERTO GABOTO,-32.4299444444444,Argentina,CORONDA-PUER,,-60.8136388888889,
1922859531F53E39E47C1731E795DFFD4097020B,PCH ALBANO MACHADO JUSANTE,WHOS,PCH ALBANO MACHADO JUSANTE,-27.4964,Brazil,PCHALBANOMAC,,-52.8031,
19264E6DBC0281043BC84135445FA8FD2E781284,BOM JESUS,WHOS,BOM JESUS,-28.669490000000003,,BOMJESUS,,-50.441860000000005,
193200F16F9DF451CBEB013C246A3DDE9558DA04,CGH SALTO CRISTO REI JUSANTE,WHOS,CGH SALTO CRISTO REI JUSANTE,-26.9336,Brazil,CGHSALTOCRIS,,-51.905,
19463C4DAAB1C0C41AAFD7DB2DE76C5E1930FAC0,ITAQUAQUECETUBA - PARQUE ECOLOGICO,WHOS,ITAQUAQUECETUBA - PARQUE ECOLOGICO,-23.4808,Brazil,ITAQUAQUECET,,-46.3467,
195AA54F989EDFF925AACAB40CAF360CF7DB6CF9,ALTO ARAGUAIA,WHOS,ALTO ARAGUAIA,-17.32,Brazil,ALTOARAGUAIA,,-53.2,
195AB92981C7C9B7EB7D788C6A4D93A994CC712D,Río Bermejo - Aguas Blancas,WHOS,Río Bermejo - Aguas Blancas,-22.725,Argentina,RíoBermejo-A,,-64.3647222222222,
195B291B430F78C7EED372738AF8BEA1C829A0F9,BARROSO - JOSEFINO COELHO,WHOS,BARROSO - JOSEFINO COELHO,-21.193,Brazil,BARROSO-JOSE,,-43.966,
195D343FFF9DEBA57894FE4130E9A7DADAC693BB,UHE QUEIMADO MONTANTE,WHOS,UHE QUEIMADO MONTANTE,-15.9581,Brazil,UHEQUEIMADOM,,-47.3747,
195F4E15123BCBCBCEAB681DD59B005898717CD1,CACHOEIRA DO SUL - VILA J. TORDESMADE,WHOS,CACHOEIRA DO SUL - VILA J. TORDESMADE,-30.27,Brazil,CACHOEIRADOS,,-52.8673,
19685C7E209EABCEAD142DA49D31DAB43BD051E5,Colonia Itapebí,WHOS,Colonia Itapebí,-31.34,Uruguay,ColoniaItape,,-57.4,
196CF51A54752D4BFA9EAA11B6EC45CC520FEAD5,FAZ.MOD.DE GUARATIBA,WHOS,FAZ.MOD.DE GUARATIBA,-22.98,Brazil,FAZ.MOD.DEGU,,-43.53,
197499509B7FCF9353BCA9454D9E93DB6104DA18,UHE PORTO COLÔMBIA RIO UBERABA,WHOS,UHE PORTO COLÔMBIA RIO UBERABA,-19.9094,Brazil,UHEPORTOCOLÔ,,-48.3911,
197D02DEB73BE74849D19FFD290FDCBE24A91703,UHE BARRA DOS COQUEIROS FOZ RIBEIRÃO PARAISO,WHOS,UHE BARRA DOS COQUEIROS FOZ RIBEIRÃO PARAISO,-17.8197,Brazil,UHEBARRADOSC,,-51.8233,
197FA7D8B0B8D6D7FB97A92AEF51A8F46F2C3902,RIOZINHO - CENTRO,WHOS,RIOZINHO - CENTRO,-29.64072,Brazil,RIOZINHO-CEN,,-50.45962,
1990305C77DA9CCC558BBE84FE5D8E506B89D9FA,DIVINOPOLIS,WHOS,DIVINOPOLIS,-20.17333332,Brazil,DIVINOPOLIS,,-44.87499999,
1990BC848FDBC3F60857D86765B3D287856026E5,UHE SERRA DO FACÃO MONTANTE,WHOS,UHE SERRA DO FACÃO MONTANTE,-17.3422,Brazil,UHESERRADOFA,,-47.4956,
19AAF903599B790AAA74BD1480B7CD1C7AF2EBBF,CGH CACHOEIRA MONTANTE,WHOS,CGH CACHOEIRA MONTANTE,-24.9439,Brazil,CGHCACHOEIRA,,-51.4225,
19B24B1147AD7E702309416ECF0E6459A49A787E,PCH TAMBAÚ BARRAMENTO,WHOS,PCH TAMBAÚ BARRAMENTO,-27.44,Brazil,PCHTAMBAÚBAR,,-53.5614,
19BB45253A9BFCA87E10AC5BD3E35AB91A7F8DAF,PCH GARÇA BRANCA JUSANTE,WHOS,PCH GARÇA BRANCA JUSANTE,-26.5869,Brazil,PCHGARÇABRAN,,-53.4281,
19BFB47C5E876E6AE2D10254E7A90615C9154772,UHE JURUMIRIM BARRAMENTO,WHOS,UHE JURUMIRIM BARRAMENTO,-23.21,Brazil,UHEJURUMIRIM,,-49.2292,
19C74B5D0DCAAB908D26E302ACF8520229952330,PCH SANTA MARIA JUSANTE,WHOS,PCH SANTA MARIA JUSANTE,-26.7592,Brazil,PCHSANTAMARI,,-49.4067,
19E025239B8B9D2C3181CD4E2291F4EB3D3D6A29,MAGE - MAUA,WHOS,MAGE - MAUA,-22.709,Brazil,MAGE-MAUA,,-43.166,
19E0B2218A91183A8B473D8AB78BCB6556D64299,CAMBORIU - RIO PEQUENO,WHOS,CAMBORIU - RIO PEQUENO,-27.031,Brazil,CAMBORIU-RIO,,-48.641,
19E0C950A8A5559BCA061174E7AF834D4104CBEC,PCH RONDINHA BARRAMENTO,WHOS,PCH RONDINHA BARRAMENTO,-26.6808,Brazil,PCHRONDINHAB,,-52.0442,
19E3D3767B7242C3D07FBDA17007E5900900613F,SAO PAULO - JARDIM JOAO XXIII,WHOS,SAO PAULO - JARDIM JOAO XXIII,-23.6,Brazil,SAOPAULO-JAR,,-46.789,
19E54752A8BFE7C5E1935CD9C07D4919BD1B5CCC,SOROCABA - RIO UNA,WHOS,SOROCABA - RIO UNA,-23.5015,Brazil,SOROCABA-RIO,,-47.4519,
19E78AB81D4236B74A8FC05E08BCD1749D61368D,CERES - CENTRO,WHOS,CERES - CENTRO,-15.31,Brazil,CERES-CENTRO,,-49.603,
1A04D5FDB944FB9E581DC6901F8AF741C74F6012,PCH DIAMANTE BARRAMENTO,WHOS,PCH DIAMANTE BARRAMENTO,-14.3464,Brazil,PCHDIAMANTEB,,-56.7947,
1A2FDB6233AF900181A030A873CD04826F6D307B,ITATIAIA,WHOS,ITATIAIA,-22.37388888,Brazil,ITATIAIA,,-44.70305555,
1A301B93022FB241490197BCE3272F464B518D47,TIJUCAS - CREAS,WHOS,TIJUCAS - CREAS,-27.238,Brazil,TIJUCAS-CREA,,-48.6427,
1A4740A8534CA806A816BD09F772B8F21E09CEDC,PCH PARAISO I MONTANTE 2,WHOS,PCH PARAISO I MONTANTE 2,-18.8814,Brazil,PCHPARAISOIM,,-53.0739,
1A4C1B3FC5D0529A14E1181794526B58A53E49EF,S. JOSE DOS CAMPOS - JARDIM SANTA MATILDE,WHOS,S. JOSE DOS CAMPOS - JARDIM SANTA MATILDE,-23.14,Brazil,S.JOSEDOSCAM,,-45.903,
1A59EE87D06E48CFB32584633DC920F3F9707DC7,Miriñay - Paso Mesa,WHOS,Miriñay - Paso Mesa,-28.9178333333333,Argentina,Miriñay-Paso,,-57.2355277777778,
1A6EE6E6B61790A86456D3C03F417DF26FD5AE0C,PCH LAMBARI MONTANTE,WHOS,PCH LAMBARI MONTANTE,-26.7169,Brazil,PCHLAMBARIMO,,-52.8914,
1A8B2CDE93C5E166DE6E0E444632DF5DF720973C,PORTO ALEGRE,WHOS,PORTO ALEGRE,-30.05361111,Brazil,PORTOALEGRE,,-51.17472221,
1A8E37025E0E1B94E4B2BC20A664B6ADA41078EE,SÃO JOSÉ DO BORIRÉU,WHOS,SÃO JOSÉ DO BORIRÉU,-16.9253,Brazil,SÃOJOSÉDOBOR,,-56.2236,
1A9060E779D2F974D9D26C045391DCA8A7B3448B,PCH RUDOLF MONTANTE,WHOS,PCH RUDOLF MONTANTE,-26.9914,Brazil,PCHRUDOLFMON,,-50.1711,
1A9DFB2EBFB5578988D1B3D2E315B4FE364921CB,IBITINGA,WHOS,IBITINGA,-21.85555555,Brazil,IBITINGA,,-48.79972221,
1A9E6D63A1A2DFB9DE38D5270C8B199A080E0724,PATO BRANCO - SAO JOAO,WHOS,PATO BRANCO - SAO JOAO,-26.234,Brazil,PATOBRANCO-S,,-52.713,
1AC4AF26615759AFA37246C2CB0D33D95B01FE07,ANGRA DOS REIS - PRAIA DE ARACATIBA,WHOS,ANGRA DOS REIS - PRAIA DE ARACATIBA,-23.155,Brazil,ANGRADOSREIS,,-44.327,
1AC514372F5FED1A1A826F35D6AE421CE09517CF,IVAI,WHOS,IVAI,-25.01083333,Brazil,IVAI,,-50.85388888,
1ACCB76136AB5912D19EA6F4E7A652D0F9A9AFC6,VARZELANDIA,WHOS,VARZELANDIA,-15.68453,Brazil,VARZELANDIA,,-44.04502,
1AD4E04301ED1F4F4ECE91D72DA09415944104EF,BETIM - PETROVALE,WHOS,BETIM - PETROVALE,-19.989,Brazil,BETIM-PETROV,,-44.111,
1AD57535ACA4F6197DB14EF0455486C9A5FDA86C,ITAPETININGA - CONCEICAO,WHOS,ITAPETININGA - CONCEICAO,-23.704,Brazil,ITAPETININGA,,-48.106,
1AE1ADD8D50FF45FDBCF846697D49A648D886118,PCH PONTE BRANCA BARRAMENTO,WHOS,PCH PONTE BRANCA BARRAMENTO,-22.875,Brazil,PCHPONTEBRAN,,-49.2142,
1AE363F469ED28DDF9017A89CFB69891F3050B6B,ATIBAIA - JD. DO ALVINOPOLIS,WHOS,ATIBAIA - JD. DO ALVINOPOLIS,-23.13319,Brazil,ATIBAIA-JD.D,,-46.656569,
1AE4AE04B06AFEBBC3EC19C5E605549A9E83EFC7,VESPASIANO - SANTA CLARA I,WHOS,VESPASIANO - SANTA CLARA I,-19.75821,Brazil,VESPASIANO-S,,-43.95392,
1AF9F15AA7EF9686801B4EB29834D911B5C3BC12,ILHA CAMARGO,WHOS,ILHA CAMARGO,-17.0564,Brazil,ILHACAMARGO,,-56.5806,
1B092E704426161EAC8642E5867774470818C287,JUIZ DE FORA - HUMAITA,WHOS,JUIZ DE FORA - HUMAITA,-21.77,Brazil,JUIZDEFORA-H,,-43.49,
1B0D27C6B9C1932AFD7BA0C4656FCCD655FD898B,BRUSQUE - PAQUETA,WHOS,BRUSQUE - PAQUETA,-27.141,Brazil,BRUSQUE-PAQU,,-48.921,
1B17E2F45E65034E512BD47C8C1657BA89F9695D,Pueblo José E. Rodó,WHOS,Pueblo José E. Rodó,-33.6964,Uruguay,PuebloJoséE.,,-57.5323,
1B1E461904729A69FEE913F3687377D65CC3BD3E,RIO DE JANEIRO - ANDARAI,WHOS,RIO DE JANEIRO - ANDARAI,-22.921894,Brazil,RIODEJANEIRO,,-43.250315,
1B2A5EF06AE6CDCA3628597833A499DAD31EB847,COMENDADOR LEVY GASPARIAN - BAIRRO RETA,WHOS,COMENDADOR LEVY GASPARIAN - BAIRRO RETA,-22.05305555,Brazil,COMENDADORLE,,-43.20694444,
1B2AE15C4A34BB6AE482579C166CA903EF99E2B7,BRUSQUE - CENTRO,WHOS,BRUSQUE - CENTRO,-27.098,Brazil,BRUSQUE-CENT,,-48.925,
1B2B69A4423E616C8B97EADCB26EC2787235596A,BARRA DO BATATAL,WHOS,BARRA DO BATATAL,-24.5864,Brazil,BARRADOBATAT,,-48.2697,
1B30C05A8890D9E7CA6E05C5A79E3EA43AB19D3E,SAO JOSE DOS CAMPOS,WHOS,SAO JOSE DOS CAMPOS,-23.22,Brazil,SAOJOSEDOSCA,,-45.85,
1B3F78A6A836604CF1A187A3A9CE1453028FB2D4,CRICIUMA - QUARTA LINHA,WHOS,CRICIUMA - QUARTA LINHA,-28.77301,Brazil,CRICIUMA-QUA,,-49.36763,
1B4C1FCFC09654F9FFDB6243B95EA6B9EDDFDF29,Paso de la Cruz,WHOS,Paso de la Cruz,-30.289,Uruguay,PasodelaCruz,,-57.291694,
1B4DA1DB0B3CB12C4263AFD967DD88E84E0B0BAD,UHE FUNIL BARRAMENTO,WHOS,UHE FUNIL BARRAMENTO,-21.1417,Brazil,UHEFUNILBARR,,-45.0353,
1B4EBC390592166D76D71EE3F8E234959ED67750,CGH ITUERÊ MONTANTE 2,WHOS,CGH ITUERÊ MONTANTE 2,-21.2336,Brazil,CGHITUERÊMON,,-43.3192,
1B97F430A395CDFE274F8F1A52424E0B0394A4A1,EMBU - ITATUBA,WHOS,EMBU - ITATUBA,-23.64194444,Brazil,EMBU-ITATUBA,,-46.89694444,
1B9C1BF54B496EE5EFCC24F0C7C0F372D690E773,UHE MANSO BARRAMENTO,WHOS,UHE MANSO BARRAMENTO,-14.8714,Brazil,UHEMANSOBARR,,-55.7847,
1B9D0271B31C81F1B27820C3EDDDAD73B4F2B2B7,GUARUJA - ENSEADA,WHOS,GUARUJA - ENSEADA,-23.977,Brazil,GUARUJA-ENSE,,-46.222,
1BA8F154729EA9E414596ADE88D731D155023C52,MANGA,WHOS,MANGA,-14.73,Brazil,MANGA,,-43.97,
1BAC82CBCF705E01861CA70901CFFC6432FCEEC9,Río Cuarto - La Carlota RN8,WHOS,Río Cuarto - La Carlota RN8,-33.4127777777778,Argentina,RíoCuarto-La,,-63.2561111111111,
1BBDE6CBE16E53861642D7CD2D0BA9DE4CDC2FD8,Arroyo Feliciano - Rp Nº 2-Paso Correa,WHOS,Arroyo Feliciano - Rp Nº 2-Paso Correa,-30.3931666666667,Argentina,ArroyoFelici,,-58.7074722222222,
1BC591C58BC51F35F804C6E688C7C6F6B7F3DFB8,FAZENDA RIO GRANDE - NACOES,WHOS,FAZENDA RIO GRANDE - NACOES,-25.64902,Brazil,FAZENDARIOGR,,-49.30742,
1BCD3DA7494D461012C8CA84D9B05291D680D7A8,PORTO UNIAO - CENTRO,WHOS,PORTO UNIAO - CENTRO,-26.236,Brazil,PORTOUNIAO-C,,-51.084,
1BD53DA0B90DD4C5233607F751C725D53D578DEE,DOM PEDRITO,WHOS,DOM PEDRITO,-30.98,Brazil,DOMPEDRITO,,-54.67,
1BD9E6A5D140C5D6B8A120D68E7534F9DAD24D27,FLORIANOPOLIS - CANASVIEIRAS,WHOS,FLORIANOPOLIS - CANASVIEIRAS,-27.432,Brazil,FLORIANOPOLI,,-48.458,
1BE335DF74EF2D0D4A5424B08A16AEF8A658CB19,BELO HORIZONTE - TAQUARIL,WHOS,BELO HORIZONTE - TAQUARIL,-19.922,Brazil,BELOHORIZONT,,-43.881,
1BF31C49E7EE121EF53E4BD5C33C60854BB4477D,BELO VALE - RIO PARAOPEBA,WHOS,BELO VALE - RIO PARAOPEBA,-20.4083,Brazil,BELOVALE-RIO,,-44.0221,
1C0BAD55EA21DC52F547D52316D5D57454887DB5,PONTA PORA,WHOS,PONTA PORA,-22.55,Brazil,PONTAPORA,,-55.7,
1C0F44BB5AE0106C267B91BCAACF04147B73DC7D,CACHOEIRA PAULISTA - SABESP,WHOS,CACHOEIRA PAULISTA - SABESP,-22.66165,Brazil,CACHOEIRAPAU,,-45.00388,
1C1B25A7FDE2D309B744F79A99E4C95869235D3B,PCH MORRO GRANDE MONTANTE,WHOS,PCH MORRO GRANDE MONTANTE,-28.5486,Brazil,PCHMORROGRAN,,-51.3017,
1C1E478E50F99842F210496957AD26E91E892EEC,UHE PASSO SÃO JOÃO BARRAMENTO,WHOS,UHE PASSO SÃO JOÃO BARRAMENTO,-28.1325,Brazil,UHEPASSOSÃOJ,,-55.0517,
1C1FAADCB694E1A093104F3F88550D14673EAC70,RIBEIRAO PIRES - PILAR VELHO,WHOS,RIBEIRAO PIRES - PILAR VELHO,-23.677,Brazil,RIBEIRAOPIRE,,-46.39,
1C261988555359B4E49B1D553B30E3F9E320D2D8,CAMPO ERE - PREFEITURA MUNICIPAL,WHOS,CAMPO ERE - PREFEITURA MUNICIPAL,-26.3985,Brazil,CAMPOERE-PRE,,-53.0854,
1C353F22256710E7199961F85DAF7ECA61D82466,PINHEIRAL,WHOS,PINHEIRAL,-22.52,Brazil,PINHEIRAL,,-44.0,
1C5025E40F637F5385C945A16E68F6F4E85580AB,PCH RONDONÓPOLIS BARRAMENTO,WHOS,PCH RONDONÓPOLIS BARRAMENTO,-16.6669,Brazil,PCHRONDONÓPO,,-54.7356,
1C54567222A01CAE3A26C4FDF489FE56B4897696,CONCORDIA AERO - H24,WHOS,CONCORDIA AERO - H24,-31.116670000000003,,CONCORDIAAER,,-58.00000000000001,
1C60EC65FC8D48D4D7EFB2FF8D32AC97DBA3A5A2,UBATUBA - ALMADA,WHOS,UBATUBA - ALMADA,-23.364,Brazil,UBATUBA-ALMA,,-44.887,
1C638C1D81D5221DDE827A7EB3FB7C545A339FBF,MOCOCA,WHOS,MOCOCA,-21.47,Brazil,MOCOCA,,-47.0,
1C6632AE6E9A637AC8FD95DF5D20FF43FF952451,JUNDIAI -  RIO JUNDIAI,WHOS,JUNDIAI -  RIO JUNDIAI,-23.182432,Brazil,JUNDIAI-RIOJ,,-46.87781,
1C79FBA1B1E6DF8CA736568FDD38B5C01316BF53,PCH GARCIA BARRAMENTO,WHOS,PCH GARCIA BARRAMENTO,-27.5489,Brazil,PCHGARCIABAR,,-49.0064,
1C87A942B329213BD762F92426016F893788E01A,GARIBALDI,WHOS,GARIBALDI,-27.6247222222222,Brazil,GARIBALDI,,-50.9838888888889,
1C8C0AC201C9D6EBAB9259AC87BFF04CC9AC2905,CGH JAGUARICATU I JUSANTE,WHOS,CGH JAGUARICATU I JUSANTE,-24.1822,Brazil,CGHJAGUARICA,,-49.4908,
1CA90F8E16D35D852E1DD3CA1E7E5F39553B3068,PCH CELSO RAMOS MONTANTE,WHOS,PCH CELSO RAMOS MONTANTE,-26.7758,Brazil,PCHCELSORAMO,,-52.0422,
1CB0A409D1FA926DDA785A76DFF1967350B77735,FAZENDA ESPÍRITO SANTO,WHOS,FAZENDA ESPÍRITO SANTO,-15.3222,Brazil,FAZENDAESPÍR,,-47.3817,
1CB2912CA21C3FD63F6D3B74C245CF3888BFD8CD,SAO LOURENCO,WHOS,SAO LOURENCO,-22.12627,,SAOLOURENCO,,-45.043330000000005,
1CC49CD4EC75C138FB197EE70B9976DBB1D91848,VAU DO BALSAMO,WHOS,VAU DO BALSAMO,-20.9942,Brazil,VAUDOBALSAMO,,-54.5072,
1CC4C606010C5FD6DECDAB7CCF02F3DAE01D7246,PCH TUPITINGA MONTANTE,WHOS,PCH TUPITINGA MONTANTE,-27.5214,Brazil,PCHTUPITINGA,,-51.4131,
1CE79AF5E999271AFDD6245CF95813E3C45C2850,PCH SALTO BARRAMENTO,WHOS,PCH SALTO BARRAMENTO,-15.2889,Brazil,PCHSALTOBARR,,-58.7067,
1CE8AD4A82269F8C6C171C741EAD2E04CD79EA8C,UHE GOVERNADOR PARIGOT DE SOUZA VILA NOVA,WHOS,UHE GOVERNADOR PARIGOT DE SOUZA VILA NOVA,-25.3194,Brazil,UHEGOVERNADO,,-48.7081,
1CFEA1B7C337F7158E3272F3FA003DDB0536848F,PCH UNAÍ BAIXO MONTANTE,WHOS,PCH UNAÍ BAIXO MONTANTE,-16.1917,Brazil,PCHUNAÍBAIXO,,-47.1692,
1CFF9993FF1E2456580B14AFF5F725C7B6ACD63E,SAO SIMAO,WHOS,SAO SIMAO,-18.969142,Brazil,SAOSIMAO,,-50.633449,
1D02C9BB3460AABB50E10070CA53FD7EE25677E0,Moussy,WHOS,Moussy,-28.9979166666667,Argentina,Moussy,,-59.7526111111111,
1D03C1F9B332351344D3F2D8CC81EFA6F7AB79DE,SANTA BARBARA DOESTE -  RIB. DOS TOLEDOS,WHOS,SANTA BARBARA DOESTE -  RIB. DOS TOLEDOS,-22.756263,Brazil,SANTABARBARA,,-47.408254,
1D1A4A88A38A87144856D91B7485BEDA052F3785,Puerto Concepción,WHOS,Puerto Concepción,-28.119193,Argentina,PuertoConcep,,-55.581369,
1D2D8FEB12B7A9459579BAD33F043FA719DEC47C,FLORIANOPOLIS-SAO JO,WHOS,FLORIANOPOLIS-SAO JO,-27.60253,,FLORIANOPOLI,,-48.6201,
1D30DF005397FBF14DAB1BBD540B12AA8DED57A6,RIO PARDO,WHOS,RIO PARDO,-29.995,Brazil,RIOPARDO,,-52.3756,
1D4984B3185009A5B06B05376C6F1CDCF00E9A9B,SAO BERNARDO DO CAMPO - BATISTINE,WHOS,SAO BERNARDO DO CAMPO - BATISTINE,-23.756,Brazil,SAOBERNARDOD,,-46.578,
1D720BEAC1149DBD1934032759C0FC92AB0C1794,JACAREPAGUA,WHOS,JACAREPAGUA,-22.99,Brazil,JACAREPAGUA,,-43.37,
1D79A8637E5D8613A3F141A2414677EB936FD8E5,PCH QUEIXADA BARRAMENTO,WHOS,PCH QUEIXADA BARRAMENTO,-18.7317,Brazil,PCHQUEIXADAB,,-51.7989,
1D8AB502E7EDB7F43AD7B772EC6261C67ACC49E8,JARDIM BOTANICO,WHOS,JARDIM BOTANICO,-22.97,Brazil,JARDIMBOTANI,,-43.22,
1DA342B4CC78EA17F89AFE6915296C840BA81AC0,PCH CASCA III BARRAMENTO,WHOS,PCH CASCA III BARRAMENTO,-15.3575,Brazil,PCHCASCAIIIB,,-55.4553,
1DAA9E34F092671A8B3A2D7F045EAE903622D18F,JUSANTE DE GOIÂNIA,WHOS,JUSANTE DE GOIÂNIA,-16.6811,Brazil,JUSANTEDEGOI,,-49.1964,
1DAD05EAD62851E271DA23BF79D09DB075EA3E88,PCIA ROQUE SAENZ PEN,WHOS,PCIA ROQUE SAENZ PEN,-26.650000000000002,,PCIAROQUESAE,,-60.46694000000001,
1DB175797777D48F13B5A2B416BDEE15E51BCBB8,PORTO UNIAO - CENTRO,WHOS,PORTO UNIAO - CENTRO,-26.236529,Brazil,PORTOUNIAO-C,,-51.084179,
1DC0C47372ECC8CF4121C707ABE5908E16050F37,UHE SERRA DO FACÃO PONTE ALTA,WHOS,UHE SERRA DO FACÃO PONTE ALTA,-17.4778,Brazil,UHESERRADOFA,,-47.6244,
1DC2689E70CF08C2A340754A59471E89112855BA,INDAIAL - CARIJOS,WHOS,INDAIAL - CARIJOS,-26.88128,Brazil,INDAIAL-CARI,,-49.23332,
1DEE03110AFFD2B2A4B83113996150D0B0A91EE9,UHE GOV. PARIGOT DE SOUZA JUSANTE,WHOS,UHE GOV. PARIGOT DE SOUZA JUSANTE,-25.0881,Brazil,UHEGOV.PARIG,,-48.8272,
1DF09FFE6B693C439AFAC66E0B1E77AEA931979A,UHE CAÇU RIO DOCE,WHOS,UHE CAÇU RIO DOCE,-18.3019,Brazil,UHECAÇURIODO,,-51.1494,
1DF6BF0F626A238BA9A72E7A26144AB8CC3FD6FF,ENG. DOLABELA (BOCAIUVA),WHOS,ENG. DOLABELA (BOCAIUVA),-17.1,Brazil,ENG.DOLABELA,,-43.8,
1E023A830631E3A687866F21E0AFB6BEFB2D0AD6,RIO ACIMA - MORGANS,WHOS,RIO ACIMA - MORGANS,-20.0876,Brazil,RIOACIMA-MOR,,-43.785103,
1E0B0B659345BCD951F15FE7BC23CC2DC51512BF,CGH ILHEUS JUSANTE,WHOS,CGH ILHEUS JUSANTE,-21.2731,Brazil,CGHILHEUSJUS,,-43.89,
1E2B31BB24E78ED07E8727A2DB8FEE50F114F8D5,PCH OLIVEIRA JUSANTE,WHOS,PCH OLIVEIRA JUSANTE,-20.7711,Brazil,PCHOLIVEIRAJ,,-44.6978,
1E45E54A6B4BB132BD13859512C073294961F972,Miriñay - PASO LEDESMA,WHOS,Miriñay - PASO LEDESMA,-29.8458333333333,Argentina,Miriñay-PASO,,-57.675,
1E491EF4DCB541102F18ED86B2A1FE6396BDB460,CGH FUNIL BARRAMENTO,WHOS,CGH FUNIL BARRAMENTO,-20.4894,Brazil,CGHFUNILBARR,,-43.4456,
1E4C4C19D5647299FFB5198CCA4422105907AB7B,RIO DE JANEIRO - VIGARIO GERAL,WHOS,RIO DE JANEIRO - VIGARIO GERAL,-22.8131,Brazil,RIODEJANEIRO,,-43.3101,
1E568E28666A41EB6BACAD43000E0993312D2CE5,UHE BARRA GRANDE SOCORRO,WHOS,UHE BARRA GRANDE SOCORRO,-28.2869,Brazil,UHEBARRAGRAN,,-50.8333,
1E5E02DB42BF2807728FA6C0D084588606DFE02C,INACIO MARTINS,WHOS,INACIO MARTINS,-25.567879,Brazil,INACIOMARTIN,,-51.077946,
1E617ECCA7F0B12810FCD0C6AFB3851BD12EA0C4,ENCRUZILHADA DO SUL,WHOS,ENCRUZILHADA DO SUL,-30.543110000000002,,ENCRUZILHADA,,-52.5247,
1E7B05B8F44F295CD89F6DE3340D08AB36AF1EE6,Santa Rosa - SLLP,WHOS,Santa Rosa - SLLP,-14.166670000000002,,SantaRosa-SL,,-66.9,
1E7EECE81D2B1D45AD25255232278CB610CFC458,TIETE,WHOS,TIETE,-23.12,Brazil,TIETE,,-47.72,
1E80BFC7D5752D0BA0DAF14EC20B4ED71D88C391,PCH MONTE SERRAT MANOEL DUARTE,WHOS,PCH MONTE SERRAT MANOEL DUARTE,-22.0847,Brazil,PCHMONTESERR,,-43.56,
1E86EBB61C87EF3E676030C138CB3E5A07FCEEAA,Isla Patrulla,WHOS,Isla Patrulla,-32.996,Uruguay,IslaPatrulla,,-54.563,
1E942811C5FBC3C268319F8BBB6968C1519CDAE9,CONCHAL - CENTRO,WHOS,CONCHAL - CENTRO,-22.3366,Brazil,CONCHAL-CENT,,-47.17383,
1E96EEC3964AD85C051FD7B3426DAB61406DEB0C,UHE EMBORCAÇÃO PATOS DE MINAS,WHOS,UHE EMBORCAÇÃO PATOS DE MINAS,-18.6025,Brazil,UHEEMBORCAÇÃ,,-46.5406,
1EA83F5599A88D97E98E46904D69A8986F8DEEB5,PCH SANTA LUZIA ALTO BARRAMENTO,WHOS,PCH SANTA LUZIA ALTO BARRAMENTO,-26.6139,Brazil,PCHSANTALUZI,,-52.5375,
1EB715F3E39BE2E9EDE162FB29B6201B4CA05996,Young,WHOS,Young,-32.686350000000004,,Young,,-57.64992,
1EB80A79FBFBBB142B2B6F726424BC5EB95149F4,PRESIDENTE PRUDENTE,WHOS,PRESIDENTE PRUDENTE,-22.11999999,Brazil,PRESIDENTEPR,,-51.40861111,
1EB8216064638A0DBD3D48DD01EF90E64396919A,PCH LAJEADO JUSANTE,WHOS,PCH LAJEADO JUSANTE,-19.0606,Brazil,PCHLAJEADOJU,,-52.5286,
1ECC77C9FB41B8FAC03C31352F3D55D037ABAAF8,PCH IJUIZINHO BARRAMENTO,WHOS,PCH IJUIZINHO BARRAMENTO,-28.4417,Brazil,PCHIJUIZINHO,,-54.2886,
1ED0365234E5D712B0C2A4D9B201731842E391F4,PCH IJUIZINHO PONTE QUEIMADA,WHOS,PCH IJUIZINHO PONTE QUEIMADA,-28.7778,Brazil,PCHIJUIZINHO,,-53.9817,
1EE3B7E217C074BDF383F10785F3B143FEC6E292,CGH CACHOEIRA DOS MACACOS BARRAMENTO,WHOS,CGH CACHOEIRA DOS MACACOS BARRAMENTO,-19.6089,Brazil,CGHCACHOEIRA,,-47.4556,
1F0FA30A7804A023A50B6DC58AAE4B387702D70C,PCH FAZENDA VELHA JUSANTE,WHOS,PCH FAZENDA VELHA JUSANTE,-17.9744,Brazil,PCHFAZENDAVE,,-51.7603,
1F15A41BAA8DE3B4A119FA37C672A14076C3EB7C,SANTA BRANCA - CENTRO,WHOS,SANTA BRANCA - CENTRO,-23.39705,Brazil,SANTABRANCA-,,-45.88567,
1F246D6EEFFDF50C30CB5D471243C3E325E35D9E,UHE PARANOÁ CÓRREGO BANANAL,WHOS,UHE PARANOÁ CÓRREGO BANANAL,-15.7283,Brazil,UHEPARANOÁCÓ,,-47.91,
1F2BA9967A11E5EACA180FEC8DDA7CFDC3D1E0C3,PCH CACHOEIRA DO LAVRINHA BARRAMENTO,WHOS,PCH CACHOEIRA DO LAVRINHA BARRAMENTO,-15.5175,Brazil,PCHCACHOEIRA,,-49.4856,
1F2D41874E95C8168D9760D2D6E864A13A8DD403,CAMPOS DO JORDAO - JAGUARIBE,WHOS,CAMPOS DO JORDAO - JAGUARIBE,-22.731,Brazil,CAMPOSDOJORD,,-45.577,
1F3388D323BFD399A74A36A7A4C0FB869C35D60C,CURITIBA - BUTIATUVINHA,WHOS,CURITIBA - BUTIATUVINHA,-25.41118,Brazil,CURITIBA-BUT,,-49.36184,
1F344688C422A6DE55AD12B1D383A7A634D5BF52,IJUI - INDUSTRIAL,WHOS,IJUI - INDUSTRIAL,-28.381,Brazil,IJUI-INDUSTR,,-53.933,
1F37DB5A9D4C6F2C319F3FFA699E804E9DEC9806,RIO GRANDE DA SERRA - PARQUE AMERICA,WHOS,RIO GRANDE DA SERRA - PARQUE AMERICA,-23.76,Brazil,RIOGRANDEDAS,,-46.411,
1F3C3F0960C4DDBE843AE83CBB36D79804D3E7B0,ANTONIO CARLOS - GUIOMAR,WHOS,ANTONIO CARLOS - GUIOMAR,-27.5028,Brazil,ANTONIOCARLO,,-48.78,
1F43B304A5B361A4AD581B74BCA0C42CEA853410,UHE IRAPÉ MONTANTE,WHOS,UHE IRAPÉ MONTANTE,-17.3156,Brazil,UHEIRAPÉMONT,,-43.2125,
1F5032158C3562D9F9BA595F8C372FDCC1FDDF4C,RIO DE JANEIRO - FACULDADE ESTACIO,WHOS,RIO DE JANEIRO - FACULDADE ESTACIO,-22.924,Brazil,RIODEJANEIRO,,-43.212,
1F5F2190815574EDC307267F7706C7F2664C457A,FRANCO DA ROCHA - PARQUE PAULISTA,WHOS,FRANCO DA ROCHA - PARQUE PAULISTA,-23.305,Brazil,FRANCODAROCH,,-46.734,
1F5F50F7E3DBE45069D5DF0360C1254D17340183,PARANAGUA - VILA DO POVO,WHOS,PARANAGUA - VILA DO POVO,-25.542,Brazil,PARANAGUA-VI,,-48.547,
1F6FD5AC1E497D04D96E99B020734A0A72DE0E2E,BARBACENA - SAO FRANCISCO,WHOS,BARBACENA - SAO FRANCISCO,-21.201,Brazil,BARBACENA-SA,,-43.77,
1F7B90B5F19777D3D5305D73FB101F26900AB9D4,UHE ASSIS CHATEAUBRIAND JUSANTE,WHOS,UHE ASSIS CHATEAUBRIAND JUSANTE,-20.6808,Brazil,UHEASSISCHAT,,-53.5564,
1F803FFF0D7EC1CFD152EC4102B0DDCEFAAD3694,SCHROEDER,WHOS,SCHROEDER,-26.4392,Brazil,SCHROEDER,,-49.0628,
1F844852AA7401A007C5D2950EB28FBAF0314574,CAMPO BOM - BARRINHA,WHOS,CAMPO BOM - BARRINHA,-29.695,Brazil,CAMPOBOM-BAR,,-51.042,
1F8D97F78A32752C9000744BAAFD511B696F61A0,Morón,WHOS,Morón,-34.6608222222222,Argentina,Morón,,-58.6277055555556,
1F93E9329BE620EB8C6E5A54CA864585545D08D3,ITAMONTE - CENTRO,WHOS,ITAMONTE - CENTRO,-22.28416666,Brazil,ITAMONTE-CEN,,-44.86777777,
1F96E4047557D94914AB9339849DF54CD313174F,MINEIROS - COQUEIROS,WHOS,MINEIROS - COQUEIROS,-17.537,Brazil,MINEIROS-COQ,,-52.537,
1FAC427BF2EBAD26A8927F13099BE7C57F867A4D,PASSO FUNDO - PARQUE FARROUPILHA,WHOS,PASSO FUNDO - PARQUE FARROUPILHA,-28.245,Brazil,PASSOFUNDO-P,,-52.37,
1FB182BACF1BE634F6BCBA786AF5C0F2FF1E12B8,JANUARIA,WHOS,JANUARIA,-15.448054,Brazil,JANUARIA,,-44.366321,
1FB6B1B52AA09EA02E2E2E94E865435062797268,CANGUCU,WHOS,CANGUCU,-31.40333333,Brazil,CANGUCU,,-52.70083333,
1FC3C5AB329352EB7950832B774F0EADEE60E942,JUIZ DE FORA - REPRESA,WHOS,JUIZ DE FORA - REPRESA,-21.684,Brazil,JUIZDEFORA-R,,-43.404,
1FC5EF6667E4BB3DD7BFE4F1A090AADE14B1EFC3,CRIXAS - CENTRO,WHOS,CRIXAS - CENTRO,-14.548,Brazil,CRIXAS-CENTR,,-49.978,
1FC6CC82460339CAC4002E7AFF42A7AD1AF1B78C,PCH GUARY BARRAMENTO,WHOS,PCH GUARY BARRAMENTO,-21.4889,Brazil,PCHGUARYBARR,,-43.4553,
1FD4C0E1DCBECC7995229FC924FDA1A0720CAC38,SAO LOURENCO,WHOS,SAO LOURENCO,-22.126273,Brazil,SAOLOURENCO,,-45.043327,
1FD62C9BB2602EC159063C7FBA1E8746D30BF2BC,PONTE VACACAÍ MIRIM CPRM,WHOS,PONTE VACACAÍ MIRIM CPRM,-29.8011,Brazil,PONTEVACACAÍ,,-53.3681,
1FF4ED2127599A2C2DEA430DA3FA4BB99342523E,FRANCISCO MORATO - JARDIM VIRGINIA,WHOS,FRANCISCO MORATO - JARDIM VIRGINIA,-23.29199,Brazil,FRANCISCOMOR,,-46.73439,
1FFD27ACF6B319068BA22EE5557D2176BF5153E1,Sistema Iberá - Estancia Palo Pirú,WHOS,Sistema Iberá - Estancia Palo Pirú,-28.2525555555556,Argentina,SistemaIberá,,-57.6351666666667,
200813123CB7CAEF8BEAFECDC4BF4753FF1E1CD8,JOANOPOLIS - SABIA UMA,WHOS,JOANOPOLIS - SABIA UMA,-22.932,Brazil,JOANOPOLIS-S,,-46.169,
200A09D3E46C8D29F6B677032DD24FDCA944D95A,SILVANIA,WHOS,SILVANIA,-16.67972221,Brazil,SILVANIA,,-48.61805554,
200AAA2D2D841E7DFDC95E1934F65AE569A4B37C,San Lorenzo (San Martín),WHOS,San Lorenzo (San Martín),-32.7336256031375,Argentina,SanLorenzo(S,,-60.7256705696322,
200D9F8D202A9FF05C2618A5DA8ADB10B12F8E33,ILHABELA - ARMACAO,WHOS,ILHABELA - ARMACAO,-23.74,Brazil,ILHABELA-ARM,,-45.345,
2013381AAC88117DAE6AE48F2DA484842569082B,PARAUNA,WHOS,PARAUNA,-16.962536,Brazil,PARAUNA,,-50.42545,
2025AA85856CD04C36E941356CFC9A057F720B57,OURO BRANCO,WHOS,OURO BRANCO,-20.5,Brazil,OUROBRANCO,,-43.7,
2028AAF9D36AC015ADACC1ED2A03E116DDE2B180,Yapeyú,WHOS,Yapeyú,-29.470444,Argentina,Yapeyú,,-56.81167,
203A9B7C2A970263EDAD32E8B065BFDDD037A00D,PEDREIRA - SANTA CLARA,WHOS,PEDREIRA - SANTA CLARA,-22.74153,Brazil,PEDREIRA-SAN,,-46.9242,
204CE6B901248026E35E6C799DE24E4E57052CD8,PCH SALTO NATAL BARRAMENTO,WHOS,PCH SALTO NATAL BARRAMENTO,-24.0864,Brazil,PCHSALTONATA,,-52.3008,
205E30A311B987223F803CB0549586FD68BA72E7,SANTANA DE PARNAIBA - CIDADE SAO PEDRO,WHOS,SANTANA DE PARNAIBA - CIDADE SAO PEDRO,-23.43198,Brazil,SANTANADEPAR,,-46.85841,
2088B62E8B76166B5694F419AD40831384D6DFD1,UHE CANOAS II GRANJA GAROTA,WHOS,UHE CANOAS II GRANJA GAROTA,-23.3433,Brazil,UHECANOASIIG,,-50.1628,
20971ADD1F85013BB12D7AFB503B3C78C7FED9C3,CONCEPCION - SLLP,WHOS,CONCEPCION - SLLP,-16.6,,CONCEPCION-S,,-62.00000000000001,
209FA047B580A3539A75F9D0D7CF303605B27860,CAETÉ,WHOS,CAETÉ,-19.9028,Brazil,CAETÉ,,-43.6664,
209FB5B50054E2048EA125803C6A05FBFC294A24,CGH MARIA CÉLIA MAUAD NOTINI BARRAMENTO,WHOS,CGH MARIA CÉLIA MAUAD NOTINI BARRAMENTO,-20.5378,Brazil,CGHMARIACÉLI,,-44.5647,
20A08D7D89982E38099E9D0EE77063681830D987,UHE FURNAS JUSANTE,WHOS,UHE FURNAS JUSANTE,-20.6753,Brazil,UHEFURNASJUS,,-46.3386,
20AAE797BF4B1F9E434D0A130B95A45F6B2EED9A,PONTA PORA,WHOS,PONTA PORA,-22.5525,Brazil,PONTAPORA,,-55.71638888,
20BB759CE9426C3D7CBEBEB42094F8498734C37C,Miriñay - San Roquito,WHOS,Miriñay - San Roquito,-29.2968333333333,Argentina,Miriñay-SanR,,-57.5651666666667,
20CDC5F9826A3BFD5F1823800034261ECA19EC9A,RIO DE JANEIRO - ARENA  PEROLA NEGRA,WHOS,RIO DE JANEIRO - ARENA  PEROLA NEGRA,-22.8076,Brazil,RIODEJANEIRO,,-43.3584,
20E8A9F96B3974A4F5504B0628393B122F2BC725,UHE AMERICANA BARRAMENTO,WHOS,UHE AMERICANA BARRAMENTO,-22.6981,Brazil,UHEAMERICANA,,-47.2842,
20FBB470746FA12F9D66265258675F063335503B,BONFIM PAULISTA,WHOS,BONFIM PAULISTA,-21.2672,Brazil,BONFIMPAULIS,,-47.8189,
210C04637130F8466F093E95F75875F8FCE512B8,FERNANDOPOLIS - CENTRO,WHOS,FERNANDOPOLIS - CENTRO,-20.285,Brazil,FERNANDOPOLI,,-50.247,
210C911D91260B981EC0278DB2757254DDA637B6,JAGUARA,WHOS,JAGUARA,-20.0166667,Brazil,JAGUARA,,-47.4333333,
2115F5852C07566F0BEF78B89AF1CE64E9A45C39,ICARAIMA,WHOS,ICARAIMA,-23.39038,,ICARAIMA,,-53.63593,
211C5C47477EB6BE3C670396A00D8D4DFBDF94FC,PCH AQUÁRIUS BARRAMENTO,WHOS,PCH AQUÁRIUS BARRAMENTO,-17.6183,Brazil,PCHAQUÁRIUSB,,-54.8883,
2123608379082BBD9CD698C2516E07FBB2EC4702,SANTOS - HUVET - MORRO MARAPE,WHOS,SANTOS - HUVET - MORRO MARAPE,-23.952057,Brazil,SANTOS-HUVET,,-46.354409,
212535EFD157455E8D1E55A99C21D9B97EE7A2B6,SAO VICENTE - ITARARE,WHOS,SAO VICENTE - ITARARE,-23.965,Brazil,SAOVICENTE-I,,-46.363,
212A9A34498A8C19F8F5645DD6B14FA7143931B6,UHE PARANOÁ BARRAMENTO,WHOS,UHE PARANOÁ BARRAMENTO,-15.7975,Brazil,UHEPARANOÁBA,,-47.7839,
213B5FD431F48D7669EA68034CF9F0C6DDDAB3EB,CACHOEIRINHA -  RIO GRAVATAI,WHOS,CACHOEIRINHA -  RIO GRAVATAI,-29.9635,Brazil,CACHOEIRINHA,,-51.093,
213DC92626F37F49ED2FD13E7F53640308EAAD66,PCH TOCA DO TIGRE BARRAMENTO,WHOS,PCH TOCA DO TIGRE BARRAMENTO,-27.5453,Brazil,PCHTOCADOTIG,,-53.8069,
213FA387ED1E33B6A816A390B4CA56B4C584F552,TOMAZINA,WHOS,TOMAZINA,-23.7667,Brazil,TOMAZINA,,-49.95,
21441ED57A4B275F5193712667EE792A1FA1AE8A,SCHROEDER - CENTRO2,WHOS,SCHROEDER - CENTRO2,-26.412,Brazil,SCHROEDER-CE,,-49.077,
21580842188C000D207C02F623F016B678940C4B,SUZANO - JARDIM AMAZONAS,WHOS,SUZANO - JARDIM AMAZONAS,-23.64494,Brazil,SUZANO-JARDI,,-46.32195,
21586B1190F3F4ECBE1D00751D44FFE3A7E284FB,UHE SALTO DO RIO VERDINHO BARRAMENTO,WHOS,UHE SALTO DO RIO VERDINHO BARRAMENTO,-19.1617,Brazil,UHESALTODORI,,-50.7619,
215DA71A62174305ABBA3161F9D2F45D9B0114B3,Caxias,WHOS,Caxias,-25.54282,BRASIL,Caxias,,-53.490223,
216377517DBDB022F133197639F08A8FAC265AD3,RIBEIRÃO TORTO JUSANTE CÓRREGO URUBÚ,WHOS,RIBEIRÃO TORTO JUSANTE CÓRREGO URUBÚ,-15.7219,Brazil,RIBEIRÃOTORT,,-47.8681,
21716C8F493B64712F773F734CD75E288484EAD3,UHE SANTA BRANCA BARRAMENTO,WHOS,UHE SANTA BRANCA BARRAMENTO,-23.3731,Brazil,UHESANTABRAN,,-45.8694,
219A39CC5C574D188E932C82078BEB00C89B5474,JOANOPOLIS - CACHOEIRA,WHOS,JOANOPOLIS - CACHOEIRA,-22.962,Brazil,JOANOPOLIS-C,,-46.176,
219E5A7C17B16E38937193BA48BEFB30EAA2DB47,CARAGUATATUBA - RIO CAMBURU,WHOS,CARAGUATATUBA - RIO CAMBURU,-23.699,Brazil,CARAGUATATUB,,-45.487,
21A896B79B67E05B2C3A80CA53EB827C980E94BA,Paso Alonso,WHOS,Paso Alonso,-33.1006111111111,Argentina,PasoAlonso,,-59.2703333333333,
21C2A10D80AC2959919AD0C328BBFEE50840B943,UHE ALECRIM BARRAMENTO,WHOS,UHE ALECRIM BARRAMENTO,-24.0814,Brazil,UHEALECRIMBA,,-47.4767,
21C60B2010FBC8B85E25F8A77D4CBBF673839118,SANTA MARIA - SALGADO FILHO,WHOS,SANTA MARIA - SALGADO FILHO,-29.673,Brazil,SANTAMARIA-S,,-53.82,
21D83EFD6A40DFA1B84234BBF9FD20C49B9039FB,RIO DE JANEIRO - USINA,WHOS,RIO DE JANEIRO - USINA,-22.948,Brazil,RIODEJANEIRO,,-43.258,
21E0E36DB9B6FF030C3667780DD06DB8FC7BEF21,Paysand?,WHOS,Paysand?,-32.348330000000004,,Paysand?,,-58.03667000000001,
21E0E3CBB2F164987600F081DA6C8E458AF7362F,UHE BARRA BONITA RASGÃO PIRAPORA,WHOS,UHE BARRA BONITA RASGÃO PIRAPORA,-23.355,Brazil,UHEBARRABONI,,-47.0828,
21F97DB2A2D1F7EDC10BF669375AFD43146BEB8D,SÃO JOÃO,WHOS,SÃO JOÃO,-16.9444,Brazil,SÃOJOÃO,,-56.6328,
22024D0814E6BB20163736804D417480159FA4AD,ITAQUI - CENTRO,WHOS,ITAQUI - CENTRO,-29.121572,Brazil,ITAQUI-CENTR,,-56.557725,
220328205A14CFE46E447EE9AA92B460E12F9C88,UHE ASSIS CHATEAUBRIAND BARRAMENTO,WHOS,UHE ASSIS CHATEAUBRIAND BARRAMENTO,-20.6744,Brazil,UHEASSISCHAT,,-53.5667,
220DE615358B3F05B41B5F9BA28C71B8465C7471,PCH SENADOR JONAS PINHEIRO BARRAMENTO,WHOS,PCH SENADOR JONAS PINHEIRO BARRAMENTO,-16.1061,Brazil,PCHSENADORJO,,-55.3439,
221562BF9BE70284A30ACFBDAD3DA3A94F7F85EC,Paraná - Empedrado,WHOS,Paraná - Empedrado,-27.9588055555556,Argentina,Paraná-Emped,,-58.8199444444444,
221E6D9E524B10E4D5B4945F0A6A22D145F8D527,LASSANCE,WHOS,LASSANCE,-17.9136,Brazil,LASSANCE,,-44.5694,
221EF52DE4CAFCC1A7A15DBBCD6ABC3221B474EF,Paraná - Corrientes,WHOS,Paraná - Corrientes,-27.4597222222222,Argentina,Paraná-Corri,,-58.8333333333333,
22297443E80CF93DDD4443F74652FF2A6EB964EF,CURITIBA - AEROPORTO,WHOS,CURITIBA - AEROPORTO,-25.52,Brazil,CURITIBA-AER,,-49.17,
22318785AB024C4FC9DEDE34BF1A0C1C9516B118,SOBRAJI,WHOS,SOBRAJI,-21.9667,Brazil,SOBRAJI,,-43.3744,
22433CEC8102A4A346F587A1BBE6C0E9816F56C5,PCH CULUENE JUSANTE 1,WHOS,PCH CULUENE JUSANTE 1,-14.6297,Brazil,PCHCULUENEJU,,-53.9097,
224B81BB21CF1A8B883A92385E13F7F53512DC73,Durazno - Aeropuerto Internacional de Santa Bernardina,WHOS,Durazno - Aeropuerto Internacional de Santa Bernardina,-33.3510751776174,Uruguay,Durazno-Aero,,-56.5023452655474,
225A9B9542A97B7ACD7D58BB5BD10C58E3623871,ITAPIRANGA - PREFEITURA MUNICIPAL,WHOS,ITAPIRANGA - PREFEITURA MUNICIPAL,-27.17259,Brazil,ITAPIRANGA-P,,-53.71102,
2260E46468B721CD0C7C2FDDF8514489A12627F6,PCH ITATINGA BARRAMENTO,WHOS,PCH ITATINGA BARRAMENTO,-23.745,Brazil,PCHITATINGAB,,-46.1275,
22663E281A9E653DBBCE30F0DC322FE77D5EBEFB,PCH SANTA ROSA BARRAMENTO,WHOS,PCH SANTA ROSA BARRAMENTO,-27.7714,Brazil,PCHSANTAROSA,,-54.3889,
226D17F9B18C4E0C3194BB31E6D81BF70C2AE1FA,GASPAR - MARGEM ESQUERDA,WHOS,GASPAR - MARGEM ESQUERDA,-26.906,Brazil,GASPAR-MARGE,,-48.935,
228B72BFB1EA68849AEFE9E47042346B7E6ECA63,ILHABELA - BARRA VELHA,WHOS,ILHABELA - BARRA VELHA,-23.822,Brazil,ILHABELA-BAR,,-45.367,
22973587DE6BFAC8234D72666394D1B39861362A,Paraguay - La Herradura,WHOS,Paraguay - La Herradura,-26.5366055555556,Argentina,Paraguay-LaH,,-58.2296555555556,
22980E3ACB5C972FC531EF2E985463F04F8E2CB0,Salado - Agua Abajo Azud Colonia Dora,WHOS,Salado - Agua Abajo Azud Colonia Dora,-28.5583833333333,Argentina,Salado-AguaA,,-62.8868472222222,
22A6645BB369F3427B3EA40A5A0B33DB73CD1ACA,ICARA - PRIMEIRO DE MAIO,WHOS,ICARA - PRIMEIRO DE MAIO,-28.72264,Brazil,ICARA-PRIMEI,,-49.30026,
22A91FA2998D2DC02DE5AEE9264B887F128599F6,ANGRA DOS REIS - PONTA LESTE,WHOS,ANGRA DOS REIS - PONTA LESTE,-23.052,Brazil,ANGRADOSREIS,,-44.243,
22C52A1EB6A6E43B282A5B69E27BC08B1B4A8F49,PCH ITAIPAVA BARRAMENTO,WHOS,PCH ITAIPAVA BARRAMENTO,-21.4142,Brazil,PCHITAIPAVAB,,-47.3353,
22C9034025FAC6366058B15D8ADC5AC214B10458,ARUANÃ,WHOS,ARUANÃ,-14.9128,Brazil,ARUANÃ,,-51.0814,
22DEEE5660FDD34FCFA3B35B83068FA3409B5707,PCH GUARITA BARRAMENTO JOÃO AMADO,WHOS,PCH GUARITA BARRAMENTO JOÃO AMADO,-27.7653,Brazil,PCHGUARITABA,,-53.5575,
22E78B4DC3D773AA05F6CBA44648288BFDC28C73,UHE SANTA CLARA RIO PINHÃO,WHOS,UHE SANTA CLARA RIO PINHÃO,-25.6119,Brazil,UHESANTACLAR,,-51.6531,
22EE55A70CC77B9286990A17F71227A16AFA1309,SAO JOSE DOS PINHAIS - C. LARGO DA ROSEIRA,WHOS,SAO JOSE DOS PINHAIS - C. LARGO DA ROSEIRA,-25.674,Brazil,SAOJOSEDOSPI,,-49.182,
2309B58E6695B6582034FA707A19679F421671C3,CUBATAO - PINHAL DO MIRANDA,WHOS,CUBATAO - PINHAL DO MIRANDA,-23.88161,Brazil,CUBATAO-PINH,,-46.45451,
23137FB463C0902450418E9E2F0D38C719419AA9,Posadas,WHOS,Posadas,-27.3666666666667,Argentina,Posadas,,-55.8833333333333,
2318AB45AB2578997CE3B75302E4A4A2D03C9A18,UHE ILHA SOLTEIRA PONTE SÃO DOMINGOS,WHOS,UHE ILHA SOLTEIRA PONTE SÃO DOMINGOS,-19.22,Brazil,UHEILHASOLTE,,-50.6764,
231F401B64A3821BE012AE056FB6B3C14BFAFF28,UHE FUNIL IBITURUNA JUSANTE,WHOS,UHE FUNIL IBITURUNA JUSANTE,-21.1383,Brazil,UHEFUNILIBIT,,-44.7439,
232D0D028DDD6D8BC8880B028334624AF3AA5B8A,BICO DA PEDRA - ASSIEG,WHOS,BICO DA PEDRA - ASSIEG,-15.7492,Brazil,BICODAPEDRA-,,-43.3092,
2330F8A939388C453AB209D95CD16A0806B40911,PETROPOLIS - ESTRADA DO BREJAL,WHOS,PETROPOLIS - ESTRADA DO BREJAL,-22.255,Brazil,PETROPOLIS-E,,-43.063,
2342DC3F310867975A07B914E69421EB3E4BC6F6,DEL DOLL - RUTA PROVINCIAL Nº 011,WHOS,DEL DOLL - RUTA PROVINCIAL Nº 011,-32.3058333333333,Argentina,DELDOLL-RUTA,,-60.4265277777778,
234EDAC29227366124E1B02F64E01CEDC7CB73A0,PCH JATAÍ JUSANTE,WHOS,PCH JATAÍ JUSANTE,-17.9558,Brazil,PCHJATAÍJUSA,,-51.7192,
23566AE39A586BE5A42FA195EB8F9C98254485EA,CGH BELA UNIÃO MONTANTE 2,WHOS,CGH BELA UNIÃO MONTANTE 2,-27.8728,Brazil,CGHBELAUNIÃO,,-54.3208,
235B1EAAEC70F3B3E1D8563E14CB983BD423A5FB,UHE SALTO DO RIO VERDINHO MONTANTE,WHOS,UHE SALTO DO RIO VERDINHO MONTANTE,-18.9444,Brazil,UHESALTODORI,,-50.9672,
236DE66F9DFD931CE2EE4B938BF34F3247A58242,SAO CARLOS,WHOS,SAO CARLOS,-21.980353,Brazil,SAOCARLOS,,-47.883927,
