STATION_ID,EXTERNAL_LOCATION_ID,EXTERNAL_PARAMETER_ID,TIMESTEP_HOUR,UNIT,IMPORT_SOURCE,LATITUDE,LONGITUDE,ALTITUDE,COUNTRY,ORGANIZATION,SUBBASIN,ORIGINAL_STATION_ID
445303F8F244F5C26074F3C8F307207EE9CC4244,445303F8F244F5C26074F3C8F307207EE9CC4244,AF6C35E61AC362E0151B6458DADCB032043B67EA,,millimetre,WHOS,-22.283025,-57.94130833,,Paraguay,DMH,Rio Paraguay,16000086
30DC0693FA1BAEBFAC329B94531B0DD003ACEA90,30DC0693FA1BAEBFAC329B94531B0DD003ACEA90,AF6C35E61AC362E0151B6458DADCB032043B67EA,,millimetre,WHOS,-25.62680833,-57.14583056,,Paraguay,DMH,Rio Paraguay,09000221
501A5E9FFA752064F7AE58DFA3DC81CB281E7EB5,501A5E9FFA752064F7AE58DFA3DC81CB281E7EB5,AF6C35E61AC362E0151B6458DADCB032043B67EA,,millimetre,WHOS,-22.03053889,-60.61896111,,Paraguay,DMH,Rio Paraguay,19000068
9324D55D8489B88BFFE3A90DC429F4645DD89563,9324D55D8489B88BFFE3A90DC429F4645DD89563,AF6C35E61AC362E0151B6458DADCB032043B67EA,,millimetre,WHOS,-26.1667,-58.15,,Paraguay,DMH,Rio Paraguay,2000086251
451A9C6C12AE1720F61368E67821EC48A32E80FA,451A9C6C12AE1720F61368E67821EC48A32E80FA,D2DB8BC2930F82D1E5EFA6B529F0262EB0FFE994,,millimetre,WHOS,-22.3797,-46.9006,,Brazil,ANA,Rio Parana,61884080
CC4C849E2A335AD88C05A9A01AB1389DC1F63BCA,CC4C849E2A335AD88C05A9A01AB1389DC1F63BCA,D2DB8BC2930F82D1E5EFA6B529F0262EB0FFE994,,millimetre,WHOS,-29.1672,-51.8686,,Brazil,ANA,,86510000
9BD2756E7DB544B29530E683CB485459E308D898,9BD2756E7DB544B29530E683CB485459E308D898,D2DB8BC2930F82D1E5EFA6B529F0262EB0FFE994,,millimetre,WHOS,-24.8739,-48.4847,,Brazil,ANA,,81337000
AC21C69131DBD500D5745A4D021AEFBF8F285948,AC21C69131DBD500D5745A4D021AEFBF8F285948,D2DB8BC2930F82D1E5EFA6B529F0262EB0FFE994,,millimetre,WHOS,-28.3128,-53.9131,,Brazil,ANA,Rio Uruguay,75181000
9B0292B0683B9305D88752D58AAC34CF8C4ECB6A,9B0292B0683B9305D88752D58AAC34CF8C4ECB6A,D2DB8BC2930F82D1E5EFA6B529F0262EB0FFE994,,millimetre,WHOS,-19.7667,-43.0261,,Brazil,ANA,,56661000
6140E65B55B032BED8EEFC879BA0543FA523DC3F,6140E65B55B032BED8EEFC879BA0543FA523DC3F,D2DB8BC2930F82D1E5EFA6B529F0262EB0FFE994,,millimetre,WHOS,-16.3725,-45.07,,Brazil,ANA,,43200000
566DED40D5DA5FB3529A2CDEEF4D744667BF3C93,566DED40D5DA5FB3529A2CDEEF4D744667BF3C93,D2DB8BC2930F82D1E5EFA6B529F0262EB0FFE994,,millimetre,WHOS,-15.9178,-46.1192,,Brazil,ANA,,43429998
EF503B33F977FF977FA2E078610E45DC0884E6FB,EF503B33F977FF977FA2E078610E45DC0884E6FB,D2DB8BC2930F82D1E5EFA6B529F0262EB0FFE994,,millimetre,WHOS,-21.9242,-45.4708,,Brazil,ANA,Rio Parana,61526080
2AEC8F52A2D950EB3C09B9D8657D3C7D4A7F996F,2AEC8F52A2D950EB3C09B9D8657D3C7D4A7F996F,D2DB8BC2930F82D1E5EFA6B529F0262EB0FFE994,,millimetre,WHOS,-20.8097,-46.8067,,Brazil,ANA,Rio Parana,61710000
C4A9F81DDD095E2729956D8FB01097FA47D8B28B,C4A9F81DDD095E2729956D8FB01097FA47D8B28B,D2DB8BC2930F82D1E5EFA6B529F0262EB0FFE994,,millimetre,WHOS,-26.5936,-50.7283,,Brazil,ANA,Rio Parana,65259000
3CD7EE4618C18E41CB931BDBB6D7E7047286744D,3CD7EE4618C18E41CB931BDBB6D7E7047286744D,D2DB8BC2930F82D1E5EFA6B529F0262EB0FFE994,,millimetre,WHOS,-26.6381,-53.4156,,Brazil,ANA,Rio Uruguay,74314970
4CB773867D2130509950CB4D2686A153C8CE6F19,4CB773867D2130509950CB4D2686A153C8CE6F19,D2DB8BC2930F82D1E5EFA6B529F0262EB0FFE994,,millimetre,WHOS,-17.7731,-47.5361,,Brazil,ANA,Rio Parana,60045000
478F6AED90129BE6531A0110149BCDDE15F94CA7,478F6AED90129BE6531A0110149BCDDE15F94CA7,D2DB8BC2930F82D1E5EFA6B529F0262EB0FFE994,,millimetre,WHOS,-22.8453,-49.1622,,Brazil,ANA,Rio Parana,64314700
04F33DAD465F7BD2F923BF7289D01B6989870531,04F33DAD465F7BD2F923BF7289D01B6989870531,D2DB8BC2930F82D1E5EFA6B529F0262EB0FFE994,,millimetre,WHOS,-15.5358,-50.7047,,Brazil,ANA,,25130000
06010D76E704135B1424174A37205892A66CD155,06010D76E704135B1424174A37205892A66CD155,D2DB8BC2930F82D1E5EFA6B529F0262EB0FFE994,,millimetre,WHOS,-17.3692,-44.9431,,Brazil,ANA,,41135000
B19093A3470562A5D860FAD415BB4BBF6491FF22,B19093A3470562A5D860FAD415BB4BBF6491FF22,D2DB8BC2930F82D1E5EFA6B529F0262EB0FFE994,,millimetre,WHOS,-16.8367,-47.2042,,Brazil,ANA,Rio Parana,60018820
85144AFA85A1CA6A28B4079EC46611BAC9DC342A,85144AFA85A1CA6A28B4079EC46611BAC9DC342A,D2DB8BC2930F82D1E5EFA6B529F0262EB0FFE994,,millimetre,WHOS,-21.8494,-48.4917,,Brazil,ANA,Rio Parana,62776800
E6143ADB58E72275CD33153C89C5D19A069A4614,E6143ADB58E72275CD33153C89C5D19A069A4614,D2DB8BC2930F82D1E5EFA6B529F0262EB0FFE994,,millimetre,WHOS,-30.0211,-51.2211,,Brazil,ANA,,87450004
2D1BB7640FEF4A9DD808CDA301ED5811007251CB,2D1BB7640FEF4A9DD808CDA301ED5811007251CB,D2DB8BC2930F82D1E5EFA6B529F0262EB0FFE994,,millimetre,WHOS,-21.7964,-43.2972,,Brazil,ANA,,58489000
99A1AE77B962A0A8444603797E58B7F5FEA9D141,99A1AE77B962A0A8444603797E58B7F5FEA9D141,D2DB8BC2930F82D1E5EFA6B529F0262EB0FFE994,,millimetre,WHOS,-24.9219,-51.3997,,Brazil,ANA,Rio Parana,64630100
A7E483BF4A36657184374E00148AFDFD94A41C38,A7E483BF4A36657184374E00148AFDFD94A41C38,D2DB8BC2930F82D1E5EFA6B529F0262EB0FFE994,,millimetre,WHOS,-24.1,-49.4667,,Brazil,ANA,Rio Parana,64230500
4BA94E8C42B14B81B197B2794BCB3DF296231F2E,4BA94E8C42B14B81B197B2794BCB3DF296231F2E,D2DB8BC2930F82D1E5EFA6B529F0262EB0FFE994,,millimetre,WHOS,-20.0919,-43.7919,,Brazil,ANA,,41195050
F8E99B43D8DE47C591864A95913F7FD59F3F9A2D,F8E99B43D8DE47C591864A95913F7FD59F3F9A2D,D2DB8BC2930F82D1E5EFA6B529F0262EB0FFE994,,millimetre,WHOS,-21.7217,-46.5819,,Brazil,ANA,Rio Parana,61807500
0CC4322B870E5C265DE8FC2411A1242426B02463,0CC4322B870E5C265DE8FC2411A1242426B02463,D2DB8BC2930F82D1E5EFA6B529F0262EB0FFE994,,millimetre,WHOS,-20.1667,-44.1606,,Brazil,ANA,,40740000
89FDFD9FF04F0C20791693364EE85B07C66A66DC,89FDFD9FF04F0C20791693364EE85B07C66A66DC,D2DB8BC2930F82D1E5EFA6B529F0262EB0FFE994,,millimetre,WHOS,-18.8106,-48.3861,,Brazil,ANA,Rio Parana,60390080
FA0BB9845B5A51892BC4AB973573983BDB9146A7,FA0BB9845B5A51892BC4AB973573983BDB9146A7,D2DB8BC2930F82D1E5EFA6B529F0262EB0FFE994,,millimetre,WHOS,-19.0742,-44.6806,,Brazil,ANA,,40865400
0492FC90DE16CB5791B6B546CF318EE8111A9950,0492FC90DE16CB5791B6B546CF318EE8111A9950,D2DB8BC2930F82D1E5EFA6B529F0262EB0FFE994,,millimetre,WHOS,-23.7489,-50.9406,,Brazil,ANA,Rio Parana,64497000
EAE7B34193A181B1648FCD6CE0D3494A31B9BF5D,EAE7B34193A181B1648FCD6CE0D3494A31B9BF5D,D2DB8BC2930F82D1E5EFA6B529F0262EB0FFE994,,millimetre,WHOS,-20.6717,-46.3175,,Brazil,ANA,Rio Parana,61661000
7ACB51A9664AAC320475CC234E995BF0A2D0A09D,7ACB51A9664AAC320475CC234E995BF0A2D0A09D,D2DB8BC2930F82D1E5EFA6B529F0262EB0FFE994,,millimetre,WHOS,-22.45,-43.7972,,Brazil,ANA,,58370000
06B29CF798332C3E104C8AA6AB9C53425357956A,06B29CF798332C3E104C8AA6AB9C53425357956A,D2DB8BC2930F82D1E5EFA6B529F0262EB0FFE994,,millimetre,WHOS,-19.4233,-43.2008,,Brazil,ANA,,56777500
1F7B90B5F19777D3D5305D73FB101F26900AB9D4,1F7B90B5F19777D3D5305D73FB101F26900AB9D4,D2DB8BC2930F82D1E5EFA6B529F0262EB0FFE994,,millimetre,WHOS,-20.6808,-53.5564,,Brazil,ANA,Rio Parana,63921000
0D2DC5829F2CA42ACAE9CB273766203A043931B2,0D2DC5829F2CA42ACAE9CB273766203A043931B2,D2DB8BC2930F82D1E5EFA6B529F0262EB0FFE994,,millimetre,WHOS,-23.2247,-44.7614,,Brazil,ANA,,59380000
BC0E9D161073AFC435B31F7315011835817C2FE6,BC0E9D161073AFC435B31F7315011835817C2FE6,D2DB8BC2930F82D1E5EFA6B529F0262EB0FFE994,,millimetre,WHOS,-20.6436,-47.6753,,Brazil,ANA,Rio Parana,61782100
990CFC9220C68BFEC230C4FBB827B3A361E842BB,990CFC9220C68BFEC230C4FBB827B3A361E842BB,D2DB8BC2930F82D1E5EFA6B529F0262EB0FFE994,,millimetre,WHOS,-16.1928,-55.9669,,Brazil,ANA,Rio Paraguay,66280000
B048427378D8BE63C8496CB8FCA9093C1D4ABF77,B048427378D8BE63C8496CB8FCA9093C1D4ABF77,D2DB8BC2930F82D1E5EFA6B529F0262EB0FFE994,,millimetre,WHOS,-29.9514,-55.5992,,Brazil,ANA,Rio Uruguay,76741900
D68E9CE2403251DD3AFF8142EF2273A0DF307EEF,D68E9CE2403251DD3AFF8142EF2273A0DF307EEF,D2DB8BC2930F82D1E5EFA6B529F0262EB0FFE994,,millimetre,WHOS,-20.7706,-46.7197,,Brazil,ANA,Rio Parana,61685000
4ABC632413EF44233CFBDF7E66C283F9EF889090,4ABC632413EF44233CFBDF7E66C283F9EF889090,D2DB8BC2930F82D1E5EFA6B529F0262EB0FFE994,,millimetre,WHOS,-20.4783,-55.8014,,Brazil,ANA,Rio Paraguay,66945000
E7BEDF3DF98679F52974A9701D06C9C46E80CAEF,E7BEDF3DF98679F52974A9701D06C9C46E80CAEF,D2DB8BC2930F82D1E5EFA6B529F0262EB0FFE994,,millimetre,WHOS,-28.6567,-54.4594,,Brazil,ANA,Rio Uruguay,75400010
5C424F9EA48F187A8923001FBDE6B467FEC0BD8F,5C424F9EA48F187A8923001FBDE6B467FEC0BD8F,D2DB8BC2930F82D1E5EFA6B529F0262EB0FFE994,,millimetre,WHOS,-25.5986,-49.2608,,Brazil,ANA,Rio Parana,65017006
4B70F0DF93F11D11A4402537F7F0EF92768BD775,4B70F0DF93F11D11A4402537F7F0EF92768BD775,D2DB8BC2930F82D1E5EFA6B529F0262EB0FFE994,,millimetre,WHOS,-22.6625,-43.9567,,Brazil,ANA,,58350001
69863FC7F6EA91F2AC135199952396A98B01EF36,69863FC7F6EA91F2AC135199952396A98B01EF36,D2DB8BC2930F82D1E5EFA6B529F0262EB0FFE994,,millimetre,WHOS,-28.5794,-52.92,,Brazil,ANA,,85500100
8909CB3655F2576C8615904385D4E70D0A49B374,8909CB3655F2576C8615904385D4E70D0A49B374,D2DB8BC2930F82D1E5EFA6B529F0262EB0FFE994,,millimetre,WHOS,-20.0486,-53.2972,,Brazil,ANA,Rio Parana,63257000
D3391F40102A94CB70EA2C3673DF4EB2E6014F89,D3391F40102A94CB70EA2C3673DF4EB2E6014F89,D2DB8BC2930F82D1E5EFA6B529F0262EB0FFE994,,millimetre,WHOS,-22.2758,-46.7453,,Brazil,ANA,Rio Parana,61872200
1F43B304A5B361A4AD581B74BCA0C42CEA853410,1F43B304A5B361A4AD581B74BCA0C42CEA853410,D2DB8BC2930F82D1E5EFA6B529F0262EB0FFE994,,millimetre,WHOS,-17.3156,-43.2125,,Brazil,ANA,,54010020
0120CB3C2D16CF165B92A9992928B38148F6CA9F,0120CB3C2D16CF165B92A9992928B38148F6CA9F,D2DB8BC2930F82D1E5EFA6B529F0262EB0FFE994,,millimetre,WHOS,-26.1097,-49.8011,,Brazil,ANA,Rio Parana,65100001
593219C857AAAE89C32C92312381CCFDF6B11A68,593219C857AAAE89C32C92312381CCFDF6B11A68,D2DB8BC2930F82D1E5EFA6B529F0262EB0FFE994,,millimetre,WHOS,-28.9722,-51.7558,,Brazil,ANA,,86507000
DA592A17F0D085CC4AEB61B4FE1EF337AE5CCD10,DA592A17F0D085CC4AEB61B4FE1EF337AE5CCD10,D2DB8BC2930F82D1E5EFA6B529F0262EB0FFE994,,millimetre,WHOS,-28.1778,-54.8144,,Brazil,ANA,Rio Uruguay,75325000
B395C7EA3F048F643031601696B82D44DF0A8C21,B395C7EA3F048F643031601696B82D44DF0A8C21,D2DB8BC2930F82D1E5EFA6B529F0262EB0FFE994,,millimetre,WHOS,-26.0931,-51.8797,,Brazil,ANA,Rio Parana,65775901
B7E635DF8AA99D7F08BE24EFBB276A054CF7AA31,B7E635DF8AA99D7F08BE24EFBB276A054CF7AA31,D2DB8BC2930F82D1E5EFA6B529F0262EB0FFE994,,millimetre,WHOS,-20.5072,-44.5422,,Brazil,ANA,,40127000
E8891A53D4257EE31FE02D29A49B6FFD910F362F,E8891A53D4257EE31FE02D29A49B6FFD910F362F,D2DB8BC2930F82D1E5EFA6B529F0262EB0FFE994,,millimetre,WHOS,-23.0858,-50.2853,,Brazil,ANA,Rio Parana,64370000
3784953BA0518AB025C2E329923B1FF7ED197C12,3784953BA0518AB025C2E329923B1FF7ED197C12,D2DB8BC2930F82D1E5EFA6B529F0262EB0FFE994,,millimetre,WHOS,-21.7211,-49.5606,,Brazil,ANA,Rio Parana,62817900
1EE3B7E217C074BDF383F10785F3B143FEC6E292,1EE3B7E217C074BDF383F10785F3B143FEC6E292,D2DB8BC2930F82D1E5EFA6B529F0262EB0FFE994,,millimetre,WHOS,-19.6089,-47.4556,,Brazil,ANA,Rio Parana,60229470
9E824264AA809068A46BEA39CCF4B8B2841C8653,9E824264AA809068A46BEA39CCF4B8B2841C8653,D2DB8BC2930F82D1E5EFA6B529F0262EB0FFE994,,millimetre,WHOS,-14.3272,-56.7494,,Brazil,ANA,Rio Paraguay,66005600
B2D34D74C8B7A295C7406CFC89B83DF1CA548B29,B2D34D74C8B7A295C7406CFC89B83DF1CA548B29,D2DB8BC2930F82D1E5EFA6B529F0262EB0FFE994,,millimetre,WHOS,-23.7031,-46.6739,,Brazil,ANA,Rio Parana,62285002
B68A766CAA5E240CBCC9A90038EF3DFB9269FF05,B68A766CAA5E240CBCC9A90038EF3DFB9269FF05,D2DB8BC2930F82D1E5EFA6B529F0262EB0FFE994,,millimetre,WHOS,-19.1792,-43.6889,,Brazil,ANA,,41714500
9AFD4262C554F3A04144A02333B6F9EDAE9D045F,9AFD4262C554F3A04144A02333B6F9EDAE9D045F,D2DB8BC2930F82D1E5EFA6B529F0262EB0FFE994,,millimetre,WHOS,-19.6656,-43.6925,,Brazil,ANA,,41315000
46CB3FACE77394C078B949C0AA657D2B5FC32DC9,46CB3FACE77394C078B949C0AA657D2B5FC32DC9,D2DB8BC2930F82D1E5EFA6B529F0262EB0FFE994,,millimetre,WHOS,-18.6381,-43.9647,,Brazil,ANA,,41719080
ABC6820F1FD8D6A84344C355D804FE94F6F45975,ABC6820F1FD8D6A84344C355D804FE94F6F45975,D2DB8BC2930F82D1E5EFA6B529F0262EB0FFE994,,millimetre,WHOS,-21.9244,-43.3492,,Brazil,ANA,,58519030
2F81C104CB6BEAE4A9900D71576F9A90266A38B3,2F81C104CB6BEAE4A9900D71576F9A90266A38B3,D2DB8BC2930F82D1E5EFA6B529F0262EB0FFE994,,millimetre,WHOS,-22.27,-46.6042,,Brazil,ANA,Rio Parana,61865500
29C8A66A6F94529BA3234F83743E484A4730ECD6,29C8A66A6F94529BA3234F83743E484A4730ECD6,D2DB8BC2930F82D1E5EFA6B529F0262EB0FFE994,,millimetre,WHOS,-28.8086,-51.4467,,Brazil,ANA,,86410050
18B08290D8E688F5A5FFC1C80D619A332D48C717,18B08290D8E688F5A5FFC1C80D619A332D48C717,D2DB8BC2930F82D1E5EFA6B529F0262EB0FFE994,,millimetre,WHOS,-27.6433,-51.4889,,Brazil,ANA,Rio Uruguay,72080000
AE8D30DA275C22A44D989D7C061F30CDD5145FDA,AE8D30DA275C22A44D989D7C061F30CDD5145FDA,D2DB8BC2930F82D1E5EFA6B529F0262EB0FFE994,,millimetre,WHOS,-16.3056,-52.7097,,Brazil,ANA,,24180050
2BA3E2B486D939617DF46FC817B1AFEEC32897A9,2BA3E2B486D939617DF46FC817B1AFEEC32897A9,D2DB8BC2930F82D1E5EFA6B529F0262EB0FFE994,,millimetre,WHOS,-14.7606,-58.0242,,Brazil,ANA,Rio Paraguay,66052500
F7DC484ACB855E40A2C84567F19FB283995C2343,F7DC484ACB855E40A2C84567F19FB283995C2343,D2DB8BC2930F82D1E5EFA6B529F0262EB0FFE994,,millimetre,WHOS,-23.0039,-46.7653,,Brazil,ANA,Rio Parana,62674000
069B5812822A731F4518895A7B1DFAE9A59F604E,069B5812822A731F4518895A7B1DFAE9A59F604E,D2DB8BC2930F82D1E5EFA6B529F0262EB0FFE994,,millimetre,WHOS,-24.2236,-49.6886,,Brazil,ANA,Rio Parana,64241200
289B2F37305B81CDB346D20396918EBDC61D36D8,289B2F37305B81CDB346D20396918EBDC61D36D8,D2DB8BC2930F82D1E5EFA6B529F0262EB0FFE994,,millimetre,WHOS,-21.5067,-43.3669,,Brazil,ANA,,58746000
012612B6B1E20C89E89B4D832B9967A69E89F443,012612B6B1E20C89E89B4D832B9967A69E89F443,D2DB8BC2930F82D1E5EFA6B529F0262EB0FFE994,,millimetre,WHOS,-28.47,-48.9917,,Brazil,ANA,,84580500
5A781F5DF1FD1861E25B71A744BDECC4BC1CF8F0,5A781F5DF1FD1861E25B71A744BDECC4BC1CF8F0,D2DB8BC2930F82D1E5EFA6B529F0262EB0FFE994,,millimetre,WHOS,-21.1156,-50.2025,,Brazil,ANA,Rio Parana,62829580
3397BBF076AB6BE5A414AAF273ACA2A3564C3D10,3397BBF076AB6BE5A414AAF273ACA2A3564C3D10,D2DB8BC2930F82D1E5EFA6B529F0262EB0FFE994,,millimetre,WHOS,-25.9736,-52.1683,,Brazil,ANA,Rio Parana,65141000
316DCBCFE6239347505CED97B0EDC87C14B0E7B8,316DCBCFE6239347505CED97B0EDC87C14B0E7B8,D2DB8BC2930F82D1E5EFA6B529F0262EB0FFE994,,millimetre,WHOS,-27.0133,-53.2953,,Brazil,ANA,Rio Uruguay,74295000
3ECB35F1AD946F74A331BC2F38ED0FD07345E33B,3ECB35F1AD946F74A331BC2F38ED0FD07345E33B,D2DB8BC2930F82D1E5EFA6B529F0262EB0FFE994,,millimetre,WHOS,-27.5589,-53.5764,,Brazil,ANA,Rio Uruguay,74351000
4366FBD037DA41701222B8186D70978645EE0E16,4366FBD037DA41701222B8186D70978645EE0E16,D2DB8BC2930F82D1E5EFA6B529F0262EB0FFE994,,millimetre,WHOS,-14.3272,-46.2311,,Brazil,ANA,,21289000
7894647EAD70DEB9A10C1E11322E369DDFE85EBD,7894647EAD70DEB9A10C1E11322E369DDFE85EBD,D2DB8BC2930F82D1E5EFA6B529F0262EB0FFE994,,millimetre,WHOS,-26.1239,-51.8739,,Brazil,ANA,Rio Parana,65775800
080A04A37312369F4726AECA7E5200662AFB7EE9,080A04A37312369F4726AECA7E5200662AFB7EE9,D2DB8BC2930F82D1E5EFA6B529F0262EB0FFE994,,millimetre,WHOS,-21.4914,-43.4719,,Brazil,ANA,,58753140
76442EEB7E9423758B4DFCB0BD1A599F86EC97F0,76442EEB7E9423758B4DFCB0BD1A599F86EC97F0,D2DB8BC2930F82D1E5EFA6B529F0262EB0FFE994,,millimetre,WHOS,-22.4819,-43.8386,,Brazil,ANA,,58318000
46EAF84D1B167005D6BC252E0AD8AEE309D27423,46EAF84D1B167005D6BC252E0AD8AEE309D27423,D2DB8BC2930F82D1E5EFA6B529F0262EB0FFE994,,millimetre,WHOS,-28.1397,-54.5603,,Brazil,ANA,Rio Uruguay,74360010
6C1D4EF3D9B912602CB8D031B11AE65209A1F599,6C1D4EF3D9B912602CB8D031B11AE65209A1F599,D2DB8BC2930F82D1E5EFA6B529F0262EB0FFE994,,millimetre,WHOS,-30.2428,-54.9169,,Brazil,ANA,Rio Uruguay,76310000
5D4B8FF97DE27B62F56939F107387BE6DD0F3F9E,5D4B8FF97DE27B62F56939F107387BE6DD0F3F9E,D2DB8BC2930F82D1E5EFA6B529F0262EB0FFE994,,millimetre,WHOS,-28.5383,-53.8633,,Brazil,ANA,Rio Uruguay,75188000
778FA69E6E84459F91219A3BAC62D25E23178801,778FA69E6E84459F91219A3BAC62D25E23178801,D2DB8BC2930F82D1E5EFA6B529F0262EB0FFE994,,millimetre,WHOS,-20.2242,-43.8039,,Brazil,ANA,,41180500
2AF1ADE2568DDC79365D5779CB67DD6ED0BA2282,2AF1ADE2568DDC79365D5779CB67DD6ED0BA2282,D2DB8BC2930F82D1E5EFA6B529F0262EB0FFE994,,millimetre,WHOS,-19.2814,-45.2753,,Brazil,ANA,,40100000
08C763965BC0FC90CCF5643A5E59F7F9A785E2F6,08C763965BC0FC90CCF5643A5E59F7F9A785E2F6,D2DB8BC2930F82D1E5EFA6B529F0262EB0FFE994,,millimetre,WHOS,-20.8411,-47.2942,,Brazil,ANA,Rio Parana,61774600
D0D5C26221A7FBC253D0ABAA2B02D6D06D76D9CC,D0D5C26221A7FBC253D0ABAA2B02D6D06D76D9CC,D2DB8BC2930F82D1E5EFA6B529F0262EB0FFE994,,millimetre,WHOS,-20.8533,-47.2669,,Brazil,ANA,Rio Parana,61774200
56522E3913E257CCEC8F70B1CBD707C8B667D3E7,56522E3913E257CCEC8F70B1CBD707C8B667D3E7,D2DB8BC2930F82D1E5EFA6B529F0262EB0FFE994,,millimetre,WHOS,-20.0611,-44.6069,,Brazil,ANA,,40291000
AC5B2C9C358F4D9ADDE221FF64A7B372528CD2C8,AC5B2C9C358F4D9ADDE221FF64A7B372528CD2C8,D2DB8BC2930F82D1E5EFA6B529F0262EB0FFE994,,millimetre,WHOS,-20.2139,-43.7317,,Brazil,ANA,,41140080
63C1E335AA506DE143D7E33DF3C05EA27DF32226,63C1E335AA506DE143D7E33DF3C05EA27DF32226,D2DB8BC2930F82D1E5EFA6B529F0262EB0FFE994,,millimetre,WHOS,-28.6728,-52.7311,,Brazil,ANA,,85076000
19BFB47C5E876E6AE2D10254E7A90615C9154772,19BFB47C5E876E6AE2D10254E7A90615C9154772,D2DB8BC2930F82D1E5EFA6B529F0262EB0FFE994,,millimetre,WHOS,-23.21,-49.2292,,Brazil,ANA,Rio Parana,64215080
9570BA84E69B052D7906DFD57006A151719408BE,9570BA84E69B052D7906DFD57006A151719408BE,D2DB8BC2930F82D1E5EFA6B529F0262EB0FFE994,,millimetre,WHOS,-23.1792,-49.3922,,Brazil,ANA,Rio Parana,64220050
44780CB21DAE6292D18DD64371E54E045D728D40,44780CB21DAE6292D18DD64371E54E045D728D40,D2DB8BC2930F82D1E5EFA6B529F0262EB0FFE994,,millimetre,WHOS,-29.7486,-57.0886,,Brazil,ANA,Rio Uruguay,77150000
9488104EC63C07B58F8D7421B76EC492E978A983,9488104EC63C07B58F8D7421B76EC492E978A983,D2DB8BC2930F82D1E5EFA6B529F0262EB0FFE994,,millimetre,WHOS,-32.5194,-53.4558,,Brazil,ANA,,88260000
712B43DB6D63DC775D94BF62E0C59ED10C42DF1B,712B43DB6D63DC775D94BF62E0C59ED10C42DF1B,D2DB8BC2930F82D1E5EFA6B529F0262EB0FFE994,,millimetre,WHOS,-29.0658,-51.6744,,Brazil,ANA,,86470800
17454CA5D64406DED803A9DBF66BF00E9435C687,17454CA5D64406DED803A9DBF66BF00E9435C687,D2DB8BC2930F82D1E5EFA6B529F0262EB0FFE994,,millimetre,WHOS,-23.4211,-45.2889,,Brazil,ANA,,58068000
EA37AC4CA73BA6DFCA6263D04AADF03763E8B491,EA37AC4CA73BA6DFCA6263D04AADF03763E8B491,D2DB8BC2930F82D1E5EFA6B529F0262EB0FFE994,,millimetre,WHOS,-18.6597,-43.8244,,Brazil,ANA,,41718000
553DF235DC14874C0BE0EFF2906CA5922028355F,553DF235DC14874C0BE0EFF2906CA5922028355F,D2DB8BC2930F82D1E5EFA6B529F0262EB0FFE994,,millimetre,WHOS,-19.1075,-51.7208,,Brazil,ANA,Rio Parana,60968000
1C8C0AC201C9D6EBAB9259AC87BFF04CC9AC2905,1C8C0AC201C9D6EBAB9259AC87BFF04CC9AC2905,D2DB8BC2930F82D1E5EFA6B529F0262EB0FFE994,,millimetre,WHOS,-24.1822,-49.4908,,Brazil,ANA,Rio Parana,64230300
636FB804B7BE315A52AF1AF4AB7B34E6AF52D39D,636FB804B7BE315A52AF1AF4AB7B34E6AF52D39D,D2DB8BC2930F82D1E5EFA6B529F0262EB0FFE994,,millimetre,WHOS,-22.7086,-46.9869,,Brazil,ANA,Rio Parana,62615000
89D6BA536A22E1B29AEDC64EC69517CC10555900,89D6BA536A22E1B29AEDC64EC69517CC10555900,D2DB8BC2930F82D1E5EFA6B529F0262EB0FFE994,,millimetre,WHOS,-18.1869,-45.2528,,Brazil,ANA,,41020002
79DED0D8049FC424E12381C61DB4F37744654D92,79DED0D8049FC424E12381C61DB4F37744654D92,D2DB8BC2930F82D1E5EFA6B529F0262EB0FFE994,,millimetre,WHOS,-21.0033,-52.1678,,Brazil,ANA,Rio Parana,63400000
E4AC41D89EDB72336F76B38A9697FB0E4D32A53D,E4AC41D89EDB72336F76B38A9697FB0E4D32A53D,D2DB8BC2930F82D1E5EFA6B529F0262EB0FFE994,,millimetre,WHOS,-27.7044,-48.8033,,Brazil,ANA,,84100000
86D7241885D71543A843A2F4037B7586504EE9A1,86D7241885D71543A843A2F4037B7586504EE9A1,D2DB8BC2930F82D1E5EFA6B529F0262EB0FFE994,,millimetre,WHOS,-27.5036,-49.5533,,Brazil,ANA,,83145100
51805C5F73F3A5BE024139E59F6F9BD34231E32A,51805C5F73F3A5BE024139E59F6F9BD34231E32A,D2DB8BC2930F82D1E5EFA6B529F0262EB0FFE994,,millimetre,WHOS,-23.0714,-49.8464,,Brazil,ANA,Rio Parana,64278500
68A0D4EEFE482D11B42597A7403094E3F6362254,68A0D4EEFE482D11B42597A7403094E3F6362254,D2DB8BC2930F82D1E5EFA6B529F0262EB0FFE994,,millimetre,WHOS,-22.5194,-48.5344,,Brazil,ANA,Rio Parana,62729080
49BA70D3C45D773F7732D3A832DB0AC34782D5F1,49BA70D3C45D773F7732D3A832DB0AC34782D5F1,D2DB8BC2930F82D1E5EFA6B529F0262EB0FFE994,,millimetre,WHOS,-20.6864,-43.3103,,Brazil,ANA,,56092000
B975A62F262CF8A44C51438C12559AC536B6D287,B975A62F262CF8A44C51438C12559AC536B6D287,D2DB8BC2930F82D1E5EFA6B529F0262EB0FFE994,,millimetre,WHOS,-22.2592,-46.675,,Brazil,ANA,Rio Parana,61873600
55B056988F8E65310EC4AA41C451C19A473A73F9,55B056988F8E65310EC4AA41C451C19A473A73F9,D2DB8BC2930F82D1E5EFA6B529F0262EB0FFE994,,millimetre,WHOS,-29.7589,-51.1483,,Brazil,ANA,,87382000
9686E0D4FFBCB3A4640CE0F16585E4C982BD49A6,9686E0D4FFBCB3A4640CE0F16585E4C982BD49A6,D2DB8BC2930F82D1E5EFA6B529F0262EB0FFE994,,millimetre,WHOS,-26.6144,-50.6761,,Brazil,ANA,Rio Parana,65258000
B866FB57D9020D0FD43418E1960AD1474A533D7D,B866FB57D9020D0FD43418E1960AD1474A533D7D,D2DB8BC2930F82D1E5EFA6B529F0262EB0FFE994,,millimetre,WHOS,-25.4294,-48.9472,,Brazil,ANA,,82188000
13F2B3AB37109F116260AEAD4ADB5C497AAB92ED,13F2B3AB37109F116260AEAD4ADB5C497AAB92ED,D2DB8BC2930F82D1E5EFA6B529F0262EB0FFE994,,millimetre,WHOS,-20.205,-52.0878,,Brazil,ANA,Rio Parana,63003200
126D020588C122B893BE6F4A794B4D41F7E9BF9E,126D020588C122B893BE6F4A794B4D41F7E9BF9E,D2DB8BC2930F82D1E5EFA6B529F0262EB0FFE994,,millimetre,WHOS,-19.9922,-47.7583,,Brazil,ANA,Rio Parana,61740080
8D2491F425828D38CAB217B4A525370BB474D897,8D2491F425828D38CAB217B4A525370BB474D897,D2DB8BC2930F82D1E5EFA6B529F0262EB0FFE994,,millimetre,WHOS,-16.5114,-47.4528,,Brazil,ANA,Rio Parana,60018500
CB3F0F9191D66CBFBB7E6A828EB469E59BD8E9E6,CB3F0F9191D66CBFBB7E6A828EB469E59BD8E9E6,D2DB8BC2930F82D1E5EFA6B529F0262EB0FFE994,,millimetre,WHOS,-22.6967,-47.2878,,Brazil,ANA,Rio Parana,62693000
D676634DDDC6A96997B39938DECD7349FA4D772A,D676634DDDC6A96997B39938DECD7349FA4D772A,D2DB8BC2930F82D1E5EFA6B529F0262EB0FFE994,,millimetre,WHOS,-22.0914,-43.1453,,Brazil,ANA,,58612000
AB92C2E8285D8BB5DA49E3DEC8BA8C30EC0922AA,AB92C2E8285D8BB5DA49E3DEC8BA8C30EC0922AA,D2DB8BC2930F82D1E5EFA6B529F0262EB0FFE994,,millimetre,WHOS,-24.8003,-48.1736,,Brazil,ANA,,81699000
41D8A28911CB645F9779CD5CBE12040A0759A514,41D8A28911CB645F9779CD5CBE12040A0759A514,D2DB8BC2930F82D1E5EFA6B529F0262EB0FFE994,,millimetre,WHOS,-21.575,-46.6236,,Brazil,ANA,Rio Parana,61811080
8C013C95873A5347BE51BD5F0664DAFB3144C0EE,8C013C95873A5347BE51BD5F0664DAFB3144C0EE,D2DB8BC2930F82D1E5EFA6B529F0262EB0FFE994,,millimetre,WHOS,-22.5314,-43.8186,,Brazil,ANA,,58358000
946C3DB8A7F87B517031FEAD3168D0D45CD68F59,946C3DB8A7F87B517031FEAD3168D0D45CD68F59,D2DB8BC2930F82D1E5EFA6B529F0262EB0FFE994,,millimetre,WHOS,-25.9797,-52.1614,,Brazil,ANA,Rio Parana,65831900
6B1E3FF1CE4E00CC417C58963DB4BDECD7E990A0,6B1E3FF1CE4E00CC417C58963DB4BDECD7E990A0,D2DB8BC2930F82D1E5EFA6B529F0262EB0FFE994,,millimetre,WHOS,-27.4886,-49.0019,,Brazil,ANA,,84018000
BC7C3BEFBCD9B3D9E24F5EC63EB571F8D6008C81,BC7C3BEFBCD9B3D9E24F5EC63EB571F8D6008C81,D2DB8BC2930F82D1E5EFA6B529F0262EB0FFE994,,millimetre,WHOS,-20.1247,-43.865,,Brazil,ANA,,41193000
0C6D706A828767590648F6AA95CA6F20B4914CA4,0C6D706A828767590648F6AA95CA6F20B4914CA4,D2DB8BC2930F82D1E5EFA6B529F0262EB0FFE994,,millimetre,WHOS,-14.8142,-56.8381,,Brazil,ANA,Rio Paraguay,66007000
3B93872364B832074540F17E1A42551EC3F90E92,3B93872364B832074540F17E1A42551EC3F90E92,D2DB8BC2930F82D1E5EFA6B529F0262EB0FFE994,,millimetre,WHOS,-22.8119,-45.1825,,Brazil,ANA,,58204000
39B36CDDBFBC22C35FF1289FE507EE3F6A70C280,39B36CDDBFBC22C35FF1289FE507EE3F6A70C280,D2DB8BC2930F82D1E5EFA6B529F0262EB0FFE994,,millimetre,WHOS,-17.0953,-54.9361,,Brazil,ANA,Rio Paraguay,66525100
C9A7A9B168A9D96F6C0B3B7658BF54979CCC6DD6,C9A7A9B168A9D96F6C0B3B7658BF54979CCC6DD6,D2DB8BC2930F82D1E5EFA6B529F0262EB0FFE994,,millimetre,WHOS,-15.7381,-51.8281,,Brazil,ANA,,24850000
7F2533EF397303FE6E90212082C7ABE0A79C6A7A,7F2533EF397303FE6E90212082C7ABE0A79C6A7A,D2DB8BC2930F82D1E5EFA6B529F0262EB0FFE994,,millimetre,WHOS,-21.0856,-47.1494,,Brazil,ANA,Rio Parana,61772000
837022F53D301C64813B5ACC0D306E7164392CAA,837022F53D301C64813B5ACC0D306E7164392CAA,D2DB8BC2930F82D1E5EFA6B529F0262EB0FFE994,,millimetre,WHOS,-25.2667,-54.4333,,Brazil,ANA,Rio Parana,64899500
901008C03E1C33084DF85358EE5D2EE59815B566,901008C03E1C33084DF85358EE5D2EE59815B566,D2DB8BC2930F82D1E5EFA6B529F0262EB0FFE994,,millimetre,WHOS,-22.1197,-43.2075,,Brazil,ANA,,58385000
1441DBE9CE58F31E03B9D44F9D2601D484084799,1441DBE9CE58F31E03B9D44F9D2601D484084799,D2DB8BC2930F82D1E5EFA6B529F0262EB0FFE994,,millimetre,WHOS,-20.8242,-45.0639,,Brazil,ANA,Rio Parana,61198100
FBCC9287B4D9042A2600F1A47C993D1A61B41C8B,FBCC9287B4D9042A2600F1A47C993D1A61B41C8B,D2DB8BC2930F82D1E5EFA6B529F0262EB0FFE994,,millimetre,WHOS,-30.9083,-53.8206,,Brazil,ANA,,87550050
FE4A922D297FA48EA9A813E76D1BDBD1455FB021,FE4A922D297FA48EA9A813E76D1BDBD1455FB021,D2DB8BC2930F82D1E5EFA6B529F0262EB0FFE994,,millimetre,WHOS,-19.3044,-46.8339,,Brazil,ANA,Rio Parana,60280000
E203EFC3A6EB9960E8D55557CE869A667364EDC4,E203EFC3A6EB9960E8D55557CE869A667364EDC4,D2DB8BC2930F82D1E5EFA6B529F0262EB0FFE994,,millimetre,WHOS,-21.9794,-44.6022,,Brazil,ANA,Rio Parana,61024001
70833C02EE22CD9F98A2F73FFC34A4B84D1F3E9E,70833C02EE22CD9F98A2F73FFC34A4B84D1F3E9E,D2DB8BC2930F82D1E5EFA6B529F0262EB0FFE994,,millimetre,WHOS,-24.9467,-52.5964,,Brazil,ANA,Rio Parana,64767000
5AE203CBA523FDFB583A2657DFF117FD5911CCC8,5AE203CBA523FDFB583A2657DFF117FD5911CCC8,D2DB8BC2930F82D1E5EFA6B529F0262EB0FFE994,,millimetre,WHOS,-24.0717,-49.6222,,Brazil,ANA,Rio Parana,64241520
D4E4FA0E258AA99374BDE9089B2EF60BAF543EAD,D4E4FA0E258AA99374BDE9089B2EF60BAF543EAD,D2DB8BC2930F82D1E5EFA6B529F0262EB0FFE994,,millimetre,WHOS,-19.4375,-52.4639,,Brazil,ANA,Rio Parana,63001680
FFB53E072FE851AD8F564E4A11B75686629533C8,FFB53E072FE851AD8F564E4A11B75686629533C8,D2DB8BC2930F82D1E5EFA6B529F0262EB0FFE994,,millimetre,WHOS,-16.2189,-54.9431,,Brazil,ANA,Rio Paraguay,66400390
86A783BB73FD134A8C4763C204C2A659C48A5524,86A783BB73FD134A8C4763C204C2A659C48A5524,D2DB8BC2930F82D1E5EFA6B529F0262EB0FFE994,,millimetre,WHOS,-26.7528,-52.3842,,Brazil,ANA,Rio Uruguay,73693800
AA27FADB903319307B1C7033AC2D556F6EF80978,AA27FADB903319307B1C7033AC2D556F6EF80978,D2DB8BC2930F82D1E5EFA6B529F0262EB0FFE994,,millimetre,WHOS,-16.7483,-54.7217,,Brazil,ANA,Rio Paraguay,66452500
221E6D9E524B10E4D5B4945F0A6A22D145F8D527,221E6D9E524B10E4D5B4945F0A6A22D145F8D527,D2DB8BC2930F82D1E5EFA6B529F0262EB0FFE994,,millimetre,WHOS,-17.9136,-44.5694,,Brazil,ANA,,41955000
5053F00AA85EB66F8C585A094BCF73C7C9AD95A0,5053F00AA85EB66F8C585A094BCF73C7C9AD95A0,D2DB8BC2930F82D1E5EFA6B529F0262EB0FFE994,,millimetre,WHOS,-15.6175,-56.0511,,Brazil,ANA,Rio Paraguay,66259650
84F7E9BE905711FA1B4244EA0485577031F626C5,84F7E9BE905711FA1B4244EA0485577031F626C5,D2DB8BC2930F82D1E5EFA6B529F0262EB0FFE994,,millimetre,WHOS,-19.9714,-43.4561,,Brazil,ANA,,56640001
FDF99D650CB9B8B8AC83842F879A2F7A6A010B7B,FDF99D650CB9B8B8AC83842F879A2F7A6A010B7B,D2DB8BC2930F82D1E5EFA6B529F0262EB0FFE994,,millimetre,WHOS,-23.1239,-51.5917,,Brazil,ANA,Rio Parana,64545840
7D72344F8B16A700C3E42C95F789D317BC7D2161,7D72344F8B16A700C3E42C95F789D317BC7D2161,D2DB8BC2930F82D1E5EFA6B529F0262EB0FFE994,,millimetre,WHOS,-29.075,-51.5239,,Brazil,ANA,,86450000
A90330CDACACE0D255891ADD50D4C66B7B146FB3,A90330CDACACE0D255891ADD50D4C66B7B146FB3,D2DB8BC2930F82D1E5EFA6B529F0262EB0FFE994,,millimetre,WHOS,-27.4161,-52.2361,,Brazil,ANA,Rio Uruguay,73100300
6D607C0EE6ABD5EBB5C485929AF8235B3913083C,6D607C0EE6ABD5EBB5C485929AF8235B3913083C,D2DB8BC2930F82D1E5EFA6B529F0262EB0FFE994,,millimetre,WHOS,-17.7497,-44.5,,Brazil,ANA,,41972000
118F01D75FCC8C854DEBAE0CB4BF4D46E511C8F0,118F01D75FCC8C854DEBAE0CB4BF4D46E511C8F0,D2DB8BC2930F82D1E5EFA6B529F0262EB0FFE994,,millimetre,WHOS,-29.2933,-49.8231,,Brazil,ANA,,84420000
AFC01A760F6D8419BF71014291765A43330B8D89,AFC01A760F6D8419BF71014291765A43330B8D89,D2DB8BC2930F82D1E5EFA6B529F0262EB0FFE994,,millimetre,WHOS,-21.8083,-49.1936,,Brazil,ANA,Rio Parana,62815200
75DD1B35B630387F51E940401363BE79D79E0601,75DD1B35B630387F51E940401363BE79D79E0601,D2DB8BC2930F82D1E5EFA6B529F0262EB0FFE994,,millimetre,WHOS,-30.2808,-54.9031,,Brazil,ANA,Rio Uruguay,76300000
12AEA04EEA3600DBF7B57752645FCF8D83BD1DC1,12AEA04EEA3600DBF7B57752645FCF8D83BD1DC1,D2DB8BC2930F82D1E5EFA6B529F0262EB0FFE994,,millimetre,WHOS,-23.1225,-50.4503,,Brazil,ANA,Rio Parana,64390000
BEB17D72BD9473E25D39D00264C6CB0DE6B7BA80,BEB17D72BD9473E25D39D00264C6CB0DE6B7BA80,D2DB8BC2930F82D1E5EFA6B529F0262EB0FFE994,,millimetre,WHOS,-25.915,-52.8494,,Brazil,ANA,Rio Parana,65955000
000BE3CB65DF1F7D571EF045272E048FCD0072BD,000BE3CB65DF1F7D571EF045272E048FCD0072BD,D2DB8BC2930F82D1E5EFA6B529F0262EB0FFE994,,millimetre,WHOS,-27.5781,-54.6831,,Brazil,ANA,Rio Uruguay,74720000
337F86C5050AD3A53D5C1CA5B3F9FB904BF2BD8B,337F86C5050AD3A53D5C1CA5B3F9FB904BF2BD8B,D2DB8BC2930F82D1E5EFA6B529F0262EB0FFE994,,millimetre,WHOS,-15.9981,-54.9217,,Brazil,ANA,Rio Paraguay,66380100
03970510361BE1337F64038077563811F87A64BD,03970510361BE1337F64038077563811F87A64BD,D2DB8BC2930F82D1E5EFA6B529F0262EB0FFE994,,millimetre,WHOS,-29.0844,-52.2064,,Brazil,ANA,,86744000
7FAA6B854175C383D6DF2DEA26F9CFE354891B23,7FAA6B854175C383D6DF2DEA26F9CFE354891B23,D2DB8BC2930F82D1E5EFA6B529F0262EB0FFE994,,millimetre,WHOS,-27.0969,-49.4658,,Brazil,ANA,,83461000
68BD45FA0332243698D1B5A24AD692DC74CD1D6E,68BD45FA0332243698D1B5A24AD692DC74CD1D6E,D2DB8BC2930F82D1E5EFA6B529F0262EB0FFE994,,millimetre,WHOS,-28.7425,-55.1625,,Brazil,ANA,Rio Uruguay,75650010
9D32520DE08C8A1BBFF300EA9E25D3A6D27B79ED,9D32520DE08C8A1BBFF300EA9E25D3A6D27B79ED,D2DB8BC2930F82D1E5EFA6B529F0262EB0FFE994,,millimetre,WHOS,-16.0761,-57.7022,,Brazil,ANA,Rio Paraguay,66070004
5E764488DA0A0D6A1EA38CEEE6528C63CC8DF81E,5E764488DA0A0D6A1EA38CEEE6528C63CC8DF81E,D2DB8BC2930F82D1E5EFA6B529F0262EB0FFE994,,millimetre,WHOS,-26.4472,-50.9861,,Brazil,ANA,Rio Parana,65293000
41B2FC0034F1193C42DAD757DD3DDD53D5AEEA4F,41B2FC0034F1193C42DAD757DD3DDD53D5AEEA4F,D2DB8BC2930F82D1E5EFA6B529F0262EB0FFE994,,millimetre,WHOS,-20.7694,-47.4667,,Brazil,ANA,Rio Parana,61776900
FC8AA649025AFD382854CFB8C8123BE659E4D808,FC8AA649025AFD382854CFB8C8123BE659E4D808,D2DB8BC2930F82D1E5EFA6B529F0262EB0FFE994,,millimetre,WHOS,-27.2456,-52.7944,,Brazil,ANA,Rio Uruguay,73528000
FC7F245687D31922FA1A45C1A7ECC82CEF4F574E,FC7F245687D31922FA1A45C1A7ECC82CEF4F574E,D2DB8BC2930F82D1E5EFA6B529F0262EB0FFE994,,millimetre,WHOS,-18.6772,-48.5114,,Brazil,ANA,Rio Parana,60391200
F0BD30CCD1D7B351C02AD99BABD707B1BE693EA1,F0BD30CCD1D7B351C02AD99BABD707B1BE693EA1,D2DB8BC2930F82D1E5EFA6B529F0262EB0FFE994,,millimetre,WHOS,-24.1906,-53.7436,,Brazil,ANA,Rio Parana,64831000
E1C04A7B996AF9EA9241AF700FCF0523D7728B69,E1C04A7B996AF9EA9241AF700FCF0523D7728B69,D2DB8BC2930F82D1E5EFA6B529F0262EB0FFE994,,millimetre,WHOS,-17.6075,-54.8272,,Brazil,ANA,Rio Paraguay,66489000
77BFF1F2E068AD6944EBC19815F64FFB842216A0,77BFF1F2E068AD6944EBC19815F64FFB842216A0,D2DB8BC2930F82D1E5EFA6B529F0262EB0FFE994,,millimetre,WHOS,-24.2133,-48.7061,,Brazil,ANA,Rio Parana,64098000
6E8DE0A6E59568AD3672EC033F07C9A1BA374D85,6E8DE0A6E59568AD3672EC033F07C9A1BA374D85,D2DB8BC2930F82D1E5EFA6B529F0262EB0FFE994,,millimetre,WHOS,-23.5747,-47.4389,,Brazil,ANA,Rio Parana,62512080
004CC06CDC3091C5D8C56777E6D6510DA7410877,004CC06CDC3091C5D8C56777E6D6510DA7410877,D2DB8BC2930F82D1E5EFA6B529F0262EB0FFE994,,millimetre,WHOS,-28.4206,-49.1064,,Brazil,ANA,,84580000
844E12F87112C59D44DEFB189F8B02AEB32A78F8,844E12F87112C59D44DEFB189F8B02AEB32A78F8,D2DB8BC2930F82D1E5EFA6B529F0262EB0FFE994,,millimetre,WHOS,-15.8458,-47.3853,,Brazil,ANA,,42450510
988DE6C1F01489152BD816E20C405553A0203267,988DE6C1F01489152BD816E20C405553A0203267,D2DB8BC2930F82D1E5EFA6B529F0262EB0FFE994,,millimetre,WHOS,-30.7956,-52.6242,,Brazil,ANA,,87795000
2586A32631DD92719C85A9663CCA0938B5637B5D,2586A32631DD92719C85A9663CCA0938B5637B5D,D2DB8BC2930F82D1E5EFA6B529F0262EB0FFE994,,millimetre,WHOS,-29.5906,-51.3136,,Brazil,ANA,,87230000
72673703D4B076E41DFB0C1B98D23101AA2C7D8C,72673703D4B076E41DFB0C1B98D23101AA2C7D8C,D2DB8BC2930F82D1E5EFA6B529F0262EB0FFE994,,millimetre,WHOS,-27.4822,-52.7797,,Brazil,ANA,Rio Uruguay,73440000
ADDBD19DB3EE6FCA902FFA3ECA14A03A59CD5C0C,ADDBD19DB3EE6FCA902FFA3ECA14A03A59CD5C0C,D2DB8BC2930F82D1E5EFA6B529F0262EB0FFE994,,millimetre,WHOS,-28.8231,-51.4942,,Brazil,ANA,,86430500
BEF8CD463D67917DED9E25569E6A32C81DB15464,BEF8CD463D67917DED9E25569E6A32C81DB15464,D2DB8BC2930F82D1E5EFA6B529F0262EB0FFE994,,millimetre,WHOS,-27.5828,-51.3539,,Brazil,ANA,Rio Uruguay,71900000
D82B6724DEE84A3823AF3A63A5C82142C1E4B7B0,D82B6724DEE84A3823AF3A63A5C82142C1E4B7B0,D2DB8BC2930F82D1E5EFA6B529F0262EB0FFE994,,millimetre,WHOS,-15.7975,-54.3608,,Brazil,ANA,Rio Paraguay,66420000
D8613B30F6C9A14A17010D112D1034F0C4AD4F92,D8613B30F6C9A14A17010D112D1034F0C4AD4F92,D2DB8BC2930F82D1E5EFA6B529F0262EB0FFE994,,millimetre,WHOS,-15.8914,-52.2278,,Brazil,ANA,,24700000
F23187EE98154AC50F301D892F19C1D192791CBC,F23187EE98154AC50F301D892F19C1D192791CBC,D2DB8BC2930F82D1E5EFA6B529F0262EB0FFE994,,millimetre,WHOS,-23.9486,-47.1975,,Brazil,ANA,,81491100
721CB1FEDC6C777D123832BE012252EFD835B9D8,721CB1FEDC6C777D123832BE012252EFD835B9D8,D2DB8BC2930F82D1E5EFA6B529F0262EB0FFE994,,millimetre,WHOS,-21.5739,-46.8803,,Brazil,ANA,Rio Parana,61817004
E06CDFA2EB5250BBB914AF36E2F994912FDD0322,E06CDFA2EB5250BBB914AF36E2F994912FDD0322,D2DB8BC2930F82D1E5EFA6B529F0262EB0FFE994,,millimetre,WHOS,-21.7778,-43.3256,,Brazil,ANA,,58480501
17AB9FC486946159174066DF92F83432EC9EB855,17AB9FC486946159174066DF92F83432EC9EB855,D2DB8BC2930F82D1E5EFA6B529F0262EB0FFE994,,millimetre,WHOS,-21.6667,-45.3089,,Brazil,ANA,Rio Parana,61528000
5AD52E7529A5E92FAE1922CE10B03DD08F9A39EA,5AD52E7529A5E92FAE1922CE10B03DD08F9A39EA,D2DB8BC2930F82D1E5EFA6B529F0262EB0FFE994,,millimetre,WHOS,-15.0231,-58.7217,,Brazil,ANA,Rio Paraguay,66071353
3241E50B75498BC13BB13B7121E50236F203CBEC,3241E50B75498BC13BB13B7121E50236F203CBEC,D2DB8BC2930F82D1E5EFA6B529F0262EB0FFE994,,millimetre,WHOS,-14.2347,-44.6217,,Brazil,ANA,,45154000
89C9BFA8052C701B00286269155DEFA8482BD7D3,89C9BFA8052C701B00286269155DEFA8482BD7D3,D2DB8BC2930F82D1E5EFA6B529F0262EB0FFE994,,millimetre,WHOS,-20.4764,-43.4467,,Brazil,ANA,,56212000
9ABBDFDD1C26464A82ED6ACB2FF7B117CF5BAAF1,9ABBDFDD1C26464A82ED6ACB2FF7B117CF5BAAF1,D2DB8BC2930F82D1E5EFA6B529F0262EB0FFE994,,millimetre,WHOS,-21.0208,-44.1483,,Brazil,ANA,Rio Parana,61112000
34649ACDEA6F11C57872DA311D69A6B6EA851F62,34649ACDEA6F11C57872DA311D69A6B6EA851F62,D2DB8BC2930F82D1E5EFA6B529F0262EB0FFE994,,millimetre,WHOS,-14.8672,-53.2833,,Brazil,ANA,,26054000
E1E6919ACA581F2ACFC1F3A7E6690024980A72DB,E1E6919ACA581F2ACFC1F3A7E6690024980A72DB,D2DB8BC2930F82D1E5EFA6B529F0262EB0FFE994,,millimetre,WHOS,-26.6072,-49.3392,,Brazil,ANA,,83674000
BC627D0E8F96E585A86FEA17DCD29099E4CC8EE4,BC627D0E8F96E585A86FEA17DCD29099E4CC8EE4,D2DB8BC2930F82D1E5EFA6B529F0262EB0FFE994,,millimetre,WHOS,-20.0344,-48.2222,,Brazil,ANA,Rio Parana,61760080
2650BAE3EC9F0097A0ACD6243211DEAEE548C4F2,2650BAE3EC9F0097A0ACD6243211DEAEE548C4F2,D2DB8BC2930F82D1E5EFA6B529F0262EB0FFE994,,millimetre,WHOS,-19.2878,-52.4006,,Brazil,ANA,Rio Parana,63001675
B8CB924D4EF79D7EF01EA0FA9F40231EBFDBDAC8,B8CB924D4EF79D7EF01EA0FA9F40231EBFDBDAC8,D2DB8BC2930F82D1E5EFA6B529F0262EB0FFE994,,millimetre,WHOS,-26.9075,-49.1942,,Brazil,ANA,,83695000
AB781CFB3B5389DF9C1A9D198AE69FC18BC5E2A0,AB781CFB3B5389DF9C1A9D198AE69FC18BC5E2A0,D2DB8BC2930F82D1E5EFA6B529F0262EB0FFE994,,millimetre,WHOS,-22.5681,-44.8636,,Brazil,ANA,,58234880
67E237F5358AC97CC19932BE91D32E90B3C4428E,67E237F5358AC97CC19932BE91D32E90B3C4428E,D2DB8BC2930F82D1E5EFA6B529F0262EB0FFE994,,millimetre,WHOS,-16.6847,-51.2325,,Brazil,ANA,,24743000
2AD3DB1F410215E67A80ED147EAD60C42D6EFC72,2AD3DB1F410215E67A80ED147EAD60C42D6EFC72,D2DB8BC2930F82D1E5EFA6B529F0262EB0FFE994,,millimetre,WHOS,-23.7331,-49.4303,,Brazil,ANA,Rio Parana,64250010
98346DA6D2C90178E8427FB7391C3E5BE9EEC4D3,98346DA6D2C90178E8427FB7391C3E5BE9EEC4D3,D2DB8BC2930F82D1E5EFA6B529F0262EB0FFE994,,millimetre,WHOS,-24.1092,-49.4697,,Brazil,ANA,Rio Parana,64230450
F7BE1AF18D6CCF424F49DFB1183FC1B856EAA504,F7BE1AF18D6CCF424F49DFB1183FC1B856EAA504,D2DB8BC2930F82D1E5EFA6B529F0262EB0FFE994,,millimetre,WHOS,-24.2064,-47.6133,,Brazil,ANA,,81530000
B5AF2C2AAC6F9E1EE5CD96B53E55658D79ED9B61,B5AF2C2AAC6F9E1EE5CD96B53E55658D79ED9B61,D2DB8BC2930F82D1E5EFA6B529F0262EB0FFE994,,millimetre,WHOS,-15.3717,-54.3836,,Brazil,ANA,,26033800
1792BD906412FC849E17D652E2226270CFCDF488,1792BD906412FC849E17D652E2226270CFCDF488,D2DB8BC2930F82D1E5EFA6B529F0262EB0FFE994,,millimetre,WHOS,-26.0864,-52.9394,,Brazil,ANA,Rio Parana,65954200
CB739B169729C99DA5364EA80C180188179F154B,CB739B169729C99DA5364EA80C180188179F154B,D2DB8BC2930F82D1E5EFA6B529F0262EB0FFE994,,millimetre,WHOS,-17.2967,-53.2172,,Brazil,ANA,,24055000
6954F978EC9E7016D22A34656E09CC7C2E32854B,6954F978EC9E7016D22A34656E09CC7C2E32854B,D2DB8BC2930F82D1E5EFA6B529F0262EB0FFE994,,millimetre,WHOS,-28.2069,-54.8697,,Brazil,ANA,Rio Uruguay,75331000
22E78B4DC3D773AA05F6CBA44648288BFDC28C73,22E78B4DC3D773AA05F6CBA44648288BFDC28C73,D2DB8BC2930F82D1E5EFA6B529F0262EB0FFE994,,millimetre,WHOS,-25.6119,-51.6531,,Brazil,ANA,Rio Parana,65819300
C9C3E04E854AD5A206F5AF59DB8EDDF283EE7496,C9C3E04E854AD5A206F5AF59DB8EDDF283EE7496,D2DB8BC2930F82D1E5EFA6B529F0262EB0FFE994,,millimetre,WHOS,-22.4983,-43.93,,Brazil,ANA,,58315100
AFE1558A2CC5DE95BE0E33B2D62F597CF454284E,AFE1558A2CC5DE95BE0E33B2D62F597CF454284E,D2DB8BC2930F82D1E5EFA6B529F0262EB0FFE994,,millimetre,WHOS,-24.0633,-50.7014,,Brazil,ANA,Rio Parana,64489000
6AEA96AB2C8F5B4E8E0E0EA98B19F5436461ED46,6AEA96AB2C8F5B4E8E0E0EA98B19F5436461ED46,D2DB8BC2930F82D1E5EFA6B529F0262EB0FFE994,,millimetre,WHOS,-25.6014,-49.6314,,Brazil,ANA,Rio Parana,65031300
2DF0FDF02E507BECE06B528809CFE12A02772D1B,2DF0FDF02E507BECE06B528809CFE12A02772D1B,D2DB8BC2930F82D1E5EFA6B529F0262EB0FFE994,,millimetre,WHOS,-15.0919,-55.4417,,Brazil,ANA,Rio Paraguay,66171500
1E96EEC3964AD85C051FD7B3426DAB61406DEB0C,1E96EEC3964AD85C051FD7B3426DAB61406DEB0C,D2DB8BC2930F82D1E5EFA6B529F0262EB0FFE994,,millimetre,WHOS,-18.6025,-46.5406,,Brazil,ANA,Rio Parana,60011005
EC25E96F635D2D79A0726ABFFAAF5A0BE2A30EB5,EC25E96F635D2D79A0726ABFFAAF5A0BE2A30EB5,D2DB8BC2930F82D1E5EFA6B529F0262EB0FFE994,,millimetre,WHOS,-22.7792,-44.2269,,Brazil,ANA,,58336000
3E7DE88DCA0BF5C644BD1CBF13FD1F0FB79F2176,3E7DE88DCA0BF5C644BD1CBF13FD1F0FB79F2176,D2DB8BC2930F82D1E5EFA6B529F0262EB0FFE994,,millimetre,WHOS,-26.7819,-49.3972,,Brazil,ANA,,83610000
6B0308A4E92EF5465034208EA83C9C2E09E35B6F,6B0308A4E92EF5465034208EA83C9C2E09E35B6F,D2DB8BC2930F82D1E5EFA6B529F0262EB0FFE994,,millimetre,WHOS,-19.6878,-43.6011,,Brazil,ANA,,41311000
95F834EDE72C40587040BD83397A2DE35A0E6A3A,95F834EDE72C40587040BD83397A2DE35A0E6A3A,D2DB8BC2930F82D1E5EFA6B529F0262EB0FFE994,,millimetre,WHOS,-24.0103,-47.2936,,Brazil,ANA,,81495200
F020FF571AABE67AFFC4C6564A0FED4B2BAE04D6,F020FF571AABE67AFFC4C6564A0FED4B2BAE04D6,D2DB8BC2930F82D1E5EFA6B529F0262EB0FFE994,,millimetre,WHOS,-20.2628,-43.6975,,Brazil,ANA,,41153050
FB44F63B10CF6D8D36FEBC2FC482446DDCEFFC23,FB44F63B10CF6D8D36FEBC2FC482446DDCEFFC23,D2DB8BC2930F82D1E5EFA6B529F0262EB0FFE994,,millimetre,WHOS,-30.1942,-53.5633,,Brazil,ANA,,85623010
1F06BE981EE920BCDBDE57CCD29C2C4495F72C82,1F06BE981EE920BCDBDE57CCD29C2C4495F72C82,D2DB8BC2930F82D1E5EFA6B529F0262EB0FFE994,,millimetre,WHOS,-31.0542,-50.9942,,Brazil,ANA,,87510040
BB430D1C9CE7E48B9121CD1ADF21BFF154DD9EEC,BB430D1C9CE7E48B9121CD1ADF21BFF154DD9EEC,D2DB8BC2930F82D1E5EFA6B529F0262EB0FFE994,,millimetre,WHOS,-27.4783,-48.9761,,Brazil,ANA,,84022000
784F1CDB8A7F644C52CA30024A800C0898C454A6,784F1CDB8A7F644C52CA30024A800C0898C454A6,D2DB8BC2930F82D1E5EFA6B529F0262EB0FFE994,,millimetre,WHOS,-19.6106,-53.4783,,Brazil,ANA,Rio Parana,63250700
149BA5ED08232FCA4B61A85AC76269B46F48DC85,149BA5ED08232FCA4B61A85AC76269B46F48DC85,D2DB8BC2930F82D1E5EFA6B529F0262EB0FFE994,,millimetre,WHOS,-16.7658,-51.6358,,Brazil,ANA,,24720000
5ED5DF929EB8DB17AE1DF10260DF30C0BD943710,5ED5DF929EB8DB17AE1DF10260DF30C0BD943710,D2DB8BC2930F82D1E5EFA6B529F0262EB0FFE994,,millimetre,WHOS,-15.3422,-55.4611,,Brazil,ANA,Rio Paraguay,66170600
61D2D087FE5BB015C375DBE3B111D3D33AC4F03C,61D2D087FE5BB015C375DBE3B111D3D33AC4F03C,D2DB8BC2930F82D1E5EFA6B529F0262EB0FFE994,,millimetre,WHOS,-25.4528,-51.6358,,Brazil,ANA,Rio Parana,65812000
50AE00FA0E96B1B3EB3FB924C66460F7FEC17A5C,50AE00FA0E96B1B3EB3FB924C66460F7FEC17A5C,D2DB8BC2930F82D1E5EFA6B529F0262EB0FFE994,,millimetre,WHOS,-29.3092,-56.0553,,Brazil,ANA,Rio Uruguay,76800000
21E0E3CBB2F164987600F081DA6C8E458AF7362F,21E0E3CBB2F164987600F081DA6C8E458AF7362F,D2DB8BC2930F82D1E5EFA6B529F0262EB0FFE994,,millimetre,WHOS,-23.355,-47.0828,,Brazil,ANA,Rio Parana,62376000
2A61EAE070329FC2DBD8E23CAC009E1FD58C2F92,2A61EAE070329FC2DBD8E23CAC009E1FD58C2F92,D2DB8BC2930F82D1E5EFA6B529F0262EB0FFE994,,millimetre,WHOS,-28.8681,-50.4561,,Brazil,ANA,,86160010
BC4BE4F212AFE914797ECA9DB04ABEFF8F684941,BC4BE4F212AFE914797ECA9DB04ABEFF8F684941,D2DB8BC2930F82D1E5EFA6B529F0262EB0FFE994,,millimetre,WHOS,-25.2344,-49.5964,,Brazil,ANA,,81019350
BE812A294E6C6746A12618F00EB59ADAC29986CD,BE812A294E6C6746A12618F00EB59ADAC29986CD,D2DB8BC2930F82D1E5EFA6B529F0262EB0FFE994,,millimetre,WHOS,-18.5883,-48.1272,,Brazil,ANA,Rio Parana,60179000
EC511FBF9D1359D861B668163922590EA2CB47AB,EC511FBF9D1359D861B668163922590EA2CB47AB,D2DB8BC2930F82D1E5EFA6B529F0262EB0FFE994,,millimetre,WHOS,-16.1758,-43.7711,,Brazil,ANA,,44630500
32795585159AA4713C996F8C439C12F7BD63AA59,32795585159AA4713C996F8C439C12F7BD63AA59,D2DB8BC2930F82D1E5EFA6B529F0262EB0FFE994,,millimetre,WHOS,-28.1025,-53.0153,,Brazil,ANA,Rio Uruguay,74120900
C3E708333D34E6346D8AF308E34857DDC26A03F1,C3E708333D34E6346D8AF308E34857DDC26A03F1,D2DB8BC2930F82D1E5EFA6B529F0262EB0FFE994,,millimetre,WHOS,-24.7506,-50.0881,,Brazil,ANA,Rio Parana,64477000
E78FD16458ADBBBE4641F65280976A88678058A7,E78FD16458ADBBBE4641F65280976A88678058A7,D2DB8BC2930F82D1E5EFA6B529F0262EB0FFE994,,millimetre,WHOS,-22.525,-52.0289,,Brazil,ANA,Rio Parana,64562000
22DEEE5660FDD34FCFA3B35B83068FA3409B5707,22DEEE5660FDD34FCFA3B35B83068FA3409B5707,D2DB8BC2930F82D1E5EFA6B529F0262EB0FFE994,,millimetre,WHOS,-27.7653,-53.5575,,Brazil,ANA,Rio Uruguay,74340000
6F875D7E56B591BD54D464CF5DF61AE9B7C785C1,6F875D7E56B591BD54D464CF5DF61AE9B7C785C1,D2DB8BC2930F82D1E5EFA6B529F0262EB0FFE994,,millimetre,WHOS,-15.8508,-54.3753,,Brazil,ANA,Rio Paraguay,66420250
F4170149BEB81FA173DA4A941ED6C9445567DE3A,F4170149BEB81FA173DA4A941ED6C9445567DE3A,D2DB8BC2930F82D1E5EFA6B529F0262EB0FFE994,,millimetre,WHOS,-20.7814,-51.6333,,Brazil,ANA,Rio Parana,63007080
78F3D963A787FE0C91612BD5B636D82D563F61FA,78F3D963A787FE0C91612BD5B636D82D563F61FA,D2DB8BC2930F82D1E5EFA6B529F0262EB0FFE994,,millimetre,WHOS,-28.945,-50.79,,Brazil,ANA,,86210000
26EC787924FC9ECFEDCD136B4FAE7D1B93742CC9,26EC787924FC9ECFEDCD136B4FAE7D1B93742CC9,D2DB8BC2930F82D1E5EFA6B529F0262EB0FFE994,,millimetre,WHOS,-20.1631,-47.8811,,Brazil,ANA,Rio Parana,61758000
3100BEA08249BEEFA256DF4528BB54222469EFC6,3100BEA08249BEEFA256DF4528BB54222469EFC6,D2DB8BC2930F82D1E5EFA6B529F0262EB0FFE994,,millimetre,WHOS,-25.7542,-52.0872,,Brazil,ANA,Rio Parana,65826612
30CA98693A6F5AB8DCD307E52CC21F9ACCC07042,30CA98693A6F5AB8DCD307E52CC21F9ACCC07042,D2DB8BC2930F82D1E5EFA6B529F0262EB0FFE994,,millimetre,WHOS,-18.4389,-53.0508,,Brazil,ANA,Rio Parana,63000050
9BFE0F022B3D66BDDD03502A70D5522C2380EC60,9BFE0F022B3D66BDDD03502A70D5522C2380EC60,D2DB8BC2930F82D1E5EFA6B529F0262EB0FFE994,,millimetre,WHOS,-28.5719,-51.3111,,Brazil,ANA,,86125120
58E3778D3DEBD83D1648E457F6E3FD6DF158056D,58E3778D3DEBD83D1648E457F6E3FD6DF158056D,D2DB8BC2930F82D1E5EFA6B529F0262EB0FFE994,,millimetre,WHOS,-21.9675,-43.3736,,Brazil,ANA,,58519050
F421CFDB9A4E7818C893BEA682A8A7547FC6DE3B,F421CFDB9A4E7818C893BEA682A8A7547FC6DE3B,D2DB8BC2930F82D1E5EFA6B529F0262EB0FFE994,,millimetre,WHOS,-25.3978,-51.4358,,Brazil,ANA,Rio Parana,65809000
770BC2FF4DE99448E27467CE17F75E8E51185F12,770BC2FF4DE99448E27467CE17F75E8E51185F12,D2DB8BC2930F82D1E5EFA6B529F0262EB0FFE994,,millimetre,WHOS,-26.6764,-51.7217,,Brazil,ANA,Rio Uruguay,73560000
C833C8AD926DE26971E09C5CD7D8CADE94CA8C81,C833C8AD926DE26971E09C5CD7D8CADE94CA8C81,D2DB8BC2930F82D1E5EFA6B529F0262EB0FFE994,,millimetre,WHOS,-24.6894,-51.5181,,Brazil,ANA,Rio Parana,64633050
C1A27A58B87CFB2D6162AD2D984098A03AAC949F,C1A27A58B87CFB2D6162AD2D984098A03AAC949F,D2DB8BC2930F82D1E5EFA6B529F0262EB0FFE994,,millimetre,WHOS,-26.6678,-53.6508,,Brazil,ANA,Rio Uruguay,74400080
E74F112B3D1475E2B819DB5E4F67033271F76F55,E74F112B3D1475E2B819DB5E4F67033271F76F55,D2DB8BC2930F82D1E5EFA6B529F0262EB0FFE994,,millimetre,WHOS,-20.4408,-53.7175,,Brazil,ANA,Rio Parana,63910000
98D2AF333A62B6984581C42BD94DB6F887935813,98D2AF333A62B6984581C42BD94DB6F887935813,D2DB8BC2930F82D1E5EFA6B529F0262EB0FFE994,,millimetre,WHOS,-29.3853,-53.0483,,Brazil,ANA,,85382000
796F844C8BC718798287FAC29D85116CF2F72CA1,796F844C8BC718798287FAC29D85116CF2F72CA1,D2DB8BC2930F82D1E5EFA6B529F0262EB0FFE994,,millimetre,WHOS,-27.5169,-50.8322,,Brazil,ANA,Rio Uruguay,71540000
95433F5B021F29C80F977DB3A589CCF36906580B,95433F5B021F29C80F977DB3A589CCF36906580B,D2DB8BC2930F82D1E5EFA6B529F0262EB0FFE994,,millimetre,WHOS,-28.0894,-50.0614,,Brazil,ANA,Rio Uruguay,70305000
1489A2F8A4E58D8A19B66BC51113A5D129A7D76E,1489A2F8A4E58D8A19B66BC51113A5D129A7D76E,D2DB8BC2930F82D1E5EFA6B529F0262EB0FFE994,,millimetre,WHOS,-25.5353,-51.8158,,Brazil,ANA,Rio Parana,65815040
2318AB45AB2578997CE3B75302E4A4A2D03C9A18,2318AB45AB2578997CE3B75302E4A4A2D03C9A18,D2DB8BC2930F82D1E5EFA6B529F0262EB0FFE994,,millimetre,WHOS,-19.22,-50.6764,,Brazil,ANA,Rio Parana,60927000
CF2DB0E20DD5574DCB910BCB7C87E788108AA432,CF2DB0E20DD5574DCB910BCB7C87E788108AA432,D2DB8BC2930F82D1E5EFA6B529F0262EB0FFE994,,millimetre,WHOS,-19.2525,-52.8844,,Brazil,ANA,Rio Parana,63001225
3E78F1218D79F71B0BB18431F809F0EEF3F1D1CD,3E78F1218D79F71B0BB18431F809F0EEF3F1D1CD,D2DB8BC2930F82D1E5EFA6B529F0262EB0FFE994,,millimetre,WHOS,-16.0358,-47.415,,Brazil,ANA,,42454000
E65529548112F39CF12C20CCA3543C3F9596D529,E65529548112F39CF12C20CCA3543C3F9596D529,D2DB8BC2930F82D1E5EFA6B529F0262EB0FFE994,,millimetre,WHOS,-25.4642,-50.5331,,Brazil,ANA,Rio Parana,64441020
716265B9B252D47881EBC8776926FDCE64993B2A,716265B9B252D47881EBC8776926FDCE64993B2A,D2DB8BC2930F82D1E5EFA6B529F0262EB0FFE994,,millimetre,WHOS,-14.4194,-57.8183,,Brazil,ANA,Rio Paraguay,66425000
D532618EB5637869C683ECE5F5E70A94FE12D0FA,D532618EB5637869C683ECE5F5E70A94FE12D0FA,D2DB8BC2930F82D1E5EFA6B529F0262EB0FFE994,,millimetre,WHOS,-17.2017,-56.0086,,Brazil,ANA,Rio Paraguay,66600000
EF42D9B8A1468EBC8FD87D21DD237E312850DF7C,EF42D9B8A1468EBC8FD87D21DD237E312850DF7C,D2DB8BC2930F82D1E5EFA6B529F0262EB0FFE994,,millimetre,WHOS,-20.8533,-46.7031,,Brazil,ANA,Rio Parana,61684000
B9014A0C14436F179E0C4F0C4A7A56BFF42B31E3,B9014A0C14436F179E0C4F0C4A7A56BFF42B31E3,D2DB8BC2930F82D1E5EFA6B529F0262EB0FFE994,,millimetre,WHOS,-19.9317,-43.1731,,Brazil,ANA,,56610000
18D1C74E41C82B5CD497DB668450D25225D53264,18D1C74E41C82B5CD497DB668450D25225D53264,D2DB8BC2930F82D1E5EFA6B529F0262EB0FFE994,,millimetre,WHOS,-19.815,-43.2606,,Brazil,ANA,,56652000
62A7B40280BB3D5C961E6BD1E7171F7E3F0B2BB3,62A7B40280BB3D5C961E6BD1E7171F7E3F0B2BB3,D2DB8BC2930F82D1E5EFA6B529F0262EB0FFE994,,millimetre,WHOS,-26.0914,-50.3339,,Brazil,ANA,Rio Parana,65175001
82B1A45D485956D5F624E06E1750E62F2F96D3B2,82B1A45D485956D5F624E06E1750E62F2F96D3B2,D2DB8BC2930F82D1E5EFA6B529F0262EB0FFE994,,millimetre,WHOS,-16.3375,-52.745,,Brazil,ANA,,24179090
7E1B9387CDEF1637BA46041730FD4F2448944966,7E1B9387CDEF1637BA46041730FD4F2448944966,D2DB8BC2930F82D1E5EFA6B529F0262EB0FFE994,,millimetre,WHOS,-19.5164,-47.4983,,Brazil,ANA,Rio Parana,60229800
16A73A0BADDFCB153ED473929BDFE15412BD9640,16A73A0BADDFCB153ED473929BDFE15412BD9640,D2DB8BC2930F82D1E5EFA6B529F0262EB0FFE994,,millimetre,WHOS,-19.8278,-43.3589,,Brazil,ANA,,56650600
E15065DF9A40DFE6352BB323659F33D20A587C8C,E15065DF9A40DFE6352BB323659F33D20A587C8C,D2DB8BC2930F82D1E5EFA6B529F0262EB0FFE994,,millimetre,WHOS,-18.8,-52.3606,,Brazil,ANA,Rio Parana,60959800
F93AB1F4154F734C4D6219FD2E6A82F08D9755F3,F93AB1F4154F734C4D6219FD2E6A82F08D9755F3,D2DB8BC2930F82D1E5EFA6B529F0262EB0FFE994,,millimetre,WHOS,-15.9408,-43.6419,,Brazil,ANA,,44637900
088B8AF3E66AC1B89E81E50C5D36EAD6EF40F317,088B8AF3E66AC1B89E81E50C5D36EAD6EF40F317,D2DB8BC2930F82D1E5EFA6B529F0262EB0FFE994,,millimetre,WHOS,-23.7233,-49.5558,,Brazil,ANA,Rio Parana,64247000
EB712D450615DD6F63AB6BAA40F8F93FC3A1D083,EB712D450615DD6F63AB6BAA40F8F93FC3A1D083,D2DB8BC2930F82D1E5EFA6B529F0262EB0FFE994,,millimetre,WHOS,-22.1628,-43.2864,,Brazil,ANA,,58380001
BD288158662B06EF3ABCB08D79FCC896F148238E,BD288158662B06EF3ABCB08D79FCC896F148238E,D2DB8BC2930F82D1E5EFA6B529F0262EB0FFE994,,millimetre,WHOS,-22.5303,-49.6533,,Brazil,ANA,Rio Parana,62727200
1C1B25A7FDE2D309B744F79A99E4C95869235D3B,1C1B25A7FDE2D309B744F79A99E4C95869235D3B,D2DB8BC2930F82D1E5EFA6B529F0262EB0FFE994,,millimetre,WHOS,-28.5486,-51.3017,,Brazil,ANA,,86125050
C93B11AD36F35E226014736D75BB065534487BCE,C93B11AD36F35E226014736D75BB065534487BCE,D2DB8BC2930F82D1E5EFA6B529F0262EB0FFE994,,millimetre,WHOS,-25.6558,-51.9522,,Brazil,ANA,Rio Parana,65824991
46AD73DE0B2D813E8B178F2951376EA1CCEF03AC,46AD73DE0B2D813E8B178F2951376EA1CCEF03AC,D2DB8BC2930F82D1E5EFA6B529F0262EB0FFE994,,millimetre,WHOS,-16.2681,-45.2369,,Brazil,ANA,,43980002
12D3C7F7012A2129A12661ADA465E5A9044CD191,12D3C7F7012A2129A12661ADA465E5A9044CD191,D2DB8BC2930F82D1E5EFA6B529F0262EB0FFE994,,millimetre,WHOS,-28.1239,-55.0533,,Brazil,ANA,Rio Uruguay,75344000
757A2A514A78A04C594EBBE13ABF2D21B7C17F4D,757A2A514A78A04C594EBBE13ABF2D21B7C17F4D,D2DB8BC2930F82D1E5EFA6B529F0262EB0FFE994,,millimetre,WHOS,-24.7436,-52.4753,,Brazil,ANA,Rio Parana,64773890
5B63F55C07604A962D8A7CB4E8EC5C60D8046D5B,5B63F55C07604A962D8A7CB4E8EC5C60D8046D5B,D2DB8BC2930F82D1E5EFA6B529F0262EB0FFE994,,millimetre,WHOS,-30.1569,-50.2353,,Brazil,ANA,,87228450
81D61B3A1654C8BD262C88FFB23415C05B9BE06A,81D61B3A1654C8BD262C88FFB23415C05B9BE06A,D2DB8BC2930F82D1E5EFA6B529F0262EB0FFE994,,millimetre,WHOS,-18.4519,-47.9844,,Brazil,ANA,Rio Parana,60160080
86BFC99A70C950A369B7593609A4D0B8B32BF84F,86BFC99A70C950A369B7593609A4D0B8B32BF84F,D2DB8BC2930F82D1E5EFA6B529F0262EB0FFE994,,millimetre,WHOS,-25.7739,-52.9244,,Brazil,ANA,Rio Parana,65960001
9C61E587376A8A39A25ABD3DC54C738C6615E152,9C61E587376A8A39A25ABD3DC54C738C6615E152,D2DB8BC2930F82D1E5EFA6B529F0262EB0FFE994,,millimetre,WHOS,-20.6711,-51.2986,,Brazil,ANA,Rio Parana,62900080
D5FF1DB451BB1659F8464C4F6259734B4F043CE1,D5FF1DB451BB1659F8464C4F6259734B4F043CE1,D2DB8BC2930F82D1E5EFA6B529F0262EB0FFE994,,millimetre,WHOS,-23.1461,-47.7956,,Brazil,ANA,Rio Parana,62557000
2C7BADC46FA185DC8D76FF324335CD5991556628,2C7BADC46FA185DC8D76FF324335CD5991556628,D2DB8BC2930F82D1E5EFA6B529F0262EB0FFE994,,millimetre,WHOS,-22.0075,-43.2622,,Brazil,ANA,,58594000
33254AB211B7E228884F95F1DE5E91A6DEAB3B68,33254AB211B7E228884F95F1DE5E91A6DEAB3B68,D2DB8BC2930F82D1E5EFA6B529F0262EB0FFE994,,millimetre,WHOS,-19.2814,-45.2953,,Brazil,ANA,,40100001
DF78C81751AF8D8553486C4A4D975E3778530FD1,DF78C81751AF8D8553486C4A4D975E3778530FD1,D2DB8BC2930F82D1E5EFA6B529F0262EB0FFE994,,millimetre,WHOS,-24.7792,-53.7608,,Brazil,ANA,Rio Parana,64863100
AEE738D353362EC6300D94E8A5FB1669AC6ABF2B,AEE738D353362EC6300D94E8A5FB1669AC6ABF2B,D2DB8BC2930F82D1E5EFA6B529F0262EB0FFE994,,millimetre,WHOS,-21.6253,-47.0094,,Brazil,ANA,Rio Parana,61819080
C5A6A56618C47B3FFDFA3BD33B8DC81394E43D66,C5A6A56618C47B3FFDFA3BD33B8DC81394E43D66,D2DB8BC2930F82D1E5EFA6B529F0262EB0FFE994,,millimetre,WHOS,-16.19,-47.0256,,Brazil,ANA,,42480300
24C3E63868A32EDE563DAA162B141756AE1B270F,24C3E63868A32EDE563DAA162B141756AE1B270F,D2DB8BC2930F82D1E5EFA6B529F0262EB0FFE994,,millimetre,WHOS,-18.8717,-44.7828,,Brazil,ANA,,40866000
2027FC11679F0820B7264911E738BBD13C156C87,2027FC11679F0820B7264911E738BBD13C156C87,D2DB8BC2930F82D1E5EFA6B529F0262EB0FFE994,,millimetre,WHOS,-30.3106,-51.8475,,Brazil,ANA,,87510049
A3CA617429E262B0B299EB9C634D04680F6FD373,A3CA617429E262B0B299EB9C634D04680F6FD373,D2DB8BC2930F82D1E5EFA6B529F0262EB0FFE994,,millimetre,WHOS,-21.3556,-43.0503,,Brazil,ANA,,58730001
ECD301E3785EFBB7C24561A09D15015D99F52F4E,ECD301E3785EFBB7C24561A09D15015D99F52F4E,D2DB8BC2930F82D1E5EFA6B529F0262EB0FFE994,,millimetre,WHOS,-19.0614,-52.9947,,Brazil,ANA,Rio Parana,63001223
27B093EACC1DAC337E41B6901BFE45E683FD99A8,27B093EACC1DAC337E41B6901BFE45E683FD99A8,D2DB8BC2930F82D1E5EFA6B529F0262EB0FFE994,,millimetre,WHOS,-27.1756,-53.2297,,Brazil,ANA,Rio Uruguay,74100000
348A18B889263D88DB7CEE07A4953D3F0A65933C,348A18B889263D88DB7CEE07A4953D3F0A65933C,D2DB8BC2930F82D1E5EFA6B529F0262EB0FFE994,,millimetre,WHOS,-19.1333,-47.6944,,Brazil,ANA,Rio Parana,60335080
0F8B85F9523D76ADBF965B8DE0C7D53A460E369F,0F8B85F9523D76ADBF965B8DE0C7D53A460E369F,D2DB8BC2930F82D1E5EFA6B529F0262EB0FFE994,,millimetre,WHOS,-24.4822,-49.0664,,Brazil,ANA,,81167000
8099489A9643971BAC893AC396B96121F219A0FC,8099489A9643971BAC893AC396B96121F219A0FC,D2DB8BC2930F82D1E5EFA6B529F0262EB0FFE994,,millimetre,WHOS,-26.0864,-52.9394,,Brazil,ANA,Rio Parana,65954150
4A85FB0B6E00E39742D72C9A2ED6EB9CBACF112F,4A85FB0B6E00E39742D72C9A2ED6EB9CBACF112F,D2DB8BC2930F82D1E5EFA6B529F0262EB0FFE994,,millimetre,WHOS,-20.4083,-44.0217,,Brazil,ANA,,40710000
27D9F580B36A5FCB274A8EBA837A2333478849B1,27D9F580B36A5FCB274A8EBA837A2333478849B1,D2DB8BC2930F82D1E5EFA6B529F0262EB0FFE994,,millimetre,WHOS,-20.4053,-44.6283,,Brazil,ANA,,40130002
5FB4DC77FBF1FD9C989DBB76A16C36CDE04534BA,5FB4DC77FBF1FD9C989DBB76A16C36CDE04534BA,D2DB8BC2930F82D1E5EFA6B529F0262EB0FFE994,,millimetre,WHOS,-23.8122,-47.67,,Brazil,ANA,Rio Parana,64007000
F77C4F7994E5DFA7100AC7557D71C18FF5EBE36E,F77C4F7994E5DFA7100AC7557D71C18FF5EBE36E,D2DB8BC2930F82D1E5EFA6B529F0262EB0FFE994,,millimetre,WHOS,-25.7692,-53.6111,,Brazil,ANA,Rio Parana,65980500
F674B49C15D6C4E734BC0179CE2916090BA4B368,F674B49C15D6C4E734BC0179CE2916090BA4B368,D2DB8BC2930F82D1E5EFA6B529F0262EB0FFE994,,millimetre,WHOS,-29.7683,-55.7875,,Brazil,ANA,Rio Uruguay,76750000
38EBFF3AF8017B63DB7B54814B2FAE820BFCC6CA,38EBFF3AF8017B63DB7B54814B2FAE820BFCC6CA,D2DB8BC2930F82D1E5EFA6B529F0262EB0FFE994,,millimetre,WHOS,-20.5594,-43.9903,,Brazil,ANA,,40686000
6845D56A0D270DEFDCF17A90B8A68EEA65EBE032,6845D56A0D270DEFDCF17A90B8A68EEA65EBE032,D2DB8BC2930F82D1E5EFA6B529F0262EB0FFE994,,millimetre,WHOS,-27.5619,-51.8578,,Brazil,ANA,Rio Uruguay,72870900
5C8946F3C56CBD041B900456E8D589F758566034,5C8946F3C56CBD041B900456E8D589F758566034,D2DB8BC2930F82D1E5EFA6B529F0262EB0FFE994,,millimetre,WHOS,-17.2917,-56.3872,,Brazil,ANA,Rio Paraguay,66650000
32CF2A86B78E9B49D1591A04265102E55C0CBAA1,32CF2A86B78E9B49D1591A04265102E55C0CBAA1,D2DB8BC2930F82D1E5EFA6B529F0262EB0FFE994,,millimetre,WHOS,-26.8958,-51.0756,,Brazil,ANA,Rio Uruguay,72715000
AC4293B24BDE7B349B223EFEFB7CA819DFDAD7F7,AC4293B24BDE7B349B223EFEFB7CA819DFDAD7F7,D2DB8BC2930F82D1E5EFA6B529F0262EB0FFE994,,millimetre,WHOS,-22.0844,-43.5589,,Brazil,ANA,,58585000
47FD30D3A072259A4FF7984E8BC3B8299A1E2F7B,47FD30D3A072259A4FF7984E8BC3B8299A1E2F7B,D2DB8BC2930F82D1E5EFA6B529F0262EB0FFE994,,millimetre,WHOS,-22.7756,-46.9931,,Brazil,ANA,Rio Parana,62681000
1A4740A8534CA806A816BD09F772B8F21E09CEDC,1A4740A8534CA806A816BD09F772B8F21E09CEDC,D2DB8BC2930F82D1E5EFA6B529F0262EB0FFE994,,millimetre,WHOS,-18.8814,-53.0739,,Brazil,ANA,Rio Parana,63001117
6AAA36D2B48736314CDAB47AF8F1469D0BCD0A25,6AAA36D2B48736314CDAB47AF8F1469D0BCD0A25,D2DB8BC2930F82D1E5EFA6B529F0262EB0FFE994,,millimetre,WHOS,-21.1017,-47.7586,,Brazil,ANA,Rio Parana,61833000
566F38D13405FECABD37117F11AAF25FE06E738A,566F38D13405FECABD37117F11AAF25FE06E738A,D2DB8BC2930F82D1E5EFA6B529F0262EB0FFE994,,millimetre,WHOS,-16.5006,-47.4786,,Brazil,ANA,Rio Parana,60018100
12A49F18C93FBA5CFD3146A842362EC99483DEFE,12A49F18C93FBA5CFD3146A842362EC99483DEFE,D2DB8BC2930F82D1E5EFA6B529F0262EB0FFE994,,millimetre,WHOS,-24.7328,-53.8928,,Brazil,ANA,Rio Parana,64864150
55B056988F8E65310EC4AA41C451C19A473A73F9,55B056988F8E65310EC4AA41C451C19A473A73F9,D2DB8BC2930F82D1E5EFA6B529F0262EB0FFE994,,millimetre,WHOS,-29.7589,-51.1483,,Brazil,ANA,,87382000
9EDABEB83374966D28078F334D8181D0ED1F3956,9EDABEB83374966D28078F334D8181D0ED1F3956,D2DB8BC2930F82D1E5EFA6B529F0262EB0FFE994,,millimetre,WHOS,-15.9397,-51.3575,,Brazil,ANA,,24950000
D064320CBA892A195F02563505ED10084A852A78,D064320CBA892A195F02563505ED10084A852A78,D2DB8BC2930F82D1E5EFA6B529F0262EB0FFE994,,millimetre,WHOS,-21.8453,-43.3394,,Brazil,ANA,,58490000
B06B625464847C2E7092E8BAAB40194AEBA93782,B06B625464847C2E7092E8BAAB40194AEBA93782,D2DB8BC2930F82D1E5EFA6B529F0262EB0FFE994,,millimetre,WHOS,-27.6925,-48.7097,,Brazil,ANA,,84150100
28D0D1A970A515AC2BF188933A625E4AD039BED9,28D0D1A970A515AC2BF188933A625E4AD039BED9,D2DB8BC2930F82D1E5EFA6B529F0262EB0FFE994,,millimetre,WHOS,-22.6861,-43.8222,,Brazil,ANA,,59310000
E586CA680127082E7DDEF54CEABD9A11F1A7B029,E586CA680127082E7DDEF54CEABD9A11F1A7B029,D2DB8BC2930F82D1E5EFA6B529F0262EB0FFE994,,millimetre,WHOS,-28.5931,-51.3983,,Brazil,ANA,,86404000
CA94575CC39D6FA250CED6E5D242A0A1A0147D1F,CA94575CC39D6FA250CED6E5D242A0A1A0147D1F,D2DB8BC2930F82D1E5EFA6B529F0262EB0FFE994,,millimetre,WHOS,-24.0561,-52.2903,,Brazil,ANA,Rio Parana,64671600
F4D4C8CC32B49146902858581C7894DE6716ED49,F4D4C8CC32B49146902858581C7894DE6716ED49,D2DB8BC2930F82D1E5EFA6B529F0262EB0FFE994,,millimetre,WHOS,-30.1544,-50.5528,,Brazil,ANA,,87510015
F24FBBC7701AFE141C850093F0AC4BC85A1874A0,F24FBBC7701AFE141C850093F0AC4BC85A1874A0,D2DB8BC2930F82D1E5EFA6B529F0262EB0FFE994,,millimetre,WHOS,-26.9186,-49.0656,,Brazil,ANA,,83800002
9F7247CC2768AE02D06BFAEC101559C7BF706234,9F7247CC2768AE02D06BFAEC101559C7BF706234,D2DB8BC2930F82D1E5EFA6B529F0262EB0FFE994,,millimetre,WHOS,-24.7175,-53.9436,,Brazil,ANA,Rio Parana,64864200
B793EF7078E897FBACCC6DA63E90DECBC4180BED,B793EF7078E897FBACCC6DA63E90DECBC4180BED,D2DB8BC2930F82D1E5EFA6B529F0262EB0FFE994,,millimetre,WHOS,-23.3917,-46.9947,,Brazil,ANA,Rio Parana,62370000
1256573651AFD18A399D83E65578040D18D90575,1256573651AFD18A399D83E65578040D18D90575,D2DB8BC2930F82D1E5EFA6B529F0262EB0FFE994,,millimetre,WHOS,-19.7394,-53.4519,,Brazil,ANA,Rio Parana,63250800
DADFB8853C155D41AE34358246993000726A82A3,DADFB8853C155D41AE34358246993000726A82A3,D2DB8BC2930F82D1E5EFA6B529F0262EB0FFE994,,millimetre,WHOS,-21.6108,-45.4889,,Brazil,ANA,Rio Parana,61537000
BA5C7CD32437E0644454B0C657AAF9DDBA03FC3D,BA5C7CD32437E0644454B0C657AAF9DDBA03FC3D,D2DB8BC2930F82D1E5EFA6B529F0262EB0FFE994,,millimetre,WHOS,-19.79,-49.6531,,Brazil,ANA,Rio Parana,61945080
A54E2505AF9C061107FBF8BBD6D704B96BCA4EB6,A54E2505AF9C061107FBF8BBD6D704B96BCA4EB6,D2DB8BC2930F82D1E5EFA6B529F0262EB0FFE994,,millimetre,WHOS,-26.9828,-51.1667,,Brazil,ANA,Rio Uruguay,72806000
DAF43718197B755832FCDF95861AD5C135E11603,DAF43718197B755832FCDF95861AD5C135E11603,D2DB8BC2930F82D1E5EFA6B529F0262EB0FFE994,,millimetre,WHOS,-22.6828,-43.8731,,Brazil,ANA,,58351000
631C6095D5D97FBFCF03689CAA9585E93BF94B66,631C6095D5D97FBFCF03689CAA9585E93BF94B66,D2DB8BC2930F82D1E5EFA6B529F0262EB0FFE994,,millimetre,WHOS,-28.2925,-54.6967,,Brazil,ANA,Rio Uruguay,75307000
892ADB04E17E5D15DED87085A35939789A64EB74,892ADB04E17E5D15DED87085A35939789A64EB74,D2DB8BC2930F82D1E5EFA6B529F0262EB0FFE994,,millimetre,WHOS,-22.005,-43.3211,,Brazil,ANA,,58591000
CE21F0E742A9BF98F8E58918C4C6933BAA899066,CE21F0E742A9BF98F8E58918C4C6933BAA899066,D2DB8BC2930F82D1E5EFA6B529F0262EB0FFE994,,millimetre,WHOS,-15.305,-54.1861,,Brazil,ANA,,26033900
C67D14AAF1AF0281283F276F467A9C1F408E2448,C67D14AAF1AF0281283F276F467A9C1F408E2448,D2DB8BC2930F82D1E5EFA6B529F0262EB0FFE994,,millimetre,WHOS,-27.0972,-50.0386,,Brazil,ANA,,83030000
4264A0CCB45BB039457E8A5F66B6EE3C32299BA2,4264A0CCB45BB039457E8A5F66B6EE3C32299BA2,D2DB8BC2930F82D1E5EFA6B529F0262EB0FFE994,,millimetre,WHOS,-22.9072,-49.6253,,Brazil,ANA,Rio Parana,64320010
1D79A8637E5D8613A3F141A2414677EB936FD8E5,1D79A8637E5D8613A3F141A2414677EB936FD8E5,D2DB8BC2930F82D1E5EFA6B529F0262EB0FFE994,,millimetre,WHOS,-18.7317,-51.7989,,Brazil,ANA,Rio Parana,60944000
8A0BAD09D687A208CBAB19D65A2573016DBC0C50,8A0BAD09D687A208CBAB19D65A2573016DBC0C50,D2DB8BC2930F82D1E5EFA6B529F0262EB0FFE994,,millimetre,WHOS,-15.8697,-56.0761,,Brazil,ANA,Rio Paraguay,66270000
0156B2319F736A916599B06D00D2CBF07153FE7A,0156B2319F736A916599B06D00D2CBF07153FE7A,D2DB8BC2930F82D1E5EFA6B529F0262EB0FFE994,,millimetre,WHOS,-22.1114,-47.9964,,Brazil,ANA,Rio Parana,62761000
1043A9781C570C877ECEEB29C9C290C792ED43EA,1043A9781C570C877ECEEB29C9C290C792ED43EA,D2DB8BC2930F82D1E5EFA6B529F0262EB0FFE994,,millimetre,WHOS,-29.2344,-51.855,,Brazil,ANA,,86720000
D499B681A918E3F8DDAE578EF4100301FFC682C6,D499B681A918E3F8DDAE578EF4100301FFC682C6,D2DB8BC2930F82D1E5EFA6B529F0262EB0FFE994,,millimetre,WHOS,-19.9967,-43.2347,,Brazil,ANA,,56599000
759B4DCA3B64376D593EBB12A7E788D24DB43BB3,759B4DCA3B64376D593EBB12A7E788D24DB43BB3,D2DB8BC2930F82D1E5EFA6B529F0262EB0FFE994,,millimetre,WHOS,-25.6103,-52.6164,,Brazil,ANA,Rio Parana,65883051
4F78302DE753DDF6B8FA15F5CCB25D92637DC861,4F78302DE753DDF6B8FA15F5CCB25D92637DC861,D2DB8BC2930F82D1E5EFA6B529F0262EB0FFE994,,millimetre,WHOS,-21.7383,-45.9583,,Brazil,ANA,Rio Parana,61566000
F0D73F0E67F995F2EEF6000983F8E01B33BBDEE1,F0D73F0E67F995F2EEF6000983F8E01B33BBDEE1,D2DB8BC2930F82D1E5EFA6B529F0262EB0FFE994,,millimetre,WHOS,-17.2981,-54.76,,Brazil,ANA,Rio Paraguay,66522100
58474A5EF8C6FCAE2FED0E0EAD26F4B92700C049,58474A5EF8C6FCAE2FED0E0EAD26F4B92700C049,D2DB8BC2930F82D1E5EFA6B529F0262EB0FFE994,,millimetre,WHOS,-28.1822,-55.6433,,Brazil,ANA,Rio Uruguay,75550000
CF39878B438667DACE2C1DD0618C5DE51DC3CE7B,CF39878B438667DACE2C1DD0618C5DE51DC3CE7B,D2DB8BC2930F82D1E5EFA6B529F0262EB0FFE994,,millimetre,WHOS,-22.4853,-45.3483,,Brazil,ANA,Rio Parana,61268800
9BE2BE1B691878CB5945E5F0DD02C1B894392358,9BE2BE1B691878CB5945E5F0DD02C1B894392358,D2DB8BC2930F82D1E5EFA6B529F0262EB0FFE994,,millimetre,WHOS,-14.5928,-57.7731,,Brazil,ANA,Rio Paraguay,66028500
B13038A28A991FB393F9BA07ED4BBF13275A1888,B13038A28A991FB393F9BA07ED4BBF13275A1888,D2DB8BC2930F82D1E5EFA6B529F0262EB0FFE994,,millimetre,WHOS,-23.3119,-50.9953,,Brazil,ANA,Rio Parana,64506000
9D45E15FA9DDB24F5E972DA5B0DD5B6950FBC26A,9D45E15FA9DDB24F5E972DA5B0DD5B6950FBC26A,D2DB8BC2930F82D1E5EFA6B529F0262EB0FFE994,,millimetre,WHOS,-25.4878,-52.2156,,Brazil,ANA,Rio Parana,65855080
D9DB0DB889D56FAACB69ABD9333582B9A2AF103E,D9DB0DB889D56FAACB69ABD9333582B9A2AF103E,D2DB8BC2930F82D1E5EFA6B529F0262EB0FFE994,,millimetre,WHOS,-25.7122,-48.9706,,Brazil,ANA,,82230815
0ED207F2CE7DF377020ABC6B1A36F646CFCF8ADB,0ED207F2CE7DF377020ABC6B1A36F646CFCF8ADB,D2DB8BC2930F82D1E5EFA6B529F0262EB0FFE994,,millimetre,WHOS,-24.1094,-47.6861,,Brazil,ANA,,81501000
CE6622CEF595E5D1C1476B4042ADD72C53F501A1,CE6622CEF595E5D1C1476B4042ADD72C53F501A1,D2DB8BC2930F82D1E5EFA6B529F0262EB0FFE994,,millimetre,WHOS,-26.9361,-51.8958,,Brazil,ANA,Rio Uruguay,73249000
D901449FEA40F7D13BCC95946C88990EFE60DB23,D901449FEA40F7D13BCC95946C88990EFE60DB23,D2DB8BC2930F82D1E5EFA6B529F0262EB0FFE994,,millimetre,WHOS,-16.6631,-51.5844,,Brazil,ANA,,24725000
9C2DC8EF9A95DA678E8A38BD95DD067713F4E9C5,9C2DC8EF9A95DA678E8A38BD95DD067713F4E9C5,D2DB8BC2930F82D1E5EFA6B529F0262EB0FFE994,,millimetre,WHOS,-22.8319,-44.1972,,Brazil,ANA,,58335000
1043A9781C570C877ECEEB29C9C290C792ED43EA,1043A9781C570C877ECEEB29C9C290C792ED43EA,D2DB8BC2930F82D1E5EFA6B529F0262EB0FFE994,,millimetre,WHOS,-29.2344,-51.855,,Brazil,ANA,,86720000
96763718E65FDA4C45B8B3513AF5F79F42F52A16,96763718E65FDA4C45B8B3513AF5F79F42F52A16,D2DB8BC2930F82D1E5EFA6B529F0262EB0FFE994,,millimetre,WHOS,-24.3603,-50.5939,,Brazil,ANA,Rio Parana,64482000
4295D95BF42BA79F58AB92EAE80B499836297A60,4295D95BF42BA79F58AB92EAE80B499836297A60,D2DB8BC2930F82D1E5EFA6B529F0262EB0FFE994,,millimetre,WHOS,-26.7497,-52.3997,,Brazil,ANA,Rio Uruguay,73698500
B31D142A68999086E40825A1693B2617ECED2C77,B31D142A68999086E40825A1693B2617ECED2C77,D2DB8BC2930F82D1E5EFA6B529F0262EB0FFE994,,millimetre,WHOS,-16.2994,-55.0622,,Brazil,ANA,Rio Paraguay,66400325
AC0EE1730C9483C52A56E3D9DF070AC16DE628D3,AC0EE1730C9483C52A56E3D9DF070AC16DE628D3,D2DB8BC2930F82D1E5EFA6B529F0262EB0FFE994,,millimetre,WHOS,-30.2319,-53.9856,,Brazil,ANA,,85480010
014B8949A3E1FEDF00930EA055B4D7692A2EF9E1,014B8949A3E1FEDF00930EA055B4D7692A2EF9E1,D2DB8BC2930F82D1E5EFA6B529F0262EB0FFE994,,millimetre,WHOS,-16.7578,-47.2342,,Brazil,ANA,Rio Parana,60018800
2450AEC8494FD72BBAF5342D7CB51DBE572A7ED7,2450AEC8494FD72BBAF5342D7CB51DBE572A7ED7,D2DB8BC2930F82D1E5EFA6B529F0262EB0FFE994,,millimetre,WHOS,-29.5097,-50.0911,,Brazil,ANA,,87309010
D078329A370504259831C494F860B4D629294FF2,D078329A370504259831C494F860B4D629294FF2,D2DB8BC2930F82D1E5EFA6B529F0262EB0FFE994,,millimetre,WHOS,-20.5233,-50.5922,,Brazil,ANA,Rio Parana,62019700
AF012DFF24A37DFE3DCB6E53FD0A532A01825277,AF012DFF24A37DFE3DCB6E53FD0A532A01825277,D2DB8BC2930F82D1E5EFA6B529F0262EB0FFE994,,millimetre,WHOS,-29.9644,-50.9778,,Brazil,ANA,,87399000
2088B62E8B76166B5694F419AD40831384D6DFD1,2088B62E8B76166B5694F419AD40831384D6DFD1,D2DB8BC2930F82D1E5EFA6B529F0262EB0FFE994,,millimetre,WHOS,-23.3433,-50.1628,,Brazil,ANA,Rio Parana,64362001
2C4CA4AC8910D70EA9C202887081DC10F9B3A56D,2C4CA4AC8910D70EA9C202887081DC10F9B3A56D,D2DB8BC2930F82D1E5EFA6B529F0262EB0FFE994,,millimetre,WHOS,-15.9792,-55.0328,,Brazil,ANA,Rio Paraguay,66388000
1E80BFC7D5752D0BA0DAF14EC20B4ED71D88C391,1E80BFC7D5752D0BA0DAF14EC20B4ED71D88C391,D2DB8BC2930F82D1E5EFA6B529F0262EB0FFE994,,millimetre,WHOS,-22.0847,-43.56,,Brazil,ANA,,58586000
674EDEE0475DD45796371FD6DC505D89D6E1860A,674EDEE0475DD45796371FD6DC505D89D6E1860A,D2DB8BC2930F82D1E5EFA6B529F0262EB0FFE994,,millimetre,WHOS,-24.7822,-50.0175,,Brazil,ANA,Rio Parana,64474800
D490203F1230198D9111D967CEB7FADB00987621,D490203F1230198D9111D967CEB7FADB00987621,D2DB8BC2930F82D1E5EFA6B529F0262EB0FFE994,,millimetre,WHOS,-16.045,-54.8867,,Brazil,ANA,Rio Paraguay,66390090
EA668C58B249843E43AF928AA8787B015B2EF10D,EA668C58B249843E43AF928AA8787B015B2EF10D,D2DB8BC2930F82D1E5EFA6B529F0262EB0FFE994,,millimetre,WHOS,-19.0578,-52.5317,,Brazil,ANA,Rio Parana,63001602
CDC6B77A11CA8DE0D49AC4EDA2A474A6EAE3BB95,CDC6B77A11CA8DE0D49AC4EDA2A474A6EAE3BB95,D2DB8BC2930F82D1E5EFA6B529F0262EB0FFE994,,millimetre,WHOS,-23.7197,-47.1872,,Brazil,ANA,Rio Parana,62472800
73BD4DC4B7EDDB674F2A3249C1225D03952C6F61,73BD4DC4B7EDDB674F2A3249C1225D03952C6F61,D2DB8BC2930F82D1E5EFA6B529F0262EB0FFE994,,millimetre,WHOS,-24.7644,-52.4308,,Brazil,ANA,Rio Parana,64773750
B8A367E00EA00CFC689776D529F104E3041337B5,B8A367E00EA00CFC689776D529F104E3041337B5,D2DB8BC2930F82D1E5EFA6B529F0262EB0FFE994,,millimetre,WHOS,-19.2033,-52.3522,,Brazil,ANA,Rio Parana,63001638
2CFB1AB484DE4FEE329F0776951C8789712C3791,2CFB1AB484DE4FEE329F0776951C8789712C3791,D2DB8BC2930F82D1E5EFA6B529F0262EB0FFE994,,millimetre,WHOS,-15.2153,-59.3539,,Brazil,ANA,,15050001
D03C48D69AAFCEBAB14A8D5F73F9550EC190B35C,D03C48D69AAFCEBAB14A8D5F73F9550EC190B35C,D2DB8BC2930F82D1E5EFA6B529F0262EB0FFE994,,millimetre,WHOS,-16.6658,-47.2314,,Brazil,ANA,Rio Parana,60182000
4A9674720950FFDB872FE4417331B56A2BB88D96,4A9674720950FFDB872FE4417331B56A2BB88D96,D2DB8BC2930F82D1E5EFA6B529F0262EB0FFE994,,millimetre,WHOS,-28.8161,-50.6214,,Brazil,ANA,,86110000
27FB6862382EE0E0D34DE86998632A54EA92E33D,27FB6862382EE0E0D34DE86998632A54EA92E33D,D2DB8BC2930F82D1E5EFA6B529F0262EB0FFE994,,millimetre,WHOS,-19.8789,-53.3636,,Brazil,ANA,Rio Parana,63250900
47DF7DCD7B1188AE9BA688A9C500A5588394001C,47DF7DCD7B1188AE9BA688A9C500A5588394001C,D2DB8BC2930F82D1E5EFA6B529F0262EB0FFE994,,millimetre,WHOS,-33.5022,-53.1478,,Brazil,ANA,,88009000
94DDC000175761B5E0A2B0D689112A5D74D86420,94DDC000175761B5E0A2B0D689112A5D74D86420,D2DB8BC2930F82D1E5EFA6B529F0262EB0FFE994,,millimetre,WHOS,-27.1717,-53.7097,,Brazil,ANA,Rio Uruguay,74329000
27B093EACC1DAC337E41B6901BFE45E683FD99A8,27B093EACC1DAC337E41B6901BFE45E683FD99A8,D2DB8BC2930F82D1E5EFA6B529F0262EB0FFE994,,millimetre,WHOS,-27.1756,-53.2297,,Brazil,ANA,Rio Uruguay,74100000
CBE851D0428DFD09D14FDFF1CB542D9C1E336B7E,CBE851D0428DFD09D14FDFF1CB542D9C1E336B7E,D2DB8BC2930F82D1E5EFA6B529F0262EB0FFE994,,millimetre,WHOS,-16.3697,-51.4178,,Brazil,ANA,,24747000
A945D5C7D68512D4511C7F7C4C5EA4E7E39030DB,A945D5C7D68512D4511C7F7C4C5EA4E7E39030DB,D2DB8BC2930F82D1E5EFA6B529F0262EB0FFE994,,millimetre,WHOS,-24.1364,-49.6511,,Brazil,ANA,Rio Parana,64241300
E6D05D47F39EE763C7A8A6C58673448AE39B8593,E6D05D47F39EE763C7A8A6C58673448AE39B8593,D2DB8BC2930F82D1E5EFA6B529F0262EB0FFE994,,millimetre,WHOS,-30.3844,-56.4656,,Brazil,ANA,Rio Uruguay,77500000
568ED8A8AEC90EF58DED3CCA434ED7ED8FF04466,568ED8A8AEC90EF58DED3CCA434ED7ED8FF04466,D2DB8BC2930F82D1E5EFA6B529F0262EB0FFE994,,millimetre,WHOS,-14.3153,-56.7269,,Brazil,ANA,Rio Paraguay,66005400
8CB76220A1EE5BE70775D27D857FA49DDD86C405,8CB76220A1EE5BE70775D27D857FA49DDD86C405,D2DB8BC2930F82D1E5EFA6B529F0262EB0FFE994,,millimetre,WHOS,-26.6992,-51.8247,,Brazil,ANA,Rio Uruguay,73620000
5C6551DF823970EF8FF844D006A7550508E813A6,5C6551DF823970EF8FF844D006A7550508E813A6,D2DB8BC2930F82D1E5EFA6B529F0262EB0FFE994,,millimetre,WHOS,-14.5564,-57.8122,,Brazil,ANA,Rio Paraguay,66028000
8C75C4517A8A34DC899EFB1E37B5D32065EE1D56,8C75C4517A8A34DC899EFB1E37B5D32065EE1D56,D2DB8BC2930F82D1E5EFA6B529F0262EB0FFE994,,millimetre,WHOS,-20.4481,-55.4281,,Brazil,ANA,Rio Paraguay,66941000
3311DAB3FD23423AC830D6E956E8E0FAE826B19B,3311DAB3FD23423AC830D6E956E8E0FAE826B19B,D2DB8BC2930F82D1E5EFA6B529F0262EB0FFE994,,millimetre,WHOS,-20.55,-47.8153,,Brazil,ANA,Rio Parana,61783450
DB6E960C7887974C84A2E3F0189AFDD439F49067,DB6E960C7887974C84A2E3F0189AFDD439F49067,D2DB8BC2930F82D1E5EFA6B529F0262EB0FFE994,,millimetre,WHOS,-15.4875,-48.0458,,Brazil,ANA,,20001400
C0ADBE48D23ED118408EE6F3556F20CFE4DEDAED,C0ADBE48D23ED118408EE6F3556F20CFE4DEDAED,D2DB8BC2930F82D1E5EFA6B529F0262EB0FFE994,,millimetre,WHOS,-29.1289,-53.3178,,Brazil,ANA,,85350000
986E76E87E0F7E102A5EDFB6F95404AC65430D04,986E76E87E0F7E102A5EDFB6F95404AC65430D04,D2DB8BC2930F82D1E5EFA6B529F0262EB0FFE994,,millimetre,WHOS,-18.5078,-54.7619,,Brazil,ANA,Rio Paraguay,66870000
367AEE90AA2EBC04C1B2C977DD1F3205D2F1EB1D,367AEE90AA2EBC04C1B2C977DD1F3205D2F1EB1D,D2DB8BC2930F82D1E5EFA6B529F0262EB0FFE994,,millimetre,WHOS,-15.5242,-46.2844,,Brazil,ANA,,43300000
AEA97253614D6D491DAA54AA9F261736DD0CC7F4,AEA97253614D6D491DAA54AA9F261736DD0CC7F4,D2DB8BC2930F82D1E5EFA6B529F0262EB0FFE994,,millimetre,WHOS,-22.3858,-46.7947,,Brazil,ANA,Rio Parana,61880000
838E8FFCB626507A3C290E5DCF658819859CED44,838E8FFCB626507A3C290E5DCF658819859CED44,D2DB8BC2930F82D1E5EFA6B529F0262EB0FFE994,,millimetre,WHOS,-18.7506,-52.2394,,Brazil,ANA,Rio Parana,60960800
E8B2156849CB52625A1879F00AD1783FECD69063,E8B2156849CB52625A1879F00AD1783FECD69063,D2DB8BC2930F82D1E5EFA6B529F0262EB0FFE994,,millimetre,WHOS,-16.0964,-55.0425,,Brazil,ANA,Rio Paraguay,66400050
6FE2D0B154C9CBFEC99C1FDBE1E848990D9EA00C,6FE2D0B154C9CBFEC99C1FDBE1E848990D9EA00C,D2DB8BC2930F82D1E5EFA6B529F0262EB0FFE994,,millimetre,WHOS,-28.9489,-50.0556,,Brazil,ANA,,86060010
DB9741073F1C45FEC6AD3055E3079AE9309664A4,DB9741073F1C45FEC6AD3055E3079AE9309664A4,D2DB8BC2930F82D1E5EFA6B529F0262EB0FFE994,,millimetre,WHOS,-27.6839,-49.3631,,Brazil,ANA,,83105000
17662FE44C6C379086729F53DE07295C6C34D254,17662FE44C6C379086729F53DE07295C6C34D254,D2DB8BC2930F82D1E5EFA6B529F0262EB0FFE994,,millimetre,WHOS,-20.4944,-43.5217,,Brazil,ANA,,56194900
1E491EF4DCB541102F18ED86B2A1FE6396BDB460,1E491EF4DCB541102F18ED86B2A1FE6396BDB460,D2DB8BC2930F82D1E5EFA6B529F0262EB0FFE994,,millimetre,WHOS,-20.4894,-43.4456,,Brazil,ANA,,56211500
528E9F657435B4AC8EC7CC409E029481BEE1AC0F,528E9F657435B4AC8EC7CC409E029481BEE1AC0F,D2DB8BC2930F82D1E5EFA6B529F0262EB0FFE994,,millimetre,WHOS,-24.7211,-50.1347,,Brazil,ANA,Rio Parana,64478200
F66DDCF06394A776F7DE5E33D3E3DC62011D28FB,F66DDCF06394A776F7DE5E33D3E3DC62011D28FB,D2DB8BC2930F82D1E5EFA6B529F0262EB0FFE994,,millimetre,WHOS,-29.3356,-51.1889,,Brazil,ANA,,87160000
358E3B70CF6EE86F5EEB05E57E6D10D17A2064B8,358E3B70CF6EE86F5EEB05E57E6D10D17A2064B8,D2DB8BC2930F82D1E5EFA6B529F0262EB0FFE994,,millimetre,WHOS,-15.8994,-52.2764,,Brazil,ANA,,24653000
8F97806652F124FBFA6A61F2D643C3A7C7316A85,8F97806652F124FBFA6A61F2D643C3A7C7316A85,D2DB8BC2930F82D1E5EFA6B529F0262EB0FFE994,,millimetre,WHOS,-15.2225,-53.9661,,Brazil,ANA,,26034600
0766DB0C5F3419507B9DE67DB681EA223116065A,0766DB0C5F3419507B9DE67DB681EA223116065A,D2DB8BC2930F82D1E5EFA6B529F0262EB0FFE994,,millimetre,WHOS,-24.3925,-47.925,,Brazil,ANA,,81420000
BA8A99D30F0B85F31C1EF785863B29B4CF0B2194,BA8A99D30F0B85F31C1EF785863B29B4CF0B2194,D2DB8BC2930F82D1E5EFA6B529F0262EB0FFE994,,millimetre,WHOS,-29.4475,-53.2844,,Brazil,ANA,,85395100
FB0C00312C78612E98F994CD745779FE5919271B,FB0C00312C78612E98F994CD745779FE5919271B,D2DB8BC2930F82D1E5EFA6B529F0262EB0FFE994,,millimetre,WHOS,-21.9633,-43.1558,,Brazil,ANA,,58594090
19C74B5D0DCAAB908D26E302ACF8520229952330,19C74B5D0DCAAB908D26E302ACF8520229952330,D2DB8BC2930F82D1E5EFA6B529F0262EB0FFE994,,millimetre,WHOS,-26.7592,-49.4067,,Brazil,ANA,,83629000
6D81ACB9346509770FA7E179D381DBD30ECBFE40,6D81ACB9346509770FA7E179D381DBD30ECBFE40,D2DB8BC2930F82D1E5EFA6B529F0262EB0FFE994,,millimetre,WHOS,-20.2142,-47.7064,,Brazil,ANA,Rio Parana,61757000
4FF9F918F61091344EC96446278CA5B6072F0491,4FF9F918F61091344EC96446278CA5B6072F0491,D2DB8BC2930F82D1E5EFA6B529F0262EB0FFE994,,millimetre,WHOS,-18.0708,-48.2106,,Brazil,ANA,Rio Parana,60200600
AC8AB90EF6258C06F123AB339388820EC6C4E3F3,AC8AB90EF6258C06F123AB339388820EC6C4E3F3,D2DB8BC2930F82D1E5EFA6B529F0262EB0FFE994,,millimetre,WHOS,-22.23,-44.6661,,Brazil,ANA,Rio Parana,61014950
60513B11A7A3BF1067DA24508A18A9BB54CF985B,60513B11A7A3BF1067DA24508A18A9BB54CF985B,D2DB8BC2930F82D1E5EFA6B529F0262EB0FFE994,,millimetre,WHOS,-24.5864,-48.5922,,Brazil,ANA,,81350000
F42DED863E4B6CB2AE5CAA8EC4C6F591E50EC0C6,F42DED863E4B6CB2AE5CAA8EC4C6F591E50EC0C6,D2DB8BC2930F82D1E5EFA6B529F0262EB0FFE994,,millimetre,WHOS,-28.3553,-54.2675,,Brazil,ANA,Rio Uruguay,75230000
97490A402E18C69F2DD28C58B640C512E8EAD9B8,97490A402E18C69F2DD28C58B640C512E8EAD9B8,D2DB8BC2930F82D1E5EFA6B529F0262EB0FFE994,,millimetre,WHOS,-29.5192,-49.9147,,Brazil,ANA,,87313000
BB9F9B6EDA79FD9465058A0444C58E51AE71C223,BB9F9B6EDA79FD9465058A0444C58E51AE71C223,D2DB8BC2930F82D1E5EFA6B529F0262EB0FFE994,,millimetre,WHOS,-24.9028,-49.4417,,Brazil,ANA,,81107000
91E8FE709FEDF11E1CA647959BFF336DB2A48835,91E8FE709FEDF11E1CA647959BFF336DB2A48835,D2DB8BC2930F82D1E5EFA6B529F0262EB0FFE994,,millimetre,WHOS,-30.0681,-55.6594,,Brazil,ANA,Rio Uruguay,76660900
DA1994C485BEF682165E32673090744059656500,DA1994C485BEF682165E32673090744059656500,D2DB8BC2930F82D1E5EFA6B529F0262EB0FFE994,,millimetre,WHOS,-22.0775,-48.4842,,Brazil,ANA,Rio Parana,62752000
8E369C0A3484F5FEAFAE7FF22643157176A3723B,8E369C0A3484F5FEAFAE7FF22643157176A3723B,D2DB8BC2930F82D1E5EFA6B529F0262EB0FFE994,,millimetre,WHOS,-27.4819,-49.5828,,Brazil,ANA,,83145140
14F291711D22FE4A261BD8ECB307A61AD85E3FEE,14F291711D22FE4A261BD8ECB307A61AD85E3FEE,D2DB8BC2930F82D1E5EFA6B529F0262EB0FFE994,,millimetre,WHOS,-27.1139,-49.9953,,Brazil,ANA,,83050000
9065636A919AC83CA3E02C901331EED1BF6E275E,9065636A919AC83CA3E02C901331EED1BF6E275E,D2DB8BC2930F82D1E5EFA6B529F0262EB0FFE994,,millimetre,WHOS,-18.8297,-52.1717,,Brazil,ANA,Rio Parana,60961050
259CA3235D878F5F3B1B38E1B98CFC528D973F89,259CA3235D878F5F3B1B38E1B98CFC528D973F89,D2DB8BC2930F82D1E5EFA6B529F0262EB0FFE994,,millimetre,WHOS,-26.0817,-53.0739,,Brazil,ANA,Rio Parana,65950200
414183D8108649D897B231EBED01BBED34FF2227,414183D8108649D897B231EBED01BBED34FF2227,D2DB8BC2930F82D1E5EFA6B529F0262EB0FFE994,,millimetre,WHOS,-22.6628,-51.3594,,Brazil,ANA,Rio Parana,64516080
F1756989C286BAC830840A2458A1D2BFDC8D54AB,F1756989C286BAC830840A2458A1D2BFDC8D54AB,D2DB8BC2930F82D1E5EFA6B529F0262EB0FFE994,,millimetre,WHOS,-22.4992,-45.3139,,Brazil,ANA,Rio Parana,61268700
48699F74B3C0345E413A1BAF11002E024E11C2A3,48699F74B3C0345E413A1BAF11002E024E11C2A3,D2DB8BC2930F82D1E5EFA6B529F0262EB0FFE994,,millimetre,WHOS,-23.7986,-48.5867,,Brazil,ANA,Rio Parana,64119000
46DBBF103D2B21779A78C2EB2B9B8292FD7208EA,46DBBF103D2B21779A78C2EB2B9B8292FD7208EA,D2DB8BC2930F82D1E5EFA6B529F0262EB0FFE994,,millimetre,WHOS,-15.0761,-57.1819,,Brazil,ANA,Rio Paraguay,66010000
F223330AB22FFD050BCE36F65417535A766C0FD9,F223330AB22FFD050BCE36F65417535A766C0FD9,D2DB8BC2930F82D1E5EFA6B529F0262EB0FFE994,,millimetre,WHOS,-22.5072,-53.0133,,Brazil,ANA,Rio Parana,63995090
F1F33A0EC5918E0066309DC61B82D24CC4E9BB4D,F1F33A0EC5918E0066309DC61B82D24CC4E9BB4D,D2DB8BC2930F82D1E5EFA6B529F0262EB0FFE994,,millimetre,WHOS,-21.6414,-45.4,,Brazil,ANA,Rio Parana,61534000
B44B8142232D56E27EF24E909DDD77D303D93CAF,B44B8142232D56E27EF24E909DDD77D303D93CAF,D2DB8BC2930F82D1E5EFA6B529F0262EB0FFE994,,millimetre,WHOS,-29.0833,-52.2106,,Brazil,ANA,,86743950
512A6A6D7157EC9076C94C84316EF6BED5C37E8D,512A6A6D7157EC9076C94C84316EF6BED5C37E8D,D2DB8BC2930F82D1E5EFA6B529F0262EB0FFE994,,millimetre,WHOS,-24.0328,-49.4614,,Brazil,ANA,Rio Parana,64231000
B8D092D3FB1F5E612110E54E1B5CBC6A295CBBBD,B8D092D3FB1F5E612110E54E1B5CBC6A295CBBBD,D2DB8BC2930F82D1E5EFA6B529F0262EB0FFE994,,millimetre,WHOS,-21.6633,-52.8672,,Brazil,ANA,Rio Parana,63968000
4EB69DF0A2ED336D2D825AF41430C6567E7EEBA6,4EB69DF0A2ED336D2D825AF41430C6567E7EEBA6,D2DB8BC2930F82D1E5EFA6B529F0262EB0FFE994,,millimetre,WHOS,-23.2375,-45.3064,,Brazil,ANA,,58041000
1CA90F8E16D35D852E1DD3CA1E7E5F39553B3068,1CA90F8E16D35D852E1DD3CA1E7E5F39553B3068,D2DB8BC2930F82D1E5EFA6B529F0262EB0FFE994,,millimetre,WHOS,-26.7758,-52.0422,,Brazil,ANA,Rio Uruguay,73690030
F125DA187BAA814959CD31F2E887BACD8FC2A915,F125DA187BAA814959CD31F2E887BACD8FC2A915,D2DB8BC2930F82D1E5EFA6B529F0262EB0FFE994,,millimetre,WHOS,-24.7586,-48.5086,,Brazil,ANA,,81335000
FFCFE436DD09AF565614E8B1C3BC760A845363EB,FFCFE436DD09AF565614E8B1C3BC760A845363EB,D2DB8BC2930F82D1E5EFA6B529F0262EB0FFE994,,millimetre,WHOS,-28.1656,-48.9717,,Brazil,ANA,,84598002
17BE016802B6F9EB711AB7067692E643B82ED86B,17BE016802B6F9EB711AB7067692E643B82ED86B,D2DB8BC2930F82D1E5EFA6B529F0262EB0FFE994,,millimetre,WHOS,-25.8203,-49.065,,Brazil,ANA,,82230001
40ABF1BDDD52E50D9D1661B4D72BD7F35D443518,40ABF1BDDD52E50D9D1661B4D72BD7F35D443518,D2DB8BC2930F82D1E5EFA6B529F0262EB0FFE994,,millimetre,WHOS,-16.2086,-47.5681,,Brazil,ANA,Rio Parana,60018200
06010D76E704135B1424174A37205892A66CD155,06010D76E704135B1424174A37205892A66CD155,D2DB8BC2930F82D1E5EFA6B529F0262EB0FFE994,,millimetre,WHOS,-17.3692,-44.9431,,Brazil,ANA,,41135000
9BA2129371C53525ECBC82DF2C1D541EE5FB5943,9BA2129371C53525ECBC82DF2C1D541EE5FB5943,D2DB8BC2930F82D1E5EFA6B529F0262EB0FFE994,,millimetre,WHOS,-21.5931,-45.4272,,Brazil,ANA,Rio Parana,61536000
A2D3D6F10313722D252028DD4BC7BB0B220CB87E,A2D3D6F10313722D252028DD4BC7BB0B220CB87E,D2DB8BC2930F82D1E5EFA6B529F0262EB0FFE994,,millimetre,WHOS,-20.8178,-45.0603,,Brazil,ANA,Rio Parana,61198080
AE159033AB4F4551E32A191E5FE008913E930591,AE159033AB4F4551E32A191E5FE008913E930591,D2DB8BC2930F82D1E5EFA6B529F0262EB0FFE994,,millimetre,WHOS,-17.1822,-47.5908,,Brazil,ANA,Rio Parana,60026100
970D218B3F8C64405BC1E0D337848DE2515A1748,970D218B3F8C64405BC1E0D337848DE2515A1748,D2DB8BC2930F82D1E5EFA6B529F0262EB0FFE994,,millimetre,WHOS,-17.61,-54.9389,,Brazil,ANA,Rio Paraguay,66493000
F1882D3F86A0135E9D0E7567AAC7CC99A6520C73,F1882D3F86A0135E9D0E7567AAC7CC99A6520C73,D2DB8BC2930F82D1E5EFA6B529F0262EB0FFE994,,millimetre,WHOS,-14.3722,-46.3242,,Brazil,ANA,,21292000
8847D7C42D6C8731E8F5C2C3EA73B20C65BA317F,8847D7C42D6C8731E8F5C2C3EA73B20C65BA317F,D2DB8BC2930F82D1E5EFA6B529F0262EB0FFE994,,millimetre,WHOS,-22.7714,-44.0911,,Brazil,ANA,,58347000
6E492B06ED84398A08FA3ED49FAB014294AF7E2B,6E492B06ED84398A08FA3ED49FAB014294AF7E2B,D2DB8BC2930F82D1E5EFA6B529F0262EB0FFE994,,millimetre,WHOS,-23.9947,-52.2317,,Brazil,ANA,Rio Parana,64672100
98A55BE696B680F45CDFD04690C26E79BEE57C23,98A55BE696B680F45CDFD04690C26E79BEE57C23,D2DB8BC2930F82D1E5EFA6B529F0262EB0FFE994,,millimetre,WHOS,-28.6017,-51.6686,,Brazil,ANA,,86404100
D8BA4830EE493D8BEC92FD6478B4A9E9F5BD0E5B,D8BA4830EE493D8BEC92FD6478B4A9E9F5BD0E5B,D2DB8BC2930F82D1E5EFA6B529F0262EB0FFE994,,millimetre,WHOS,-27.6264,-50.9858,,Brazil,ANA,Rio Uruguay,71700000
386A4163EA3D8343C910333145298AB41C56A86F,386A4163EA3D8343C910333145298AB41C56A86F,D2DB8BC2930F82D1E5EFA6B529F0262EB0FFE994,,millimetre,WHOS,-16.6269,-43.3078,,Brazil,ANA,,54095080
35253CDACC8B14D75CAA9439066E5B4E88A95812,35253CDACC8B14D75CAA9439066E5B4E88A95812,D2DB8BC2930F82D1E5EFA6B529F0262EB0FFE994,,millimetre,WHOS,-15.1381,-58.9825,,Brazil,ANA,,15044100
6140E65B55B032BED8EEFC879BA0543FA523DC3F,6140E65B55B032BED8EEFC879BA0543FA523DC3F,D2DB8BC2930F82D1E5EFA6B529F0262EB0FFE994,,millimetre,WHOS,-16.3725,-45.07,,Brazil,ANA,,43200000
A2A956BAF8554EB8B017DB8285BE257A2996E56B,A2A956BAF8554EB8B017DB8285BE257A2996E56B,D2DB8BC2930F82D1E5EFA6B529F0262EB0FFE994,,millimetre,WHOS,-18.1608,-47.6472,,Brazil,ANA,Rio Parana,60051000
DEC729124C7CE9B327D3FA56DBC020A72390B51C,DEC729124C7CE9B327D3FA56DBC020A72390B51C,D2DB8BC2930F82D1E5EFA6B529F0262EB0FFE994,,millimetre,WHOS,-22.93,-46.8989,,Brazil,ANA,Rio Parana,62679000
874418270CBE43847AA27CF5B01CDDA6896427B3,874418270CBE43847AA27CF5B01CDDA6896427B3,D2DB8BC2930F82D1E5EFA6B529F0262EB0FFE994,,millimetre,WHOS,-14.4772,-56.3922,,Brazil,ANA,Rio Paraguay,66005100
DE1EB0224EE3F181C26648722FB194A0777442D3,DE1EB0224EE3F181C26648722FB194A0777442D3,D2DB8BC2930F82D1E5EFA6B529F0262EB0FFE994,,millimetre,WHOS,-20.2842,-47.0636,,Brazil,ANA,Rio Parana,61730080
A8A1C685515E6EFD8738810A83BB71F634CE6B01,A8A1C685515E6EFD8738810A83BB71F634CE6B01,D2DB8BC2930F82D1E5EFA6B529F0262EB0FFE994,,millimetre,WHOS,-21.3594,-43.0494,,Brazil,ANA,,58730080
06F53AE13E57594C5F6EAB8BE264AE968C5B2F91,06F53AE13E57594C5F6EAB8BE264AE968C5B2F91,D2DB8BC2930F82D1E5EFA6B529F0262EB0FFE994,,millimetre,WHOS,-22.2619,-48.81,,Brazil,ANA,Rio Parana,62741000
79E1CC797D6867583D3D8C5E9208ED027E65BE22,79E1CC797D6867583D3D8C5E9208ED027E65BE22,D2DB8BC2930F82D1E5EFA6B529F0262EB0FFE994,,millimetre,WHOS,-26.5492,-52.5311,,Brazil,ANA,Rio Uruguay,73100000
27B093EACC1DAC337E41B6901BFE45E683FD99A8,27B093EACC1DAC337E41B6901BFE45E683FD99A8,D2DB8BC2930F82D1E5EFA6B529F0262EB0FFE994,,millimetre,WHOS,-27.1756,-53.2297,,Brazil,ANA,Rio Uruguay,74100000
00BBEAFAC662743ED0023E34E4B16B5964160089,00BBEAFAC662743ED0023E34E4B16B5964160089,D2DB8BC2930F82D1E5EFA6B529F0262EB0FFE994,,millimetre,WHOS,-16.6075,-47.3258,,Brazil,ANA,Rio Parana,60018900
FEFCDC4EFCCD2B7BBC75472921CD3A65B5F968D8,FEFCDC4EFCCD2B7BBC75472921CD3A65B5F968D8,D2DB8BC2930F82D1E5EFA6B529F0262EB0FFE994,,millimetre,WHOS,-24.5122,-50.4111,,Brazil,ANA,Rio Parana,64464995
139D256D7C6780C7964B7816FA6A3E16EA383056,139D256D7C6780C7964B7816FA6A3E16EA383056,D2DB8BC2930F82D1E5EFA6B529F0262EB0FFE994,,millimetre,WHOS,-19.4144,-47.0436,,Brazil,ANA,Rio Parana,60290000
613AB5B670781E57A387EA9EB2094945A404FF80,613AB5B670781E57A387EA9EB2094945A404FF80,D2DB8BC2930F82D1E5EFA6B529F0262EB0FFE994,,millimetre,WHOS,-21.4569,-47.2711,,Brazil,ANA,Rio Parana,61828000
195D343FFF9DEBA57894FE4130E9A7DADAC693BB,195D343FFF9DEBA57894FE4130E9A7DADAC693BB,D2DB8BC2930F82D1E5EFA6B529F0262EB0FFE994,,millimetre,WHOS,-15.9581,-47.3747,,Brazil,ANA,,42449000
71D39622BB94F315DDB9B0FD2697F0FA413F139E,71D39622BB94F315DDB9B0FD2697F0FA413F139E,D2DB8BC2930F82D1E5EFA6B529F0262EB0FFE994,,millimetre,WHOS,-22.4775,-43.2569,,Brazil,ANA,,58400212
5CEB2404D412988C97152CABE8B61A5CA12AF378,5CEB2404D412988C97152CABE8B61A5CA12AF378,D2DB8BC2930F82D1E5EFA6B529F0262EB0FFE994,,millimetre,WHOS,-29.9803,-50.7439,,Brazil,ANA,,87398750
FE4DFE3A1F53FC59A13DFD9A3B6D72ACC8E9D88B,FE4DFE3A1F53FC59A13DFD9A3B6D72ACC8E9D88B,D2DB8BC2930F82D1E5EFA6B529F0262EB0FFE994,,millimetre,WHOS,-23.8864,-47.1369,,Brazil,ANA,,81429500
213FA387ED1E33B6A816A390B4CA56B4C584F552,213FA387ED1E33B6A816A390B4CA56B4C584F552,D2DB8BC2930F82D1E5EFA6B529F0262EB0FFE994,,millimetre,WHOS,-23.7667,-49.95,,Brazil,ANA,Rio Parana,64360000
68E7910938D2F908B823A326A0D1C28948A68C4D,68E7910938D2F908B823A326A0D1C28948A68C4D,D2DB8BC2930F82D1E5EFA6B529F0262EB0FFE994,,millimetre,WHOS,-14.7967,-49.1725,,Brazil,ANA,,20489100
08C405BC547A27A9D3ECBFF81C43C390FC7E9A7A,08C405BC547A27A9D3ECBFF81C43C390FC7E9A7A,D2DB8BC2930F82D1E5EFA6B529F0262EB0FFE994,,millimetre,WHOS,-17.3306,-52.8025,,Brazil,ANA,,24210100
D05B0A878904147B9C7A9F0B0BA6B2168C802A14,D05B0A878904147B9C7A9F0B0BA6B2168C802A14,D2DB8BC2930F82D1E5EFA6B529F0262EB0FFE994,,millimetre,WHOS,-23.4414,-52.6047,,Brazil,ANA,Rio Parana,64682000
D2B5ED1E93F21832C0E7D84E70ECAF39895E1EA9,D2B5ED1E93F21832C0E7D84E70ECAF39895E1EA9,D2DB8BC2930F82D1E5EFA6B529F0262EB0FFE994,,millimetre,WHOS,-26.9794,-52.3803,,Brazil,ANA,Rio Uruguay,73330250
3573C4920B3F4498FDAA6697A8FDA85EE64CE350,3573C4920B3F4498FDAA6697A8FDA85EE64CE350,D2DB8BC2930F82D1E5EFA6B529F0262EB0FFE994,,millimetre,WHOS,-26.7808,-51.9478,,Brazil,ANA,Rio Uruguay,73680800
0409C41130DFEDF7991E6EE2D85DA44C50986127,0409C41130DFEDF7991E6EE2D85DA44C50986127,D2DB8BC2930F82D1E5EFA6B529F0262EB0FFE994,,millimetre,WHOS,-19.245,-52.8794,,Brazil,ANA,Rio Parana,63001230
B6A29753493DCF5F4D88F0879068BBD6B5EF5274,B6A29753493DCF5F4D88F0879068BBD6B5EF5274,D2DB8BC2930F82D1E5EFA6B529F0262EB0FFE994,,millimetre,WHOS,-27.9631,-51.3375,,Brazil,ANA,Rio Uruguay,70842000
95CBB700BD75ADD5EABA9519648077A915F10512,95CBB700BD75ADD5EABA9519648077A915F10512,D2DB8BC2930F82D1E5EFA6B529F0262EB0FFE994,,millimetre,WHOS,-32.5408,-52.5394,,Brazil,ANA,,88060200
220328205A14CFE46E447EE9AA92B460E12F9C88,220328205A14CFE46E447EE9AA92B460E12F9C88,D2DB8BC2930F82D1E5EFA6B529F0262EB0FFE994,,millimetre,WHOS,-20.6744,-53.5667,,Brazil,ANA,Rio Parana,63920080
9B1A4B00037755C3E119EAAB515EC724CAA6EBE0,9B1A4B00037755C3E119EAAB515EC724CAA6EBE0,D2DB8BC2930F82D1E5EFA6B529F0262EB0FFE994,,millimetre,WHOS,-19.9564,-47.6086,,Brazil,ANA,Rio Parana,61740040
3681C2B3FCB4A4B103542307DEBD09AC24F3CA54,3681C2B3FCB4A4B103542307DEBD09AC24F3CA54,D2DB8BC2930F82D1E5EFA6B529F0262EB0FFE994,,millimetre,WHOS,-24.1511,-47.5547,,Brazil,ANA,,81499085
6A4E92502E26BCE4566C2D0253E80E9719A097E7,6A4E92502E26BCE4566C2D0253E80E9719A097E7,D2DB8BC2930F82D1E5EFA6B529F0262EB0FFE994,,millimetre,WHOS,-23.3106,-45.9711,,Brazil,ANA,,58110000
A0AFC85000908BE9CF15451B9FEE8B5B36B240B5,A0AFC85000908BE9CF15451B9FEE8B5B36B240B5,D2DB8BC2930F82D1E5EFA6B529F0262EB0FFE994,,millimetre,WHOS,-23.2033,-47.3017,,Brazil,ANA,Rio Parana,62379050
44780CB21DAE6292D18DD64371E54E045D728D40,44780CB21DAE6292D18DD64371E54E045D728D40,D2DB8BC2930F82D1E5EFA6B529F0262EB0FFE994,,millimetre,WHOS,-29.7486,-57.0886,,Brazil,ANA,Rio Uruguay,77150000
4110A50BB4EC6CFE63115D17000D54BB75DD64B2,4110A50BB4EC6CFE63115D17000D54BB75DD64B2,D2DB8BC2930F82D1E5EFA6B529F0262EB0FFE994,,millimetre,WHOS,-27.3997,-49.0325,,Brazil,ANA,,84034500
0BC15F36AE4A218857949DD8DEF1130C068B25ED,0BC15F36AE4A218857949DD8DEF1130C068B25ED,D2DB8BC2930F82D1E5EFA6B529F0262EB0FFE994,,millimetre,WHOS,-19.0531,-52.9936,,Brazil,ANA,Rio Parana,63001130
FE57E51138956699A73FABD9B4D57E4637003ABE,FE57E51138956699A73FABD9B4D57E4637003ABE,D2DB8BC2930F82D1E5EFA6B529F0262EB0FFE994,,millimetre,WHOS,-25.2431,-48.7481,,Brazil,ANA,,82065000
36632092122AB509CE1E669A7256A8446C7974A5,36632092122AB509CE1E669A7256A8446C7974A5,D2DB8BC2930F82D1E5EFA6B529F0262EB0FFE994,,millimetre,WHOS,-14.8569,-53.2919,,Brazil,ANA,,26053120
4CC11EBBE87BFC6E2E614C389008317CE55ADB12,4CC11EBBE87BFC6E2E614C389008317CE55ADB12,D2DB8BC2930F82D1E5EFA6B529F0262EB0FFE994,,millimetre,WHOS,-15.1322,-58.7297,,Brazil,ANA,Rio Paraguay,66071380
293590FCF277F9903FDB303C7B9F281962D78E30,293590FCF277F9903FDB303C7B9F281962D78E30,D2DB8BC2930F82D1E5EFA6B529F0262EB0FFE994,,millimetre,WHOS,-21.7217,-46.4556,,Brazil,ANA,Rio Parana,61802502
403C9BC28C0F5BB4E134BBC8C5B9BAF981A605CF,403C9BC28C0F5BB4E134BBC8C5B9BAF981A605CF,D2DB8BC2930F82D1E5EFA6B529F0262EB0FFE994,,millimetre,WHOS,-15.4686,-57.8936,,Brazil,ANA,Rio Paraguay,66064000
436B9527AD1C601E03AF21DE23C83E2DAB6C032B,436B9527AD1C601E03AF21DE23C83E2DAB6C032B,D2DB8BC2930F82D1E5EFA6B529F0262EB0FFE994,,millimetre,WHOS,-19.5481,-52.505,,Brazil,ANA,Rio Parana,63001740
3AA6440C7E345BE90700B39636D2073CE515315F,3AA6440C7E345BE90700B39636D2073CE515315F,D2DB8BC2930F82D1E5EFA6B529F0262EB0FFE994,,millimetre,WHOS,-25.9922,-52.7858,,Brazil,ANA,Rio Parana,65945600
B414D9A1A2FB057F09A21586E5AB76B50C7D808F,B414D9A1A2FB057F09A21586E5AB76B50C7D808F,D2DB8BC2930F82D1E5EFA6B529F0262EB0FFE994,,millimetre,WHOS,-26.7567,-49.4567,,Brazil,ANA,,83590000
D84E94798B517764B817DB1175826461293EA02D,D84E94798B517764B817DB1175826461293EA02D,D2DB8BC2930F82D1E5EFA6B529F0262EB0FFE994,,millimetre,WHOS,-28.9714,-51.4611,,Brazil,ANA,,86447000
BA8A947939693D3582578334A7212CCC48860F9D,BA8A947939693D3582578334A7212CCC48860F9D,D2DB8BC2930F82D1E5EFA6B529F0262EB0FFE994,,millimetre,WHOS,-22.0397,-43.78,,Brazil,ANA,,58548400
6001F965A43A83DDA4D042CC0996CF1DD4239CE1,6001F965A43A83DDA4D042CC0996CF1DD4239CE1,D2DB8BC2930F82D1E5EFA6B529F0262EB0FFE994,,millimetre,WHOS,-31.1475,-54.7594,,Brazil,ANA,Rio Uruguay,87409000
3653B547CADE9C650CC456AED5DBDC616A53C694,3653B547CADE9C650CC456AED5DBDC616A53C694,D2DB8BC2930F82D1E5EFA6B529F0262EB0FFE994,,millimetre,WHOS,-27.6,-49.5061,,Brazil,ANA,,83130000
1353FE4F818F90D9877614D25CD76023CB5192AA,1353FE4F818F90D9877614D25CD76023CB5192AA,D2DB8BC2930F82D1E5EFA6B529F0262EB0FFE994,,millimetre,WHOS,-15.2622,-58.7222,,Brazil,ANA,Rio Paraguay,66071390
8F45DC03A9ACF00707EB8653A34D00C3EC2B680A,8F45DC03A9ACF00707EB8653A34D00C3EC2B680A,D2DB8BC2930F82D1E5EFA6B529F0262EB0FFE994,,millimetre,WHOS,-19.9794,-53.2694,,Brazil,ANA,Rio Parana,63250950
3717689D44CA81895507009528BC0418C022F5A5,3717689D44CA81895507009528BC0418C022F5A5,D2DB8BC2930F82D1E5EFA6B529F0262EB0FFE994,,millimetre,WHOS,-22.9864,-51.8222,,Brazil,ANA,Rio Parana,64547500
6E1477A86E366BD93C8A1A07955940B8DA18E1B1,6E1477A86E366BD93C8A1A07955940B8DA18E1B1,D2DB8BC2930F82D1E5EFA6B529F0262EB0FFE994,,millimetre,WHOS,-21.9531,-49.0269,,Brazil,ANA,Rio Parana,62758000
F4E4198485B642CEFAA45FE597D2B013B13E242F,F4E4198485B642CEFAA45FE597D2B013B13E242F,D2DB8BC2930F82D1E5EFA6B529F0262EB0FFE994,,millimetre,WHOS,-28.6189,-51.4011,,Brazil,ANA,,86406000
A540C0B795893D6BA80FCDFE164A83FE7360D25B,A540C0B795893D6BA80FCDFE164A83FE7360D25B,D2DB8BC2930F82D1E5EFA6B529F0262EB0FFE994,,millimetre,WHOS,-24.0178,-48.7242,,Brazil,ANA,Rio Parana,64115000
85A627E9B55005B9930F02379FE5ED6245B8A81D,85A627E9B55005B9930F02379FE5ED6245B8A81D,D2DB8BC2930F82D1E5EFA6B529F0262EB0FFE994,,millimetre,WHOS,-27.33,-49.33,,Brazil,ANA,,83892990
87177398F01DC31564E9788C217DCDC0CA9650CF,87177398F01DC31564E9788C217DCDC0CA9650CF,D2DB8BC2930F82D1E5EFA6B529F0262EB0FFE994,,millimetre,WHOS,-21.4239,-47.325,,Brazil,ANA,Rio Parana,61828500
870F443EB947EB840E5638F29FF67A0B637D02B0,870F443EB947EB840E5638F29FF67A0B637D02B0,D2DB8BC2930F82D1E5EFA6B529F0262EB0FFE994,,millimetre,WHOS,-24.2411,-49.485,,Brazil,ANA,Rio Parana,64230200
F42DED863E4B6CB2AE5CAA8EC4C6F591E50EC0C6,F42DED863E4B6CB2AE5CAA8EC4C6F591E50EC0C6,D2DB8BC2930F82D1E5EFA6B529F0262EB0FFE994,,millimetre,WHOS,-28.3553,-54.2675,,Brazil,ANA,Rio Uruguay,75230000
CF5416E46FF9A139B5010D1449F45A40E4728B0C,CF5416E46FF9A139B5010D1449F45A40E4728B0C,D2DB8BC2930F82D1E5EFA6B529F0262EB0FFE994,,millimetre,WHOS,-28.8644,-50.5622,,Brazil,ANA,,86102000
572BB2614C753E9793623D2420E3AFB993AA8F4B,572BB2614C753E9793623D2420E3AFB993AA8F4B,D2DB8BC2930F82D1E5EFA6B529F0262EB0FFE994,,millimetre,WHOS,-23.3292,-46.6783,,Brazil,ANA,Rio Parana,62346500
CE043C3ECEFE79BB123F7C01D123DAB063086DBC,CE043C3ECEFE79BB123F7C01D123DAB063086DBC,D2DB8BC2930F82D1E5EFA6B529F0262EB0FFE994,,millimetre,WHOS,-29.9689,-50.1381,,Brazil,ANA,,87111000
2EEE6210DD32ABEDB999064A7021889BCB0FE85E,2EEE6210DD32ABEDB999064A7021889BCB0FE85E,D2DB8BC2930F82D1E5EFA6B529F0262EB0FFE994,,millimetre,WHOS,-17.0303,-46.0136,,Brazil,ANA,,42690001
45DDCBBC2628385AA2FAB093C3C2955E9D68ED71,45DDCBBC2628385AA2FAB093C3C2955E9D68ED71,D2DB8BC2930F82D1E5EFA6B529F0262EB0FFE994,,millimetre,WHOS,-27.4858,-50.3917,,Brazil,ANA,Rio Uruguay,71385400
C441395D1635B0F2583914982A9A0A0EC54ED754,C441395D1635B0F2583914982A9A0A0EC54ED754,D2DB8BC2930F82D1E5EFA6B529F0262EB0FFE994,,millimetre,WHOS,-19.3317,-43.0703,,Brazil,ANA,,56787100
74C24BB9A2E315DFE4B31C9910791647D697FBA4,74C24BB9A2E315DFE4B31C9910791647D697FBA4,D2DB8BC2930F82D1E5EFA6B529F0262EB0FFE994,,millimetre,WHOS,-21.6014,-46.9494,,Brazil,ANA,Rio Parana,61818080
E9958F570C6BFF45FF2D7C4A6545119F7F73733C,E9958F570C6BFF45FF2D7C4A6545119F7F73733C,D2DB8BC2930F82D1E5EFA6B529F0262EB0FFE994,,millimetre,WHOS,-28.2628,-50.7608,,Brazil,ANA,Rio Uruguay,70710000
0F744A3B8055CC8E1FA6A78F73C138F867654466,0F744A3B8055CC8E1FA6A78F73C138F867654466,D2DB8BC2930F82D1E5EFA6B529F0262EB0FFE994,,millimetre,WHOS,-28.0819,-51.2583,,Brazil,ANA,Rio Uruguay,70841500
33BD2F8FDBDE0C6B04B1CB41BA5B4E1488A0B434,33BD2F8FDBDE0C6B04B1CB41BA5B4E1488A0B434,D2DB8BC2930F82D1E5EFA6B529F0262EB0FFE994,,millimetre,WHOS,-23.9722,-47.3872,,Brazil,ANA,,81499200
6162BCEDE99BDDB6C933FE1B6CED32A6E18BEC0D,6162BCEDE99BDDB6C933FE1B6CED32A6E18BEC0D,D2DB8BC2930F82D1E5EFA6B529F0262EB0FFE994,,millimetre,WHOS,-29.1175,-56.5544,,Brazil,ANA,Rio Uruguay,75900000
271EE560F5906AA099613A32F68E5D0F08D40370,271EE560F5906AA099613A32F68E5D0F08D40370,D2DB8BC2930F82D1E5EFA6B529F0262EB0FFE994,,millimetre,WHOS,-19.1411,-52.3814,,Brazil,ANA,Rio Parana,63001608
2C6459F4861789647E848B5B14F5050A89E3B546,2C6459F4861789647E848B5B14F5050A89E3B546,D2DB8BC2930F82D1E5EFA6B529F0262EB0FFE994,,millimetre,WHOS,-21.8194,-48.8281,,Brazil,ANA,Rio Parana,62780700
43D355482DE3B92000CB33625FFDFC88045010BF,43D355482DE3B92000CB33625FFDFC88045010BF,D2DB8BC2930F82D1E5EFA6B529F0262EB0FFE994,,millimetre,WHOS,-21.2739,-50.2917,,Brazil,ANA,Rio Parana,62849500
F2B328506BD67048BC41AC67D9CEA5A56CA1B425,F2B328506BD67048BC41AC67D9CEA5A56CA1B425,D2DB8BC2930F82D1E5EFA6B529F0262EB0FFE994,,millimetre,WHOS,-27.8572,-51.3814,,Brazil,ANA,Rio Uruguay,70843500
02B1DC1D4E677523B62D178FD30C169147DEC3E4,02B1DC1D4E677523B62D178FD30C169147DEC3E4,D2DB8BC2930F82D1E5EFA6B529F0262EB0FFE994,,millimetre,WHOS,-21.9389,-46.8161,,Brazil,ANA,Rio Parana,61895020
E33F76BD6B4732773ECC0B84BC0D6277068D011D,E33F76BD6B4732773ECC0B84BC0D6277068D011D,D2DB8BC2930F82D1E5EFA6B529F0262EB0FFE994,,millimetre,WHOS,-15.5142,-49.4853,,Brazil,ANA,,20130000
1CFEA1B7C337F7158E3272F3FA003DDB0536848F,1CFEA1B7C337F7158E3272F3FA003DDB0536848F,D2DB8BC2930F82D1E5EFA6B529F0262EB0FFE994,,millimetre,WHOS,-16.1917,-47.1692,,Brazil,ANA,,42470500
EFA9906B8B677505CD77C9C7EEA0D7734DE79C82,EFA9906B8B677505CD77C9C7EEA0D7734DE79C82,D2DB8BC2930F82D1E5EFA6B529F0262EB0FFE994,,millimetre,WHOS,-25.4878,-51.7378,,Brazil,ANA,Rio Parana,65813100
9CF5BDE9E1CC93FD38143117F76B7DF0384C16F6,9CF5BDE9E1CC93FD38143117F76B7DF0384C16F6,D2DB8BC2930F82D1E5EFA6B529F0262EB0FFE994,,millimetre,WHOS,-14.7106,-58.1025,,Brazil,ANA,Rio Paraguay,66051000
19E0C950A8A5559BCA061174E7AF834D4104CBEC,19E0C950A8A5559BCA061174E7AF834D4104CBEC,D2DB8BC2930F82D1E5EFA6B529F0262EB0FFE994,,millimetre,WHOS,-26.6808,-52.0442,,Brazil,ANA,Rio Uruguay,73582000
8C54586EDA7E285A9365A34ECA4E7F44E96AE78C,8C54586EDA7E285A9365A34ECA4E7F44E96AE78C,D2DB8BC2930F82D1E5EFA6B529F0262EB0FFE994,,millimetre,WHOS,-18.5589,-53.1375,,Brazil,ANA,Rio Parana,63001100
5C269250E315E5CFBFB48533F86201D33000E124,5C269250E315E5CFBFB48533F86201D33000E124,D2DB8BC2930F82D1E5EFA6B529F0262EB0FFE994,,millimetre,WHOS,-24.1683,-48.7142,,Brazil,ANA,Rio Parana,64101000
503091DD1C0AD42C761ECD25410C993C20A77AE5,503091DD1C0AD42C761ECD25410C993C20A77AE5,D2DB8BC2930F82D1E5EFA6B529F0262EB0FFE994,,millimetre,WHOS,-22.6983,-47.6211,,Brazil,ANA,Rio Parana,62697240
0C7DBCC229E69A4EA4F497A364F118D2775ED51D,0C7DBCC229E69A4EA4F497A364F118D2775ED51D,D2DB8BC2930F82D1E5EFA6B529F0262EB0FFE994,,millimetre,WHOS,-19.9483,-44.3056,,Brazil,ANA,,40799000
572C45FE927F901BBC60ABBA3BA35DD111B98961,572C45FE927F901BBC60ABBA3BA35DD111B98961,D2DB8BC2930F82D1E5EFA6B529F0262EB0FFE994,,millimetre,WHOS,-21.4947,-43.4189,,Brazil,ANA,,58753180
9C1D34DD7CDF7894E4DF2A2D2D23F77503E76380,9C1D34DD7CDF7894E4DF2A2D2D23F77503E76380,D2DB8BC2930F82D1E5EFA6B529F0262EB0FFE994,,millimetre,WHOS,-27.5703,-52.6781,,Brazil,ANA,Rio Uruguay,73448000
DEE6CCD89AF219C80FB5436857A350F6DD9BE856,DEE6CCD89AF219C80FB5436857A350F6DD9BE856,D2DB8BC2930F82D1E5EFA6B529F0262EB0FFE994,,millimetre,WHOS,-24.1886,-48.7297,,Brazil,ANA,Rio Parana,64099000
A9F8E9D9230334EB4AFFA1CFD8FD718AB8A13E09,A9F8E9D9230334EB4AFFA1CFD8FD718AB8A13E09,D2DB8BC2930F82D1E5EFA6B529F0262EB0FFE994,,millimetre,WHOS,-23.1058,-46.5958,,Brazil,ANA,Rio Parana,62671200
9C934662D98AEB9BC0DB1E912DB1572B134A9D24,9C934662D98AEB9BC0DB1E912DB1572B134A9D24,D2DB8BC2930F82D1E5EFA6B529F0262EB0FFE994,,millimetre,WHOS,-26.0389,-52.9331,,Brazil,ANA,Rio Parana,65954900
21C2A10D80AC2959919AD0C328BBFEE50840B943,21C2A10D80AC2959919AD0C328BBFEE50840B943,D2DB8BC2930F82D1E5EFA6B529F0262EB0FFE994,,millimetre,WHOS,-24.0814,-47.4767,,Brazil,ANA,,81498080
2FDF62247C26A549820DD88F46B09DEDBBC40FE2,2FDF62247C26A549820DD88F46B09DEDBBC40FE2,D2DB8BC2930F82D1E5EFA6B529F0262EB0FFE994,,millimetre,WHOS,-16.4789,-54.6506,,Brazil,ANA,Rio Paraguay,66450010
34559B37AF306F1B1F3E04611E5A4C9C15890147,34559B37AF306F1B1F3E04611E5A4C9C15890147,D2DB8BC2930F82D1E5EFA6B529F0262EB0FFE994,,millimetre,WHOS,-22.0536,-45.6992,,Brazil,ANA,Rio Parana,61410000
F674B49C15D6C4E734BC0179CE2916090BA4B368,F674B49C15D6C4E734BC0179CE2916090BA4B368,D2DB8BC2930F82D1E5EFA6B529F0262EB0FFE994,,millimetre,WHOS,-29.7683,-55.7875,,Brazil,ANA,Rio Uruguay,76750000
209FA047B580A3539A75F9D0D7CF303605B27860,209FA047B580A3539A75F9D0D7CF303605B27860,D2DB8BC2930F82D1E5EFA6B529F0262EB0FFE994,,millimetre,WHOS,-19.9028,-43.6664,,Brazil,ANA,,41210000
D179A4F73F6F2344CA2F2598FD2DED54C7115398,D179A4F73F6F2344CA2F2598FD2DED54C7115398,D2DB8BC2930F82D1E5EFA6B529F0262EB0FFE994,,millimetre,WHOS,-29.0058,-51.3853,,Brazil,ANA,,86305000
7DBA65F3C4A2F10411C32D7DCA5A210FFDC6A275,7DBA65F3C4A2F10411C32D7DCA5A210FFDC6A275,D2DB8BC2930F82D1E5EFA6B529F0262EB0FFE994,,millimetre,WHOS,-27.9453,-52.5811,,Brazil,ANA,Rio Uruguay,73390000
0661DAD08D78B2CF346EBFDF7466385B7372211A,0661DAD08D78B2CF346EBFDF7466385B7372211A,D2DB8BC2930F82D1E5EFA6B529F0262EB0FFE994,,millimetre,WHOS,-21.7031,-45.2481,,Brazil,ANA,Rio Parana,61511000
948E9A14DB864E1B4195E0E5FD296C8C89410B81,948E9A14DB864E1B4195E0E5FD296C8C89410B81,D2DB8BC2930F82D1E5EFA6B529F0262EB0FFE994,,millimetre,WHOS,-24.2228,-49.4858,,Brazil,ANA,Rio Parana,64230230
D4B3F363658BE5956899C93950ACFEFF80DB2D14,D4B3F363658BE5956899C93950ACFEFF80DB2D14,D2DB8BC2930F82D1E5EFA6B529F0262EB0FFE994,,millimetre,WHOS,-17.3656,-56.7747,,Brazil,ANA,Rio Paraguay,66710000
E8A363BD24877A003CCB0920945472A73D2FEB26,E8A363BD24877A003CCB0920945472A73D2FEB26,D2DB8BC2930F82D1E5EFA6B529F0262EB0FFE994,,millimetre,WHOS,-15.2378,-58.7297,,Brazil,ANA,Rio Paraguay,66071385
6B7D60DDB0862E6A4E01799F48F8BF0D39BD15AC,6B7D60DDB0862E6A4E01799F48F8BF0D39BD15AC,D2DB8BC2930F82D1E5EFA6B529F0262EB0FFE994,,millimetre,WHOS,-21.3203,-44.87,,Brazil,ANA,Rio Parana,61078500
FA819760640C73C12A201298F7E75341A7D2DF98,FA819760640C73C12A201298F7E75341A7D2DF98,D2DB8BC2930F82D1E5EFA6B529F0262EB0FFE994,,millimetre,WHOS,-20.4375,-47.8906,,Brazil,ANA,Rio Parana,61784500
A70D13E25A2671F7D63A187C881CE50FF4FF403C,A70D13E25A2671F7D63A187C881CE50FF4FF403C,D2DB8BC2930F82D1E5EFA6B529F0262EB0FFE994,,millimetre,WHOS,-26.8992,-49.6628,,Brazil,ANA,,83349600
38070F2D8BC7D54CDA4F34FE86F1975D219D9789,38070F2D8BC7D54CDA4F34FE86F1975D219D9789,D2DB8BC2930F82D1E5EFA6B529F0262EB0FFE994,,millimetre,WHOS,-14.6111,-53.9986,,Brazil,ANA,,18409000
F3ECC7928544F2D67F726A2EC4EED9E2AE9970B8,F3ECC7928544F2D67F726A2EC4EED9E2AE9970B8,D2DB8BC2930F82D1E5EFA6B529F0262EB0FFE994,,millimetre,WHOS,-14.4508,-47.0472,,Brazil,ANA,,21220000
27A95E49D7C10B62F3C7224AB42A6FF1F840B242,27A95E49D7C10B62F3C7224AB42A6FF1F840B242,D2DB8BC2930F82D1E5EFA6B529F0262EB0FFE994,,millimetre,WHOS,-27.7661,-54.6236,,Brazil,ANA,Rio Uruguay,74761000
9B0292B0683B9305D88752D58AAC34CF8C4ECB6A,9B0292B0683B9305D88752D58AAC34CF8C4ECB6A,D2DB8BC2930F82D1E5EFA6B529F0262EB0FFE994,,millimetre,WHOS,-19.7667,-43.0261,,Brazil,ANA,,56661000
7DCD3342B34C4F9C86585F16860DA558047D081C,7DCD3342B34C4F9C86585F16860DA558047D081C,D2DB8BC2930F82D1E5EFA6B529F0262EB0FFE994,,millimetre,WHOS,-25.8081,-48.9944,,Brazil,ANA,,82230015
30C5615F875B03EC74FAB1F0835EF90E570DF72E,30C5615F875B03EC74FAB1F0835EF90E570DF72E,D2DB8BC2930F82D1E5EFA6B529F0262EB0FFE994,,millimetre,WHOS,-28.9414,-51.7694,,Brazil,ANA,,86505500
1DEE03110AFFD2B2A4B83113996150D0B0A91EE9,1DEE03110AFFD2B2A4B83113996150D0B0A91EE9,D2DB8BC2930F82D1E5EFA6B529F0262EB0FFE994,,millimetre,WHOS,-25.0881,-48.8272,,Brazil,ANA,,81303001
4552A4864679C04AE66586FA458A70C64BB8D0E3,4552A4864679C04AE66586FA458A70C64BB8D0E3,D2DB8BC2930F82D1E5EFA6B529F0262EB0FFE994,,millimetre,WHOS,-18.1908,-44.5556,,Brazil,ANA,,41940000
84EF1293E14DCCAA114617BFB2DAAFCDF8F53980,84EF1293E14DCCAA114617BFB2DAAFCDF8F53980,D2DB8BC2930F82D1E5EFA6B529F0262EB0FFE994,,millimetre,WHOS,-19.8028,-43.0067,,Brazil,ANA,,56666000
