STATION_ID,EXTERNAL_LOCATION_ID,EXTERNAL_PARAMETER_ID,TIMESTEP_HOUR,UNIT,IMPORT_SOURCE,THRESHOLD_YELLOW,THRESHOLD_ORANGE,THRESHOLD_RED,THRESHOLD_MEAN,THRESHOLD_P05,THRESHOLD_P10,THRESHOLD_P90,THRESHOLD_P95,IMPORT,LATITUDE,LONGITUDE,ALTITUDE,TYPE,COUNTRY,ORGANIZATION,SUBBASIN
0-76-4-63001560,E0BE1E7F4CEBBEABEABC9B1D6464FBBF803CF33B,AEAF735EBFC73611C8A50B6D0319BD4258B45918,24.0,millimetre,WHOS,,,,,,,,,True,-19.4764,-52.5397,,,Brazil,WHOS,Rio Parana
0-76-4-75188000,880827C2CDE69C29795477E076BB0CB6DA95A78D,AEAF735EBFC73611C8A50B6D0319BD4258B45918,24.0,millimetre,WHOS,,,,,,,,,True,-28.5383,-53.8633,,,Brazil,WHOS,Rio Uruguay
0-76-4-58350001,0D967575300B274721DCC61A91C3891E83F27F1D,AEAF735EBFC73611C8A50B6D0319BD4258B45918,24.0,millimetre,WHOS,,,,,,,,,True,-22.6625,-43.9567,,,Brazil,WHOS,
0-76-4-86306000,C936382164E6AD92798F51A9FC28188E148A863F,AEAF735EBFC73611C8A50B6D0319BD4258B45918,24.0,millimetre,WHOS,,,,,,,,,True,-29.0133,-51.3675,,,Brazil,WHOS,
0-76-4-86879300,D62A11B2653C6DB5D26F22EC299A8C455A381D56,AEAF735EBFC73611C8A50B6D0319BD4258B45918,24.0,millimetre,WHOS,,,,,,,,,True,-29.4733,-51.9622,,,Brazil,WHOS,
0-76-4-40100000,E39EDCAF01C5FB1D08599A22EDBE38EDB54E8832,AEAF735EBFC73611C8A50B6D0319BD4258B45918,24.0,millimetre,WHOS,,,,,,,,,True,-19.2814,-45.2753,,,Brazil,WHOS,
0-76-4-76115400,48944B08873CCB54D4272E13977324252B4D9238,AEAF735EBFC73611C8A50B6D0319BD4258B45918,24.0,millimetre,WHOS,,,,,,,,,True,-29.4017,-53.9408,,,Brazil,WHOS,Rio Uruguay
0-76-4-88150900,D4E4E93A850E295BA6401B0331DF8CDF93045122,AEAF735EBFC73611C8A50B6D0319BD4258B45918,24.0,millimetre,WHOS,,,,,,,,,True,-32.8336,-52.6436,,,Brazil,WHOS,
0-76-4-60500100,EB34CFC8CD3408A5DAE4F8C8237ECB881E2176D2,AEAF735EBFC73611C8A50B6D0319BD4258B45918,24.0,millimetre,WHOS,,,,,,,,,True,-16.7856,-47.8844,,,Brazil,WHOS,Rio Parana
0-76-4-61784500,0447C000E0774E9927389BC55EC6964528E72367,AEAF735EBFC73611C8A50B6D0319BD4258B45918,24.0,millimetre,WHOS,,,,,,,,,True,-20.4375,-47.8906,,,Brazil,WHOS,Rio Parana
0-76-4-64501000,6D23B6E7F41F6D7D3266FA209B2A3F376D8C9163,AEAF735EBFC73611C8A50B6D0319BD4258B45918,24.0,millimetre,WHOS,,,,,,,,,True,-23.6372,-50.9233,,,Brazil,WHOS,Rio Parana
0-76-4-60783000,408053F701E717D5722C3A8CD36BA100571CEEFD,AEAF735EBFC73611C8A50B6D0319BD4258B45918,24.0,millimetre,WHOS,,,,,,,,,True,-17.3661,-50.6419,,,Brazil,WHOS,Rio Parana
0-76-4-60711010,970A808CBD86449AE9D45D484CC7307CABFF76F2,AEAF735EBFC73611C8A50B6D0319BD4258B45918,24.0,millimetre,WHOS,,,,,,,,,True,-17.9744,-51.7603,,,Brazil,WHOS,Rio Parana
0-76-4-84580000,923E07D744A296562C31A7180B9693089D0D097F,AEAF735EBFC73611C8A50B6D0319BD4258B45918,24.0,millimetre,WHOS,,,,,,,,,True,-28.4206,-49.1064,,,Brazil,WHOS,
0-76-0-3542602000000538,30A68976704160A10561D2B0DC184CEEF2A4D3C4,AEAF735EBFC73611C8A50B6D0319BD4258B45918,24.0,millimetre,WHOS,,,,,,,,,True,-24.53305554,-47.86416666,,,Brazil,INMET,
0-76-0-3129806000000378,CFDAA4674D1B46145509569DACC686632B987D54,AEAF735EBFC73611C8A50B6D0319BD4258B45918,24.0,millimetre,WHOS,,,,,,,,,True,-20.031457,-44.011249,,,Brazil,INMET,
0-76-4-56640001,762CDC59EB533A3F14D1C7B0902695CA5D121A04,AEAF735EBFC73611C8A50B6D0319BD4258B45918,24.0,millimetre,WHOS,,,,,,,,,True,-19.9714,-43.4561,,,Brazil,WHOS,
0-76-4-61895050,A674BE162C3CB53E4A2A12C6715AD22D4C86D7C5,AEAF735EBFC73611C8A50B6D0319BD4258B45918,24.0,millimetre,WHOS,,,,,,,,,True,-21.9297,-46.8164,,,Brazil,WHOS,Rio Parana
0-76-0-4111407000000082,1AC514372F5FED1A1A826F35D6AE421CE09517CF,AEAF735EBFC73611C8A50B6D0319BD4258B45918,24.0,millimetre,WHOS,,,,,,,,,True,-25.01083333,-50.85388888,,,Brazil,INMET,Rio Parana
0-76-4-88009000,6E27840C833E915B0632A7BB1F33DB3B1224CAC9,AEAF735EBFC73611C8A50B6D0319BD4258B45918,24.0,millimetre,WHOS,,,,,,,,,True,-33.5022,-53.1478,,,Brazil,WHOS,
0-76-0-3139003000000552,8870B4CF06B28FFF6EA2D61368DA4763E31F5469,AEAF735EBFC73611C8A50B6D0319BD4258B45918,24.0,millimetre,WHOS,,,,,,,,,True,-21.680722,-45.944389,,,Brazil,INMET,Rio Parana
0-76-0-5107750000000283,301B0A3211077AA2CCA05F9458E1A503F8D7B1F3,AEAF735EBFC73611C8A50B6D0319BD4258B45918,24.0,millimetre,WHOS,,,,,,,,,True,-15.12472221,-58.12722221,,,Brazil,INMET,Rio Paraguay
0-76-4-3154016,D0341C55B6B567888C014C2CADEDA1BE16158C0A,AEAF735EBFC73611C8A50B6D0319BD4258B45918,24.0,millimetre,WHOS,,,,,,,,,True,-31.0222,-54.1847,,,Brazil,WHOS,Rio Uruguay
0-76-4-86160010,E7B906037E2BF3C0C085740B782FC6C0FB2DF50C,AEAF735EBFC73611C8A50B6D0319BD4258B45918,24.0,millimetre,WHOS,,,,,,,,,True,-28.8681,-50.4561,,,Brazil,WHOS,
0-76-0-5205109000000286,F6C5AA4468D737A19AA12FEB0DF93228760D77BE,AEAF735EBFC73611C8A50B6D0319BD4258B45918,24.0,millimetre,WHOS,,,,,,,,,True,-18.154779,-47.927614,,,Brazil,INMET,Rio Parana
0-76-4-60670100,83FD354FC177C33951D0C36BB2FCCAC2A0C57646,AEAF735EBFC73611C8A50B6D0319BD4258B45918,24.0,millimetre,WHOS,,,,,,,,,True,-17.3878,-49.2178,,,Brazil,WHOS,Rio Parana
0-76-4-24210100,16A422256C2D7B8A38B3809501D6B6ABB6A49ED2,AEAF735EBFC73611C8A50B6D0319BD4258B45918,24.0,millimetre,WHOS,,,,,,,,,True,-17.3306,-52.8025,,,Brazil,WHOS,
0-76-0-4219002000000368,F63399C6CBED268A234BA026306555FB7EF9F275,AEAF735EBFC73611C8A50B6D0319BD4258B45918,24.0,millimetre,WHOS,,,,,,,,,True,-28.53249999,-49.31527777,,,Brazil,INMET,
0-76-0-4312500000000315,D7533671E2BB8AE80D89C9F8E8F2A381CE62568E,AEAF735EBFC73611C8A50B6D0319BD4258B45918,24.0,millimetre,WHOS,,,,,,,,,True,-31.24833333,-50.90638888,,,Brazil,INMET,
0-76-4-72715000,7546E5179113F418A0FEE6E0AAC20CD8CE79A63B,AEAF735EBFC73611C8A50B6D0319BD4258B45918,24.0,millimetre,WHOS,,,,,,,,,True,-26.8958,-51.0756,,,Brazil,WHOS,Rio Uruguay
0-76-4-61684000,5F0C5EE04E623C91E96CB7D642B6F74357547675,AEAF735EBFC73611C8A50B6D0319BD4258B45918,24.0,millimetre,WHOS,,,,,,,,,True,-20.8533,-46.7031,,,Brazil,WHOS,Rio Parana
0-76-4-64390000,6ABDC96D2FE0710F6D0CC61987EF016EF673E854,AEAF735EBFC73611C8A50B6D0319BD4258B45918,24.0,millimetre,WHOS,,,,,,,,,True,-23.1225,-50.4503,,,Brazil,WHOS,Rio Parana
0-76-4-64444000,2E1B547F1C056DDC6834AEFDAE275C0E0054590B,AEAF735EBFC73611C8A50B6D0319BD4258B45918,24.0,millimetre,WHOS,,,,,,,,,True,-25.0756,-50.3889,,,Brazil,WHOS,Rio Parana
0-76-4-74200500,EA1BB426F1303550548E4C997D3DE1BEA465E1FD,AEAF735EBFC73611C8A50B6D0319BD4258B45918,24.0,millimetre,WHOS,,,,,,,,,True,-26.5406,-53.4375,,,Brazil,WHOS,Rio Uruguay
0-76-4-60229000,01E237EC1E74D5E727162526B060FA5CCCCCB600,AEAF735EBFC73611C8A50B6D0319BD4258B45918,24.0,millimetre,WHOS,,,,,,,,,True,-19.6553,-47.4497,,,Brazil,WHOS,Rio Parana
0-76-0-3556305000000245,9E307DDA4D2566E05CD4498D585AC2BAE2742ECE,AEAF735EBFC73611C8A50B6D0319BD4258B45918,24.0,millimetre,WHOS,,,,,,,,,True,-21.31916666,-50.93027777,,,Brazil,INMET,Rio Parana
0-76-4-87905000,47051AAEAF12C8B7B1C2C7EBACCCACA65866C040,AEAF735EBFC73611C8A50B6D0319BD4258B45918,24.0,millimetre,WHOS,,,,,,,,,True,-31.0119,-52.0525,,,Brazil,WHOS,
0-76-4-60960700,5805C52F3960099A4377C05E728E218973C746C1,AEAF735EBFC73611C8A50B6D0319BD4258B45918,24.0,millimetre,WHOS,,,,,,,,,True,-18.74,-52.2836,,,Brazil,WHOS,Rio Parana
0-76-4-64270080,2C17565E49B9E9B6FC03DE0F5F6FB568D99BBEED,AEAF735EBFC73611C8A50B6D0319BD4258B45918,24.0,millimetre,WHOS,,,,,,,,,True,-23.1281,-49.7317,,,Brazil,WHOS,Rio Parana
0-76-4-61197900,F5A7C6FC96A9AB1B41C70C1FA5DD6513097F6941,AEAF735EBFC73611C8A50B6D0319BD4258B45918,24.0,millimetre,WHOS,,,,,,,,,True,-20.7494,-44.9819,,,Brazil,WHOS,Rio Parana
0-76-4-66071385,50B43AB5BC6276CAFBC0430F40643C2F75453F1F,AEAF735EBFC73611C8A50B6D0319BD4258B45918,24.0,millimetre,WHOS,,,,,,,,,True,-15.2378,-58.7297,,,Brazil,WHOS,Rio Paraguay
0-76-0-5106307000000160,FD9EBD97BDF413E8E3A6C84BD8CC497E3BAE4263,AEAF735EBFC73611C8A50B6D0319BD4258B45918,24.0,millimetre,WHOS,,,,,,,,,True,-14.42138888,-54.0361111,,,Brazil,INMET,
0-76-4-61873600,D8ACABC50BC319A74CCF20CA70B7B7B92C30270F,AEAF735EBFC73611C8A50B6D0319BD4258B45918,24.0,millimetre,WHOS,,,,,,,,,True,-22.2592,-46.675,,,Brazil,WHOS,Rio Parana
0-76-4-44634500,5239B4A056EB97E52BAAECC42BD541A99934E987,AEAF735EBFC73611C8A50B6D0319BD4258B45918,24.0,millimetre,WHOS,,,,,,,,,True,-16.065,-43.7306,,,Brazil,WHOS,
0-76-4-3154011,385D894A3F0582BF3760719B4265C225337F79CF,AEAF735EBFC73611C8A50B6D0319BD4258B45918,24.0,millimetre,WHOS,,,,,,,,,True,-31.8661,-54.1672,,,Brazil,WHOS,
0-76-0-4110201000000117,1E5E02DB42BF2807728FA6C0D084588606DFE02C,AEAF735EBFC73611C8A50B6D0319BD4258B45918,24.0,millimetre,WHOS,,,,,,,,,True,-25.567879,-51.077946,,,Brazil,INMET,Rio Parana
0-76-4-61774200,AC0DF33F60C059213EDFB4B415C43FB76CB3C14D,AEAF735EBFC73611C8A50B6D0319BD4258B45918,24.0,millimetre,WHOS,,,,,,,,,True,-20.8533,-47.2669,,,Brazil,WHOS,Rio Parana
0-76-4-86404000,F02655F1DC248DCD5E07226C0F66D506B7012884,AEAF735EBFC73611C8A50B6D0319BD4258B45918,24.0,millimetre,WHOS,,,,,,,,,True,-28.5931,-51.3983,,,Brazil,WHOS,
0-76-4-82230815,94B9F54157385CAF7FE7B21BBAA605E4625904FB,AEAF735EBFC73611C8A50B6D0319BD4258B45918,24.0,millimetre,WHOS,,,,,,,,,True,-25.7122,-48.9706,,,Brazil,WHOS,
0-76-4-63000100,9E0485E938B2172997ABEA1E4AC080F1F72E1FB3,AEAF735EBFC73611C8A50B6D0319BD4258B45918,24.0,millimetre,WHOS,,,,,,,,,True,-18.5478,-53.1228,,,Brazil,WHOS,Rio Parana
0-76-4-86125120,B8E145D9C7558FE057984415E26A299D2ED76472,AEAF735EBFC73611C8A50B6D0319BD4258B45918,24.0,millimetre,WHOS,,,,,,,,,True,-28.5719,-51.3111,,,Brazil,WHOS,
0-76-4-73437000,B8E28A438382EC9A0281774630C5E4E2F4240B30,AEAF735EBFC73611C8A50B6D0319BD4258B45918,24.0,millimetre,WHOS,,,,,,,,,True,-27.4964,-52.8031,,,Brazil,WHOS,Rio Uruguay
0-76-4-61734080,77FF7D620295853E5765EF7043F15067197BB866,AEAF735EBFC73611C8A50B6D0319BD4258B45918,24.0,millimetre,WHOS,,,,,,,,,True,-20.0211,-47.4358,,,Brazil,WHOS,Rio Parana
0-76-4-56674000,6B2EA358BBA20DD0D94B198667AB3B6BE36358B4,AEAF735EBFC73611C8A50B6D0319BD4258B45918,24.0,millimetre,WHOS,,,,,,,,,True,-19.7686,-43.0358,,,Brazil,WHOS,
0-76-4-62400600,C5A7EBF93210A3054BE7A93F50056B06FB194BBB,AEAF735EBFC73611C8A50B6D0319BD4258B45918,24.0,millimetre,WHOS,,,,,,,,,True,-23.1083,-47.1806,,,Brazil,WHOS,Rio Parana
0-76-4-60551000,C162759D7A821CD6C2212DF3B967195E7D508C19,AEAF735EBFC73611C8A50B6D0319BD4258B45918,24.0,millimetre,WHOS,,,,,,,,,True,-18.4903,-46.9281,,,Brazil,WHOS,Rio Parana
0-76-4-64314700,78809EBB24DFD6AE4F03CF8F23E4475E18729622,AEAF735EBFC73611C8A50B6D0319BD4258B45918,24.0,millimetre,WHOS,,,,,,,,,True,-22.8453,-49.1622,,,Brazil,WHOS,Rio Parana
0-76-4-24500000,75B77C2B27FD1330D05003B1A5E2AE966EB11C7B,AEAF735EBFC73611C8A50B6D0319BD4258B45918,24.0,millimetre,WHOS,,,,,,,,,True,-16.0778,-53.5481,,,Brazil,WHOS,
0-76-0-3301702000000022,798E0C6F24EDEADBC7332374140ED55A3A7FE26E,AEAF735EBFC73611C8A50B6D0319BD4258B45918,24.0,millimetre,WHOS,,,,,,,,,True,-22.58972221,-43.28222221,,,Brazil,INMET,
0-76-4-65808500,957AA85C0CF2E35C02324B9E8AC01E613CA5DAD2,AEAF735EBFC73611C8A50B6D0319BD4258B45918,24.0,millimetre,WHOS,,,,,,,,,True,-25.4431,-51.4464,,,Brazil,WHOS,Rio Parana
0-76-4-81710000,83ED516E0606A257DA91030AC120DB494ED9C754,AEAF735EBFC73611C8A50B6D0319BD4258B45918,24.0,millimetre,WHOS,,,,,,,,,True,-24.6897,-48.0014,,,Brazil,WHOS,
0-76-4-60791800,40150A851E1A5BEAE1E222DEB5CDC61EFEEBBC6F,AEAF735EBFC73611C8A50B6D0319BD4258B45918,24.0,millimetre,WHOS,,,,,,,,,True,-17.6539,-50.4767,,,Brazil,WHOS,Rio Parana
0-76-4-64230400,B50A39F4EB15941B4E195E47F7E5C9494FC6F8CC,AEAF735EBFC73611C8A50B6D0319BD4258B45918,24.0,millimetre,WHOS,,,,,,,,,True,-24.1503,-49.4853,,,Brazil,WHOS,Rio Parana
0-76-4-72815000,C77DBE91666788714C6AFFC286E48ED77C30E74F,AEAF735EBFC73611C8A50B6D0319BD4258B45918,24.0,millimetre,WHOS,,,,,,,,,True,-27.0881,-51.2578,,,Brazil,WHOS,Rio Uruguay
0-76-4-64773750,92FC2EED2ED14376DA27F6BD87D6F0B2EF595CA9,AEAF735EBFC73611C8A50B6D0319BD4258B45918,24.0,millimetre,WHOS,,,,,,,,,True,-24.7644,-52.4308,,,Brazil,WHOS,Rio Parana
0-76-4-56650500,D46E2744563D46AC4588E10055B7DADC435C5FB6,AEAF735EBFC73611C8A50B6D0319BD4258B45918,24.0,millimetre,WHOS,,,,,,,,,True,-19.8411,-43.3528,,,Brazil,WHOS,
0-76-4-74695000,984E44A241AED9461C942005A425F970D3D1BC4B,AEAF735EBFC73611C8A50B6D0319BD4258B45918,24.0,millimetre,WHOS,,,,,,,,,True,-27.7294,-54.4094,,,Brazil,WHOS,Rio Uruguay
0-76-4-60910300,2E52EFBB8337502E2DF3B8E949AFB9362C41FEED,AEAF735EBFC73611C8A50B6D0319BD4258B45918,24.0,millimetre,WHOS,,,,,,,,,True,-18.5756,-51.4736,,,Brazil,WHOS,Rio Parana
0-76-4-64850050,742E4C575B0A3A589835881C0C5C9E4BAEC3263E,AEAF735EBFC73611C8A50B6D0319BD4258B45918,24.0,millimetre,WHOS,,,,,,,,,True,-24.4717,-53.9986,,,Brazil,WHOS,Rio Parana
0-76-4-74351000,2084F2D373A328097B1729BA47721EFF2AC4FD67,AEAF735EBFC73611C8A50B6D0319BD4258B45918,24.0,millimetre,WHOS,,,,,,,,,True,-27.5589,-53.5764,,,Brazil,WHOS,Rio Uruguay
0-76-4-56211500,DC4240A153556A6A5BB1D89A6085765D30D0B4F0,AEAF735EBFC73611C8A50B6D0319BD4258B45918,24.0,millimetre,WHOS,,,,,,,,,True,-20.4894,-43.4456,,,Brazil,WHOS,
0-76-4-60160080,E04D3168C62C6E7784E0C9C9DCD4859C8B2AEAF2,AEAF735EBFC73611C8A50B6D0319BD4258B45918,24.0,millimetre,WHOS,,,,,,,,,True,-18.4519,-47.9844,,,Brazil,WHOS,Rio Parana
0-76-4-87242000,83265C9A66B00B3D5D655BF0F3B284AD57A253B6,AEAF735EBFC73611C8A50B6D0319BD4258B45918,24.0,millimetre,WHOS,,,,,,,,,True,-30.1075,-51.3111,,,Brazil,WHOS,
0-76-4-83105000,1B29CD8DFB9142C03D135EEA4ED0BDEDBB342DD2,AEAF735EBFC73611C8A50B6D0319BD4258B45918,24.0,millimetre,WHOS,,,,,,,,,True,-27.6839,-49.3631,,,Brazil,WHOS,
0-76-4-61815900,0E8CC31BDC867436FBA1696BE4601F7DFC20DB4F,AEAF735EBFC73611C8A50B6D0319BD4258B45918,24.0,millimetre,WHOS,,,,,,,,,True,-21.5811,-46.7469,,,Brazil,WHOS,Rio Parana
0-76-0-4303905000000494,6B244C6962AE0EDC9B279C97E8172CEC6DF80BEF,AEAF735EBFC73611C8A50B6D0319BD4258B45918,24.0,millimetre,WHOS,,,,,,,,,True,-29.674293,-51.064042,,,Brazil,INMET,
0-76-4-59305071,D84B91B0984DA27351685429DDA58CBFA91F7D71,AEAF735EBFC73611C8A50B6D0319BD4258B45918,24.0,millimetre,WHOS,,,,,,,,,True,-22.9578,-43.2778,,,Brazil,WHOS,
0-76-4-60335080,6005C6E0D5C6E5F21FAC8F7D0CF2CA1E9A24A691,AEAF735EBFC73611C8A50B6D0319BD4258B45918,24.0,millimetre,WHOS,,,,,,,,,True,-19.1333,-47.6944,,,Brazil,WHOS,Rio Parana
0-76-4-24035000,7DC2D334109399F65303B9F8987024312146EC18,AEAF735EBFC73611C8A50B6D0319BD4258B45918,24.0,millimetre,WHOS,,,,,,,,,True,-17.3322,-53.205,,,Brazil,WHOS,
0-76-4-66171500,F22D8BE15D350EC34418ECBD3AFBEBF4AA417481,AEAF735EBFC73611C8A50B6D0319BD4258B45918,24.0,millimetre,WHOS,,,,,,,,,True,-15.0919,-55.4417,,,Brazil,WHOS,Rio Paraguay
0-76-4-42450600,B0E23DFBAA7B0B4D07F83F46E11DA39B4D69E300,AEAF735EBFC73611C8A50B6D0319BD4258B45918,24.0,millimetre,WHOS,,,,,,,,,True,-15.9428,-47.3636,,,Brazil,WHOS,
0-76-4-65980500,470FAA7A2F00DBFE9D685E1F83E83B983C49ABB7,AEAF735EBFC73611C8A50B6D0319BD4258B45918,24.0,millimetre,WHOS,,,,,,,,,True,-25.7692,-53.6111,,,Brazil,WHOS,Rio Parana
0-76-4-71498000,A2E6035D412B8D503EC7A2695134D70C26201175,AEAF735EBFC73611C8A50B6D0319BD4258B45918,24.0,millimetre,WHOS,,,,,,,,,True,-27.3339,-50.7539,,,Brazil,WHOS,Rio Uruguay
0-76-4-58400212,BE2AC2684CAA29153517D8C243156DF9AF7C1EB1,AEAF735EBFC73611C8A50B6D0319BD4258B45918,24.0,millimetre,WHOS,,,,,,,,,True,-22.4775,-43.2569,,,Brazil,WHOS,
0-76-4-63250950,D86319E8A8D9436212375814B51B9420C57B5CBA,AEAF735EBFC73611C8A50B6D0319BD4258B45918,24.0,millimetre,WHOS,,,,,,,,,True,-19.9794,-53.2694,,,Brazil,WHOS,Rio Parana
0-76-4-84531000,951A4BE40F4DC7F53AC91FFAA93926A87DB3CBD8,AEAF735EBFC73611C8A50B6D0319BD4258B45918,24.0,millimetre,WHOS,,,,,,,,,True,-28.0492,-49.13,,,Brazil,WHOS,
0-76-0-3106200000000597,7949FC3F0EB08589F5B344C71BD5385694EA6444,AEAF735EBFC73611C8A50B6D0319BD4258B45918,24.0,millimetre,WHOS,,,,,,,,,True,-19.97999999,-43.95861111,,,Brazil,INMET,
0-76-4-41153050,A0807C723EBE7F982D55680D2BA4BF9C5EA79A9F,AEAF735EBFC73611C8A50B6D0319BD4258B45918,24.0,millimetre,WHOS,,,,,,,,,True,-20.2628,-43.6975,,,Brazil,WHOS,
0-76-4-61783100,531BDF702993785CBB578ED3DE51973A1E9D810F,AEAF735EBFC73611C8A50B6D0319BD4258B45918,24.0,millimetre,WHOS,,,,,,,,,True,-20.6042,-47.7392,,,Brazil,WHOS,Rio Parana
0-76-4-64241300,CC934FD1322030FD736AFB6646D6DDD9432AF683,AEAF735EBFC73611C8A50B6D0319BD4258B45918,24.0,millimetre,WHOS,,,,,,,,,True,-24.1364,-49.6511,,,Brazil,WHOS,Rio Parana
0-76-4-75305000,49BFC824A803A7B7E0890D0DFDC8A3C35CED9ACF,AEAF735EBFC73611C8A50B6D0319BD4258B45918,24.0,millimetre,WHOS,,,,,,,,,True,-28.1997,-54.6431,,,Brazil,WHOS,Rio Uruguay
0-76-4-42450510,B65BB15C9867ABB8BB37E905344F751D669C8E1D,AEAF735EBFC73611C8A50B6D0319BD4258B45918,24.0,millimetre,WHOS,,,,,,,,,True,-15.8458,-47.3853,,,Brazil,WHOS,
0-76-4-58512030,61F16DC774110382B7DAA07B7B3E030B3317E4C3,AEAF735EBFC73611C8A50B6D0319BD4258B45918,24.0,millimetre,WHOS,,,,,,,,,True,-21.7497,-43.6803,,,Brazil,WHOS,
0-76-0-3170404000000212,A2C37EC926C80B2889BE2A89EAF32D50BC4254BB,AEAF735EBFC73611C8A50B6D0319BD4258B45918,24.0,millimetre,WHOS,,,,,,,,,True,-16.55416666,-46.88194443,,,Brazil,INMET,
0-76-4-62606000,8446A0F99855CC7EDBE1594B7866C47937B22BD0,AEAF735EBFC73611C8A50B6D0319BD4258B45918,24.0,millimetre,WHOS,,,,,,,,,True,-22.8186,-46.8844,,,Brazil,WHOS,Rio Parana
0-76-4-60765000,CA58FB8AEDA2ED7CDAD0B6A9468ECD757CB00F15,AEAF735EBFC73611C8A50B6D0319BD4258B45918,24.0,millimetre,WHOS,,,,,,,,,True,-17.7322,-50.1808,,,Brazil,WHOS,Rio Parana
0-76-4-56093000,2477BFEB5A72BF6C2DD61C621DEB4FAEC713ABD0,AEAF735EBFC73611C8A50B6D0319BD4258B45918,24.0,millimetre,WHOS,,,,,,,,,True,-20.6694,-43.0875,,,Brazil,WHOS,
0-76-4-61895075,E5A88E6C284BE93BAD088FE738D559ABC5C0576C,AEAF735EBFC73611C8A50B6D0319BD4258B45918,24.0,millimetre,WHOS,,,,,,,,,True,-21.8744,-46.8922,,,Brazil,WHOS,Rio Parana
0-76-0-3542206000000103,600E06450ED5A4EDC79A107DC51D6F8BD46B1BF9,AEAF735EBFC73611C8A50B6D0319BD4258B45918,24.0,millimetre,WHOS,,,,,,,,,True,-22.37277777,-50.97472221,,,Brazil,INMET,Rio Parana
0-76-4-85400000,B6D210FA4BD3C93C97EB745111962927CF9CDA61,AEAF735EBFC73611C8A50B6D0319BD4258B45918,24.0,millimetre,WHOS,,,,,,,,,True,-29.6269,-53.3528,,,Brazil,WHOS,
0-76-4-66400360,62B956E788255A3DEEF19DB7565035BFBDA27A78,AEAF735EBFC73611C8A50B6D0319BD4258B45918,24.0,millimetre,WHOS,,,,,,,,,True,-16.0394,-54.9397,,,Brazil,WHOS,Rio Paraguay
0-76-4-85380500,783BF12B288C738DD30783D4B1632CBB11B97217,AEAF735EBFC73611C8A50B6D0319BD4258B45918,24.0,millimetre,WHOS,,,,,,,,,True,-29.2311,-53.1175,,,Brazil,WHOS,
0-76-4-66941000,DA91944FF960E5171E56CEC3F01B87950EFE6370,AEAF735EBFC73611C8A50B6D0319BD4258B45918,24.0,millimetre,WHOS,,,,,,,,,True,-20.4481,-55.4281,,,Brazil,WHOS,Rio Paraguay
0-76-4-2956013,91B42FBF0B1473ABB984EAA136EDA249341D5520,AEAF735EBFC73611C8A50B6D0319BD4258B45918,24.0,millimetre,WHOS,,,,,,,,,True,-29.7786,-56.5206,,,Brazil,WHOS,Rio Uruguay
0-76-4-58517000,7D126E9C410E7B2C1FA716FE7C5C90CA95EEC7EA,AEAF735EBFC73611C8A50B6D0319BD4258B45918,24.0,millimetre,WHOS,,,,,,,,,True,-21.8769,-43.3269,,,Brazil,WHOS,
0-76-0-3110509000000071,E05E9FDB6F6937C32EF1B73EBA9DF98EBF59DBB5,AEAF735EBFC73611C8A50B6D0319BD4258B45918,24.0,millimetre,WHOS,,,,,,,,,True,-22.86166666,-46.04333333,,,Brazil,INMET,Rio Parana
0-76-0-4306106000000203,BFBACB0283E9936827090C02431D5AA52399AA94,AEAF735EBFC73611C8A50B6D0319BD4258B45918,24.0,millimetre,WHOS,,,,,,,,,True,-28.60344,-53.673597,,,Brazil,INMET,Rio Uruguay
0-76-0-4107108000000306,A737B1DAE14D819AC50F64F525CDACFF0176DD38,AEAF735EBFC73611C8A50B6D0319BD4258B45918,24.0,millimetre,WHOS,,,,,,,,,True,-22.63944444,-52.89027777,,,Brazil,INMET,Rio Parana
0-76-4-56620100,FD4C3FBAAA63F43B6499E4928C573899E1E697AE,AEAF735EBFC73611C8A50B6D0319BD4258B45918,24.0,millimetre,WHOS,,,,,,,,,True,-19.8464,-43.1231,,,Brazil,WHOS,
0-76-4-60203000,F0D15C4B4FC138F10AD94AFB21F92BBB32D91DA6,AEAF735EBFC73611C8A50B6D0319BD4258B45918,24.0,millimetre,WHOS,,,,,,,,,True,-18.1472,-48.2758,,,Brazil,WHOS,Rio Parana
0-76-4-56094000,AB14CE423CFEAD92544B806BDE26412D8E094317,AEAF735EBFC73611C8A50B6D0319BD4258B45918,24.0,millimetre,WHOS,,,,,,,,,True,-20.5725,-43.0042,,,Brazil,WHOS,
0-76-4-58385000,0A618C2D90CB696832C76285D6FFB70CD365009D,AEAF735EBFC73611C8A50B6D0319BD4258B45918,24.0,millimetre,WHOS,,,,,,,,,True,-22.1197,-43.2075,,,Brazil,WHOS,
0-76-4-64215080,E6BCB9D705B2E659B384F387D15F7AA19A84A978,AEAF735EBFC73611C8A50B6D0319BD4258B45918,24.0,millimetre,WHOS,,,,,,,,,True,-23.21,-49.2292,,,Brazil,WHOS,Rio Parana
0-76-4-2853055,C28B084599F696C6FE0C436FFF9960CAA1F5353F,AEAF735EBFC73611C8A50B6D0319BD4258B45918,24.0,millimetre,WHOS,,,,,,,,,True,-28.5369,-53.8603,,,Brazil,WHOS,Rio Uruguay
0-76-4-65956000,C8C1A210508BBDA28FDCD71D5254AF318D4ED4C7,AEAF735EBFC73611C8A50B6D0319BD4258B45918,24.0,millimetre,WHOS,,,,,,,,,True,-25.8831,-52.8631,,,Brazil,WHOS,Rio Parana
0-76-0-3303807000000141,E10CFE129344CE7D4D52A4C5E94DEF5E2AFB6C32,AEAF735EBFC73611C8A50B6D0319BD4258B45918,24.0,millimetre,WHOS,,,,,,,,,True,-23.2236111,-44.72694443,,,Brazil,INMET,
0-76-4-60491000,036738C21FBF4BDC47D2075A4CE7E1D499CB99FC,AEAF735EBFC73611C8A50B6D0319BD4258B45918,24.0,millimetre,WHOS,,,,,,,,,True,-16.0356,-47.6853,,,Brazil,WHOS,Rio Parana
0-76-4-62761250,82C9ADC0D307E1092A6FD0C850BC59F9E503B2FF,AEAF735EBFC73611C8A50B6D0319BD4258B45918,24.0,millimetre,WHOS,,,,,,,,,True,-22.0736,-48.0628,,,Brazil,WHOS,Rio Parana
0-76-4-60480550,D56F2CAE0C8016F6EFCDFDB6FAE2941C50D0148D,AEAF735EBFC73611C8A50B6D0319BD4258B45918,24.0,millimetre,WHOS,,,,,,,,,True,-15.8925,-47.7228,,,Brazil,WHOS,Rio Parana
0-76-4-2853053,0A5EE12BFCDF800D05C3C3C8731F1B7A1FAEB9E4,AEAF735EBFC73611C8A50B6D0319BD4258B45918,24.0,millimetre,WHOS,,,,,,,,,True,-28.1833,-53.2242,,,Brazil,WHOS,
0-76-4-70150000,A54E058C7F0016768CDFDA6F6CC948595915A375,AEAF735EBFC73611C8A50B6D0319BD4258B45918,24.0,millimetre,WHOS,,,,,,,,,True,-28.3944,-50.5756,,,Brazil,WHOS,Rio Uruguay
0-76-4-61255300,ADCFD55FBD7C726DEC42A45A18A526A9601F9A5C,AEAF735EBFC73611C8A50B6D0319BD4258B45918,24.0,millimetre,WHOS,,,,,,,,,True,-22.6011,-45.5483,,,Brazil,WHOS,Rio Parana
0-76-4-56230050,4C96B19D197784D18E602FEBA20B890B66E07A5F,AEAF735EBFC73611C8A50B6D0319BD4258B45918,24.0,millimetre,WHOS,,,,,,,,,True,-20.4522,-43.2728,,,Brazil,WHOS,
0-76-4-64630500,B7D6636D17F34AB46D53F202B3949B4DD56CFC69,AEAF735EBFC73611C8A50B6D0319BD4258B45918,24.0,millimetre,WHOS,,,,,,,,,True,-24.9439,-51.4225,,,Brazil,WHOS,Rio Parana
0-76-0-3557105000000154,785F12D2FAB72C855C5CE53F7964E0C0370CC927,AEAF735EBFC73611C8A50B6D0319BD4258B45918,24.0,millimetre,WHOS,,,,,,,,,True,-20.40333333,-49.96611111,,,Brazil,INMET,Rio Parana
0-76-4-70600000,47548ABBFCA83EBE58EAC76B049A05922491335A,AEAF735EBFC73611C8A50B6D0319BD4258B45918,24.0,millimetre,WHOS,,,,,,,,,True,-28.02,-50.7822,,,Brazil,WHOS,Rio Uruguay
0-76-4-60626000,ED0F08EC062C3DF501B750F903613C1CFFCF2109,AEAF735EBFC73611C8A50B6D0319BD4258B45918,24.0,millimetre,WHOS,,,,,,,,,True,-18.4914,-49.5181,,,Brazil,WHOS,Rio Parana
0-76-4-61534000,0C176A4990BD23AF925F176534A37D0570ECA57A,AEAF735EBFC73611C8A50B6D0319BD4258B45918,24.0,millimetre,WHOS,,,,,,,,,True,-21.6414,-45.4,,,Brazil,WHOS,Rio Parana
0-76-4-64080000,1BEC6C684D54A0E4978A5D5683E2F13211C09879,AEAF735EBFC73611C8A50B6D0319BD4258B45918,24.0,millimetre,WHOS,,,,,,,,,True,-23.5928,-48.4914,,,Brazil,WHOS,Rio Parana
0-76-0-4109708000000297,31CD3B129FD88355850B4546606033194C3F752D,AEAF735EBFC73611C8A50B6D0319BD4258B45918,24.0,millimetre,WHOS,,,,,,,,,True,-23.77333332,-50.18055554,,,Brazil,INMET,Rio Parana
0-76-4-65365801,657C0FA29AF84B1F93762681DC58E0FB5D674107,AEAF735EBFC73611C8A50B6D0319BD4258B45918,24.0,millimetre,WHOS,,,,,,,,,True,-26.1653,-51.2281,,,Brazil,WHOS,Rio Parana
0-76-0-4310009000000491,FD21A8E027B2C88B004FF2E886A112A5BDEE2553,AEAF735EBFC73611C8A50B6D0319BD4258B45918,24.0,millimetre,WHOS,,,,,,,,,True,-28.65333333,-53.11194444,,,Brazil,INMET,
0-76-4-58730001,001DC703519E42F26AC8E96CDF1A7A8652290682,AEAF735EBFC73611C8A50B6D0319BD4258B45918,24.0,millimetre,WHOS,,,,,,,,,True,-21.3556,-43.0503,,,Brazil,WHOS,
0-76-4-64508500,CADC57FF203D46A6893A848F559B87A98A11DF19,AEAF735EBFC73611C8A50B6D0319BD4258B45918,24.0,millimetre,WHOS,,,,,,,,,True,-23.17,-50.7881,,,Brazil,WHOS,Rio Parana
0-76-4-64221500,7D65DD3C04A784C1D43D791D51D2B49C756739E0,AEAF735EBFC73611C8A50B6D0319BD4258B45918,24.0,millimetre,WHOS,,,,,,,,,True,-23.1789,-49.3922,,,Brazil,WHOS,Rio Parana
0-76-4-60029900,5E0C8AF5D830F2D7024F8544D6E3B2DED21D5DEE,AEAF735EBFC73611C8A50B6D0319BD4258B45918,24.0,millimetre,WHOS,,,,,,,,,True,-17.4778,-47.6244,,,Brazil,WHOS,Rio Parana
0-76-4-41200430,74BE9B5296916847D9A73735F6543343C090D23D,AEAF735EBFC73611C8A50B6D0319BD4258B45918,24.0,millimetre,WHOS,,,,,,,,,True,-19.9631,-43.8067,,,Brazil,WHOS,
0-76-4-2751066,05EB72AE7F3B7830411D81162DB6677D313F6D7A,AEAF735EBFC73611C8A50B6D0319BD4258B45918,24.0,millimetre,WHOS,,,,,,,,,True,-27.8792,-51.1769,,,Brazil,WHOS,Rio Uruguay
0-76-4-2349076,FD85242119289E5A2B0C549D68B237664BA46213,AEAF735EBFC73611C8A50B6D0319BD4258B45918,24.0,millimetre,WHOS,,,,,,,,,True,-23.8517,-49.395,,,Brazil,WHOS,Rio Parana
0-76-4-24051000,D213BBFF267E1BB8E70B99092CAE8A07FCD7D7B8,AEAF735EBFC73611C8A50B6D0319BD4258B45918,24.0,millimetre,WHOS,,,,,,,,,True,-17.3011,-53.2172,,,Brazil,WHOS,
0-76-4-58713600,6E6001E6A3079402F58C18063A68D6400AA7E129,AEAF735EBFC73611C8A50B6D0319BD4258B45918,24.0,millimetre,WHOS,,,,,,,,,True,-21.3039,-43.1992,,,Brazil,WHOS,
0-76-4-75187000,F6A7AA3DA07FD34DC081FB815EE2040110C2C58E,AEAF735EBFC73611C8A50B6D0319BD4258B45918,24.0,millimetre,WHOS,,,,,,,,,True,-28.3603,-53.9008,,,Brazil,WHOS,Rio Uruguay
0-76-4-66005400,2B6A021FE49F0C7ADCAB878CBC4209547374C2B0,AEAF735EBFC73611C8A50B6D0319BD4258B45918,24.0,millimetre,WHOS,,,,,,,,,True,-14.3153,-56.7269,,,Brazil,WHOS,Rio Paraguay
0-76-4-61684500,87307167A5966180F8FF961B7F189883ED598CC2,AEAF735EBFC73611C8A50B6D0319BD4258B45918,24.0,millimetre,WHOS,,,,,,,,,True,-20.8389,-46.7044,,,Brazil,WHOS,Rio Parana
0-76-4-74467000,904F98AC41621AAF7B12BB8B32957806D8162E72,AEAF735EBFC73611C8A50B6D0319BD4258B45918,24.0,millimetre,WHOS,,,,,,,,,True,-27.5647,-53.7869,,,Brazil,WHOS,Rio Uruguay
0-76-4-64571080,9F0879F96152EE4D1C3D2F26469E3C90A5BF28EA,AEAF735EBFC73611C8A50B6D0319BD4258B45918,24.0,millimetre,WHOS,,,,,,,,,True,-22.6042,-52.8753,,,Brazil,WHOS,Rio Parana
0-76-4-58351000,4A8CCFA803A69DAD8D556A0B1FD007D829EACC41,AEAF735EBFC73611C8A50B6D0319BD4258B45918,24.0,millimetre,WHOS,,,,,,,,,True,-22.6828,-43.8731,,,Brazil,WHOS,
0-76-4-61198080,5D3CC92A917AB50BEF39076BA1C5D9536F9BB9D0,AEAF735EBFC73611C8A50B6D0319BD4258B45918,24.0,millimetre,WHOS,,,,,,,,,True,-20.8178,-45.0603,,,Brazil,WHOS,Rio Parana
0-76-0-3304557000000553,3849DB02E6DC627E7A43488E50829D25F6779D29,AEAF735EBFC73611C8A50B6D0319BD4258B45918,24.0,millimetre,WHOS,,,,,,,,,True,-22.93999999,-43.40277777,,,Brazil,INMET,
0-76-4-3154013,0A3B227C03224FCA7A9F01AE5D01995F3AEFFB4B,AEAF735EBFC73611C8A50B6D0319BD4258B45918,24.0,millimetre,WHOS,,,,,,,,,True,-31.27,-54.5311,,,Brazil,WHOS,Rio Uruguay
0-76-4-62727200,D142C541BD688F7E74F49F1A6E67138FE19E40D6,AEAF735EBFC73611C8A50B6D0319BD4258B45918,24.0,millimetre,WHOS,,,,,,,,,True,-22.5303,-49.6533,,,Brazil,WHOS,Rio Parana
0-76-4-66861000,38FD1D499AF67AA441E27F2950B71F74696A4459,AEAF735EBFC73611C8A50B6D0319BD4258B45918,24.0,millimetre,WHOS,,,,,,,,,True,-19.4133,-54.4589,,,Brazil,WHOS,Rio Paraguay
0-76-4-40130002,38CCCB8A20BFDFE2C5B7794F029CE1A56CB28BCE,AEAF735EBFC73611C8A50B6D0319BD4258B45918,24.0,millimetre,WHOS,,,,,,,,,True,-20.4053,-44.6283,,,Brazil,WHOS,
0-76-4-84536000,261346E7C0797275E650F27DB8ABF03A7ECD3F1B,AEAF735EBFC73611C8A50B6D0319BD4258B45918,24.0,millimetre,WHOS,,,,,,,,,True,-28.1278,-49.1203,,,Brazil,WHOS,
0-76-4-64630100,7B65A02982878BA6923D59DC2FDCB6144F3FEBF4,AEAF735EBFC73611C8A50B6D0319BD4258B45918,24.0,millimetre,WHOS,,,,,,,,,True,-24.9219,-51.3997,,,Brazil,WHOS,Rio Parana
0-76-4-73335000,009E1C9CC3C9058D8A966C1477F8EF7D480A0AE1,AEAF735EBFC73611C8A50B6D0319BD4258B45918,24.0,millimetre,WHOS,,,,,,,,,True,-27.0708,-52.4636,,,Brazil,WHOS,Rio Uruguay
0-76-4-62752000,C5409A3E18D5EA018498D5A3E3FC08403348FA68,AEAF735EBFC73611C8A50B6D0319BD4258B45918,24.0,millimetre,WHOS,,,,,,,,,True,-22.0775,-48.4842,,,Brazil,WHOS,Rio Parana
0-76-4-64773890,D1CC73E87B5737F7898C5076DC8BF15053B066A7,AEAF735EBFC73611C8A50B6D0319BD4258B45918,24.0,millimetre,WHOS,,,,,,,,,True,-24.7436,-52.4753,,,Brazil,WHOS,Rio Parana
0-76-4-85110000,F782208A07065B739A61CF2FB395B9AE4AE9E86C,AEAF735EBFC73611C8A50B6D0319BD4258B45918,24.0,millimetre,WHOS,,,,,,,,,True,-28.6428,-52.9269,,,Brazil,WHOS,
0-76-4-60510100,7E28FB2A40BED0C831CC131DAEF9386252837871,AEAF735EBFC73611C8A50B6D0319BD4258B45918,24.0,millimetre,WHOS,,,,,,,,,True,-17.0169,-47.9275,,,Brazil,WHOS,Rio Parana
0-76-4-86101000,253720C09CB4C240D9B23B55DE023DB03D3B0E95,AEAF735EBFC73611C8A50B6D0319BD4258B45918,24.0,millimetre,WHOS,,,,,,,,,True,-28.7883,-50.5611,,,Brazil,WHOS,
0-76-4-2143064,A4A4CAD96E587C20D517071A2424AE9F7D840945,AEAF735EBFC73611C8A50B6D0319BD4258B45918,24.0,millimetre,WHOS,,,,,,,,,True,-21.7114,-43.4031,,,Brazil,WHOS,
0-76-4-40151080,237E8744ADB1B7CD15C9186E4F49245CD31E1181,AEAF735EBFC73611C8A50B6D0319BD4258B45918,24.0,millimetre,WHOS,,,,,,,,,True,-20.2394,-44.7539,,,Brazil,WHOS,
0-76-4-60921500,356A3DF781238DC109A49C20AFF7E5550EED489B,AEAF735EBFC73611C8A50B6D0319BD4258B45918,24.0,millimetre,WHOS,,,,,,,,,True,-19.1617,-50.7619,,,Brazil,WHOS,Rio Parana
0-76-4-72428000,7B82A3DB272D17AA9BA603E7DE8EDF0480A0D58C,AEAF735EBFC73611C8A50B6D0319BD4258B45918,24.0,millimetre,WHOS,,,,,,,,,True,-27.8786,-51.7542,,,Brazil,WHOS,Rio Uruguay
0-76-4-66825000,5ACBBA4220EBE5FFF0E6A91A2AF433B5B242A05E,AEAF735EBFC73611C8A50B6D0319BD4258B45918,24.0,millimetre,WHOS,,,,,,,,,True,-19.0017,-57.5942,,,Brazil,WHOS,Rio Paraguay
0-76-4-62744080,8980E49E032536EAA24266657DAFDDE72C6968B8,AEAF735EBFC73611C8A50B6D0319BD4258B45918,24.0,millimetre,WHOS,,,,,,,,,True,-22.1533,-48.7525,,,Brazil,WHOS,Rio Parana
0-76-4-60622100,317CB0785E9B2BC701C0A9A7072D2C7D16855D5E,AEAF735EBFC73611C8A50B6D0319BD4258B45918,24.0,millimetre,WHOS,,,,,,,,,True,-18.5247,-49.2181,,,Brazil,WHOS,Rio Parana
0-76-4-64220050,B352136A47CDD2C1C22068FF6DF1F80604FAE830,AEAF735EBFC73611C8A50B6D0319BD4258B45918,24.0,millimetre,WHOS,,,,,,,,,True,-23.1792,-49.3922,,,Brazil,WHOS,Rio Parana
0-76-4-60842600,DE2D75645DB8E53D0C27DB120D1B212370584C69,AEAF735EBFC73611C8A50B6D0319BD4258B45918,24.0,millimetre,WHOS,,,,,,,,,True,-18.9411,-49.355,,,Brazil,WHOS,Rio Parana
0-76-4-66170600,5337148E0607C645760D418BB9EB6EEEB6E32F79,AEAF735EBFC73611C8A50B6D0319BD4258B45918,24.0,millimetre,WHOS,,,,,,,,,True,-15.3422,-55.4611,,,Brazil,WHOS,Rio Paraguay
0-76-4-60448000,6D9B9461C7BE0EF2CB9BE46D2CD8E963AE31B349,AEAF735EBFC73611C8A50B6D0319BD4258B45918,24.0,millimetre,WHOS,,,,,,,,,True,-16.3089,-48.0878,,,Brazil,WHOS,Rio Parana
0-76-4-2044063,2C055868693B11D2173B7A28A78255F75D9F28DE,AEAF735EBFC73611C8A50B6D0319BD4258B45918,24.0,millimetre,WHOS,,,,,,,,,True,-20.6261,-44.4378,,,Brazil,WHOS,
0-76-4-20090010,A6C37CBD33F2D6322D71770EB3341A2C692FEE59,AEAF735EBFC73611C8A50B6D0319BD4258B45918,24.0,millimetre,WHOS,,,,,,,,,True,-14.8336,-48.7497,,,Brazil,WHOS,
0-76-0-4304507000000171,1FB6B1B52AA09EA02E2E2E94E865435062797268,AEAF735EBFC73611C8A50B6D0319BD4258B45918,24.0,millimetre,WHOS,,,,,,,,,True,-31.40333333,-52.70083333,,,Brazil,INMET,
0-76-0-4317400000000441,932DB847057DEF0CAB0B2C6D16491F5FE6FDF95F,AEAF735EBFC73611C8A50B6D0319BD4258B45918,24.0,millimetre,WHOS,,,,,,,,,True,-29.191599,-54.885653,,,Brazil,INMET,Rio Uruguay
0-76-4-58315100,518BD63317DA274E77BE65B0F871102814E643A0,AEAF735EBFC73611C8A50B6D0319BD4258B45918,24.0,millimetre,WHOS,,,,,,,,,True,-22.4983,-43.93,,,Brazil,WHOS,
0-76-0-5206206000000570,3E2CFB9DD011B74976A3DA44C6BEE57ECF568F24,AEAF735EBFC73611C8A50B6D0319BD4258B45918,24.0,millimetre,WHOS,,,,,,,,,True,-16.39944444,-47.62583332,,,Brazil,INMET,Rio Parana
0-76-4-84022000,8319FF4CDCD4C43A4D7B8262930B0B12E0C91030,AEAF735EBFC73611C8A50B6D0319BD4258B45918,24.0,millimetre,WHOS,,,,,,,,,True,-27.4783,-48.9761,,,Brazil,WHOS,
0-76-4-20001200,4E5BFD971D10C1ACF78A1DCDD99A04C3D6FFA352,AEAF735EBFC73611C8A50B6D0319BD4258B45918,24.0,millimetre,WHOS,,,,,,,,,True,-15.5008,-47.8542,,,Brazil,WHOS,
0-76-0-3162500000000078,D8400A8E34901B16C35579E59D95B2A669FD17F4,AEAF735EBFC73611C8A50B6D0319BD4258B45918,24.0,millimetre,WHOS,,,,,,,,,True,-21.106502,-44.250928,,,Brazil,INMET,Rio Parana
0-76-4-62370000,942CF282117D492A82D436B117AB738B77846423,AEAF735EBFC73611C8A50B6D0319BD4258B45918,24.0,millimetre,WHOS,,,,,,,,,True,-23.3917,-46.9947,,,Brazil,WHOS,Rio Parana
0-76-4-2346469,AD31B01FDFA4B5B99979250F841286BEF6D6B9E8,AEAF735EBFC73611C8A50B6D0319BD4258B45918,24.0,millimetre,WHOS,,,,,,,,,True,-23.1525,-46.99,,,Brazil,WHOS,Rio Parana
0-76-4-66830000,B80BB492EB51667A37955B812C3BF3BBA15BC5D1,AEAF735EBFC73611C8A50B6D0319BD4258B45918,24.0,millimetre,WHOS,,,,,,,,,True,-17.93194443,-53.37527777,,,Brazil,WHOS,Rio Paraguay
0-76-4-64115000,A342CA4A639B42687F4BF7895D7C42A914E87060,AEAF735EBFC73611C8A50B6D0319BD4258B45918,24.0,millimetre,WHOS,,,,,,,,,True,-24.0178,-48.7242,,,Brazil,WHOS,Rio Parana
0-76-4-83020000,78048C28C0992BE6E8FCF1BA6E630510C480B8CF,AEAF735EBFC73611C8A50B6D0319BD4258B45918,24.0,millimetre,WHOS,,,,,,,,,True,-26.9914,-50.1711,,,Brazil,WHOS,
0-76-4-61060000,9EF84E816C1408BFA6C2A9E552DCEACF0A336A6C,AEAF735EBFC73611C8A50B6D0319BD4258B45918,24.0,millimetre,WHOS,,,,,,,,,True,-21.6889,-44.3508,,,Brazil,WHOS,Rio Parana
0-76-4-66386000,3A1165EF16046F4A97DD40FF94F372C3460B57C8,AEAF735EBFC73611C8A50B6D0319BD4258B45918,24.0,millimetre,WHOS,,,,,,,,,True,-15.9872,-55.0711,,,Brazil,WHOS,Rio Paraguay
0-76-4-64278500,C4DFD994DCD92DA7BFD6FCBF95CE65D05753459D,AEAF735EBFC73611C8A50B6D0319BD4258B45918,24.0,millimetre,WHOS,,,,,,,,,True,-23.0714,-49.8464,,,Brazil,WHOS,Rio Parana
0-76-0-3110301000000148,DA0D810FDC0C97299EF23C98B5A0751E575CFC68,AEAF735EBFC73611C8A50B6D0319BD4258B45918,24.0,millimetre,WHOS,,,,,,,,,True,-21.918066,-46.382996,,,Brazil,INMET,Rio Parana
0-76-0-5005152000000384,A3A9DA41BAF3384206D9B182B9193D4D9611F285,AEAF735EBFC73611C8A50B6D0319BD4258B45918,24.0,millimetre,WHOS,,,,,,,,,True,-22.85722222,-54.60555555,,,Brazil,INMET,Rio Parana
0-76-4-63805000,CDC8E17D444324E83F4ADA81140E5941B17C174A,AEAF735EBFC73611C8A50B6D0319BD4258B45918,24.0,millimetre,WHOS,,,,,,,,,True,-21.7244,-51.2767,,,Brazil,WHOS,Rio Parana
0-76-0-5002704000000013,2910685ABED01205A8BDDCCDD75A5201B9AF78BE,AEAF735EBFC73611C8A50B6D0319BD4258B45918,24.0,millimetre,WHOS,,,,,,,,,True,-20.447195,-54.722615,,,Brazil,INMET,Rio Paraguay
0-76-4-60335500,65CF9145825CE16085040FB7B89BE8A38982817B,AEAF735EBFC73611C8A50B6D0319BD4258B45918,24.0,millimetre,WHOS,,,,,,,,,True,-19.2375,-47.8017,,,Brazil,WHOS,Rio Parana
0-76-4-83590000,DAA7B8E45642F973353D16EF182E05983C23D02C,AEAF735EBFC73611C8A50B6D0319BD4258B45918,24.0,millimetre,WHOS,,,,,,,,,True,-26.7567,-49.4567,,,Brazil,WHOS,
0-76-4-43980002,F29E73E06F8A24EE2A76B2BC1FFEB1A4EECA4C57,AEAF735EBFC73611C8A50B6D0319BD4258B45918,24.0,millimetre,WHOS,,,,,,,,,True,-16.2681,-45.2369,,,Brazil,WHOS,
0-76-4-61861010,7BB8F205A13A2043816F8FC3E34E12320CDCA9D8,AEAF735EBFC73611C8A50B6D0319BD4258B45918,24.0,millimetre,WHOS,,,,,,,,,True,-22.3183,-46.3219,,,Brazil,WHOS,Rio Parana
0-76-4-74675000,6D9B64B2EF35FC857321258945ED4114CD23D241,AEAF735EBFC73611C8A50B6D0319BD4258B45918,24.0,millimetre,WHOS,,,,,,,,,True,-27.7794,-54.3736,,,Brazil,WHOS,Rio Uruguay
0-76-4-56652000,FC5F826F505E65059B790419F889525A127AFAD3,AEAF735EBFC73611C8A50B6D0319BD4258B45918,24.0,millimetre,WHOS,,,,,,,,,True,-19.815,-43.2606,,,Brazil,WHOS,
0-76-4-2853056,30457E22ABCDAB669471ADF87D9A1D4A18D0B99E,AEAF735EBFC73611C8A50B6D0319BD4258B45918,24.0,millimetre,WHOS,,,,,,,,,True,-28.245,-53.4156,,,Brazil,WHOS,Rio Uruguay
0-76-0-4108304000000288,2B1AAC500CCC2CE14DC9F5BA38F8C4EA63597DA2,AEAF735EBFC73611C8A50B6D0319BD4258B45918,24.0,millimetre,WHOS,,,,,,,,,True,-25.60194444,-54.48305554,,,Brazil,INMET,Rio Parana
0-76-4-2043005,E59A88644245FF352C7AE08E993F5ECF80BDE35A,AEAF735EBFC73611C8A50B6D0319BD4258B45918,24.0,millimetre,WHOS,,,,,,,,,True,-20.625,-43.7536,,,Brazil,WHOS,
0-76-0-5211909000000190,0E89C1C9348974ADEEB2F983C789D91B95305CAC,AEAF735EBFC73611C8A50B6D0319BD4258B45918,24.0,millimetre,WHOS,,,,,,,,,True,-17.923622,-51.717467,,,Brazil,INMET,Rio Parana
0-76-4-60359080,78389E3B006F9BFD1EA00C2439EFF5596AC77685,AEAF735EBFC73611C8A50B6D0319BD4258B45918,24.0,millimetre,WHOS,,,,,,,,,True,-18.6597,-48.4375,,,Brazil,WHOS,Rio Parana
0-76-4-58433900,5E9DF4B87BC4C9F3B5D8CE60D55F9D130CF0AD6D,AEAF735EBFC73611C8A50B6D0319BD4258B45918,24.0,millimetre,WHOS,,,,,,,,,True,-22.2997,-43.1789,,,Brazil,WHOS,
0-76-4-61758000,D83797947C0DC0F54E9E3D0EA9FAFA7BFCE0444C,AEAF735EBFC73611C8A50B6D0319BD4258B45918,24.0,millimetre,WHOS,,,,,,,,,True,-20.1631,-47.8811,,,Brazil,WHOS,Rio Parana
0-76-4-60390500,F4E5AA4B8ECD6849DE586EA87345EE81292E6815,AEAF735EBFC73611C8A50B6D0319BD4258B45918,24.0,millimetre,WHOS,,,,,,,,,True,-18.7694,-48.4403,,,Brazil,WHOS,Rio Parana
0-76-4-61410000,F32FB56D902E751F9FAB2B99B6777C8AFEDCF08C,AEAF735EBFC73611C8A50B6D0319BD4258B45918,24.0,millimetre,WHOS,,,,,,,,,True,-22.0536,-45.6992,,,Brazil,WHOS,Rio Parana
0-76-4-64242000,B22E287CDA5D2497B2367CF6E02681A43A052B28,AEAF735EBFC73611C8A50B6D0319BD4258B45918,24.0,millimetre,WHOS,,,,,,,,,True,-23.9767,-49.5958,,,Brazil,WHOS,Rio Parana
0-76-4-21210000,580B720680A89B466E23F8E6817260A5B35D10C9,AEAF735EBFC73611C8A50B6D0319BD4258B45918,24.0,millimetre,WHOS,,,,,,,,,True,-15.3222,-47.3817,,,Brazil,WHOS,
0-76-4-72870900,617A0AF77DDB452E77272F6232EA2AF4AED58E63,AEAF735EBFC73611C8A50B6D0319BD4258B45918,24.0,millimetre,WHOS,,,,,,,,,True,-27.5619,-51.8578,,,Brazil,WHOS,Rio Uruguay
0-76-4-85306000,8D97F525B72D52D85967F26637E51573F39F3D7F,AEAF735EBFC73611C8A50B6D0319BD4258B45918,24.0,millimetre,WHOS,,,,,,,,,True,-28.935,-53.6433,,,Brazil,WHOS,
0-76-4-86743800,38A99DB83CDDE1427DB977E96EB46B9EC47AE798,AEAF735EBFC73611C8A50B6D0319BD4258B45918,24.0,millimetre,WHOS,,,,,,,,,True,-29.0533,-52.2194,,,Brazil,WHOS,
0-76-4-64332080,935A4B5885A0FAA0DE8894E944F66E02DEEADEB9,AEAF735EBFC73611C8A50B6D0319BD4258B45918,24.0,millimetre,WHOS,,,,,,,,,True,-22.905,-50.0014,,,Brazil,WHOS,Rio Parana
0-76-4-60229470,DEC62997F94B75F9BC5F5E5B874A7596B13F0A51,AEAF735EBFC73611C8A50B6D0319BD4258B45918,24.0,millimetre,WHOS,,,,,,,,,True,-19.6089,-47.4556,,,Brazil,WHOS,Rio Parana
0-76-4-60018900,B7203361A0E23D495EB371411B69C768F1026C55,AEAF735EBFC73611C8A50B6D0319BD4258B45918,24.0,millimetre,WHOS,,,,,,,,,True,-16.6075,-47.3258,,,Brazil,WHOS,Rio Parana
0-76-4-58230600,B7F22BA6A911E97830003777034917DECE80ECE1,AEAF735EBFC73611C8A50B6D0319BD4258B45918,24.0,millimetre,WHOS,,,,,,,,,True,-22.545,-44.7919,,,Brazil,WHOS,
0-76-0-5002100000000475,B1CA095F48239BA4171D48EA6B9448D7E7EFCD31,AEAF735EBFC73611C8A50B6D0319BD4258B45918,24.0,millimetre,WHOS,,,,,,,,,True,-22.10166666,-56.54083333,,,Brazil,INMET,Rio Paraguay
0-76-4-60850000,1D698B47805E9FB31B9F1CF2551C435C4E95C5B0,AEAF735EBFC73611C8A50B6D0319BD4258B45918,24.0,millimetre,WHOS,,,,,,,,,True,-19.3597,-49.1803,,,Brazil,WHOS,Rio Parana
0-76-0-4205001000000372,3665718DFD72E0730F1F44FEED8835887CD2B79B,AEAF735EBFC73611C8A50B6D0319BD4258B45918,24.0,millimetre,WHOS,,,,,,,,,True,-26.286562,-53.633114,,,Brazil,INMET,Rio Uruguay
0-76-4-60011005,DE00D4717D2F253E47D65BF479A1D4B75B09994E,AEAF735EBFC73611C8A50B6D0319BD4258B45918,24.0,millimetre,WHOS,,,,,,,,,True,-18.6025,-46.5406,,,Brazil,WHOS,Rio Parana
0-76-4-43200000,5E3FA9405766AAB4090CF3E1B9C67765DE54B681,AEAF735EBFC73611C8A50B6D0319BD4258B45918,24.0,millimetre,WHOS,,,,,,,,,True,-16.3725,-45.07,,,Brazil,WHOS,
0-76-4-74356000,885DA5CE9DC050D3303EC8AE96D57546ED3145F2,AEAF735EBFC73611C8A50B6D0319BD4258B45918,24.0,millimetre,WHOS,,,,,,,,,True,-27.4303,-53.5611,,,Brazil,WHOS,Rio Uruguay
0-76-4-24179090,A76D27A8A1BCE0315CD41380521C0F260FE8AA44,AEAF735EBFC73611C8A50B6D0319BD4258B45918,24.0,millimetre,WHOS,,,,,,,,,True,-16.3375,-52.745,,,Brazil,WHOS,
0-76-4-65293000,F6EA60311144B419C0D6EF80E1868551CA35CD30,AEAF735EBFC73611C8A50B6D0319BD4258B45918,24.0,millimetre,WHOS,,,,,,,,,True,-26.4472,-50.9861,,,Brazil,WHOS,Rio Parana
0-76-0-5000203000000463,995B6A84A2CB7FF02B50941B019104062EAC2206,AEAF735EBFC73611C8A50B6D0319BD4258B45918,24.0,millimetre,WHOS,,,,,,,,,True,-20.44444444,-52.87583332,,,Brazil,INMET,Rio Parana
0-76-4-81169550,E9232DC57C42E24E7B6C1A03DE08C3453E4FF53A,AEAF735EBFC73611C8A50B6D0319BD4258B45918,24.0,millimetre,WHOS,,,,,,,,,True,-24.6114,-49.1267,,,Brazil,WHOS,
0-76-4-61807500,3194C0608457713B4809B9C5279797AF2F203D42,AEAF735EBFC73611C8A50B6D0319BD4258B45918,24.0,millimetre,WHOS,,,,,,,,,True,-21.7217,-46.5819,,,Brazil,WHOS,Rio Parana
0-76-0-3148103000000097,3F16C637652E15B2C05044FAC4CC98CD63996AC2,AEAF735EBFC73611C8A50B6D0319BD4258B45918,24.0,millimetre,WHOS,,,,,,,,,True,-18.996684,-46.985935,,,Brazil,INMET,Rio Parana
0-76-4-62557000,A8FE7562E1EFDDC763FB64CE77DDB1C775DC9879,AEAF735EBFC73611C8A50B6D0319BD4258B45918,24.0,millimetre,WHOS,,,,,,,,,True,-23.1461,-47.7956,,,Brazil,WHOS,Rio Parana
0-76-0-3145901000000091,CD2FF6EC9E0C44B4644451BB113DF861044E9EE1,AEAF735EBFC73611C8A50B6D0319BD4258B45918,24.0,millimetre,WHOS,,,,,,,,,True,-20.55666666,-43.75611111,,,Brazil,INMET,
0-76-4-81299001,6CA891740ED4B3B38DE53E563B783C3B88422AAE,AEAF735EBFC73611C8A50B6D0319BD4258B45918,24.0,millimetre,WHOS,,,,,,,,,True,-25.2169,-48.9464,,,Brazil,WHOS,
0-76-4-81303001,5EC0E5EF5070AF65CF5AE23DED8F1E95AE56E030,AEAF735EBFC73611C8A50B6D0319BD4258B45918,24.0,millimetre,WHOS,,,,,,,,,True,-25.0881,-48.8272,,,Brazil,WHOS,
0-76-4-42480300,7097E9194732B7F9DE1CB601A6AACBB7B8EC2081,AEAF735EBFC73611C8A50B6D0319BD4258B45918,24.0,millimetre,WHOS,,,,,,,,,True,-16.19,-47.0256,,,Brazil,WHOS,
0-76-0-3505401000000393,E49EC5B35CFD60AED3D4211A3DEF0FA9EB799947,AEAF735EBFC73611C8A50B6D0319BD4258B45918,24.0,millimetre,WHOS,,,,,,,,,True,-24.96277777,-48.41638888,,,Brazil,INMET,
0-76-4-66071353,EE29DEAD192FA3BBD46B8B50DF035A0AC267587B,AEAF735EBFC73611C8A50B6D0319BD4258B45918,24.0,millimetre,WHOS,,,,,,,,,True,-15.0231,-58.7217,,,Brazil,WHOS,Rio Paraguay
0-76-4-83059000,6BE2DD79F370F30B540C78C871F3005406D9DCC1,AEAF735EBFC73611C8A50B6D0319BD4258B45918,24.0,millimetre,WHOS,,,,,,,,,True,-27.1986,-49.7856,,,Brazil,WHOS,
0-76-4-73203000,02F0F866A62B1186462AF25C8A4F120B1057E2E2,AEAF735EBFC73611C8A50B6D0319BD4258B45918,24.0,millimetre,WHOS,,,,,,,,,True,-26.6556,-52.9108,,,Brazil,WHOS,Rio Uruguay
0-76-4-42458200,D8618F96CFDBE0DDBD62DF5B04162B2218B99148,AEAF735EBFC73611C8A50B6D0319BD4258B45918,24.0,millimetre,WHOS,,,,,,,,,True,-16.2125,-47.2069,,,Brazil,WHOS,
0-76-4-74329000,7504E9EC7ECAF9776A7F93BFB102D1B1E951B5C0,AEAF735EBFC73611C8A50B6D0319BD4258B45918,24.0,millimetre,WHOS,,,,,,,,,True,-27.1717,-53.7097,,,Brazil,WHOS,Rio Uruguay
0-76-4-60908000,9E3412A7C12A64860CD556621F2779062AA72CE3,AEAF735EBFC73611C8A50B6D0319BD4258B45918,24.0,millimetre,WHOS,,,,,,,,,True,-19.1164,-50.6417,,,Brazil,WHOS,Rio Parana
0-76-4-64362001,34379BE61F7CE83C6760E9FF6AB5EB677BF3B8C4,AEAF735EBFC73611C8A50B6D0319BD4258B45918,24.0,millimetre,WHOS,,,,,,,,,True,-23.3433,-50.1628,,,Brazil,WHOS,Rio Parana
0-76-4-65031400,D9274FBC314BE76F8DAB9B0A5CE67DBDBAAE3EB3,AEAF735EBFC73611C8A50B6D0319BD4258B45918,24.0,millimetre,WHOS,,,,,,,,,True,-25.5711,-49.7908,,,Brazil,WHOS,Rio Parana
0-76-4-83669000,31B478E3CC187522CC9785584960218CD1E587BD,AEAF735EBFC73611C8A50B6D0319BD4258B45918,24.0,millimetre,WHOS,,,,,,,,,True,-26.615,-49.4056,,,Brazil,WHOS,
0-76-4-64230200,77CA683E973711EE6CC2B3C9678670E4F4F8C2A4,AEAF735EBFC73611C8A50B6D0319BD4258B45918,24.0,millimetre,WHOS,,,,,,,,,True,-24.2411,-49.485,,,Brazil,WHOS,Rio Parana
0-76-4-84018000,B31F16B8D360D9B4F97E011105A67D89ECCBC412,AEAF735EBFC73611C8A50B6D0319BD4258B45918,24.0,millimetre,WHOS,,,,,,,,,True,-27.4886,-49.0019,,,Brazil,WHOS,
0-76-4-58544000,2BB71A6E7590B30AA3E5216143FBCC226C3699FD,AEAF735EBFC73611C8A50B6D0319BD4258B45918,24.0,millimetre,WHOS,,,,,,,,,True,-22.1569,-44.0853,,,Brazil,WHOS,
0-76-4-74200980,E51DDE8FD282A881BC2979AA18A0E7F1BE1E4053,AEAF735EBFC73611C8A50B6D0319BD4258B45918,24.0,millimetre,WHOS,,,,,,,,,True,-26.4692,-53.3094,,,Brazil,WHOS,Rio Uruguay
0-76-4-61782100,9C8A91841A94D94081C37918B9A39C9E252E4E95,AEAF735EBFC73611C8A50B6D0319BD4258B45918,24.0,millimetre,WHOS,,,,,,,,,True,-20.6436,-47.6753,,,Brazil,WHOS,Rio Parana
0-76-4-62829580,368BCC3CE10237B6467BFF7FE4F6E3579A9473C4,AEAF735EBFC73611C8A50B6D0319BD4258B45918,24.0,millimetre,WHOS,,,,,,,,,True,-21.1156,-50.2025,,,Brazil,WHOS,Rio Parana
0-76-4-15121000,FA4897B5463208B4F84987FF0229C2DF011FF02B,AEAF735EBFC73611C8A50B6D0319BD4258B45918,24.0,millimetre,WHOS,,,,,,,,,True,-14.4575,-59.5086,,,Brazil,WHOS,
0-76-4-60772000,4F1F850878A59E30DEB7C51ABE1DD16ECBBCCEB4,AEAF735EBFC73611C8A50B6D0319BD4258B45918,24.0,millimetre,WHOS,,,,,,,,,True,-17.9808,-50.2469,,,Brazil,WHOS,Rio Parana
0-76-4-85310000,1303A209D3352B386DE28A4752608BE8BF07C822,AEAF735EBFC73611C8A50B6D0319BD4258B45918,24.0,millimetre,WHOS,,,,,,,,,True,-29.1194,-53.4058,,,Brazil,WHOS,
0-76-4-87228450,0E83641BC38A648D07FBA595586BC84CEC7046C6,AEAF735EBFC73611C8A50B6D0319BD4258B45918,24.0,millimetre,WHOS,,,,,,,,,True,-30.1569,-50.2353,,,Brazil,WHOS,
0-76-4-88060210,338DA70052EEB0BAAFC95853CA3397E5F3E133EE,AEAF735EBFC73611C8A50B6D0319BD4258B45918,24.0,millimetre,WHOS,,,,,,,,,True,-32.5397,-52.5392,,,Brazil,WHOS,
0-76-4-67100000,523BF724668CEE82CB764391DAE9B08A782C480B,AEAF735EBFC73611C8A50B6D0319BD4258B45918,24.0,millimetre,WHOS,,,,,,,,,True,-21.7003,-57.8911,,,Brazil,WHOS,Rio Paraguay
0-76-4-20000900,E1C58478B5C2C84AD50B9E868258889F5BCFAB00,AEAF735EBFC73611C8A50B6D0319BD4258B45918,24.0,millimetre,WHOS,,,,,,,,,True,-15.49,-47.6858,,,Brazil,WHOS,
0-76-4-58204000,61D352119306492CD5CF05FC1ECA3646C247E147,AEAF735EBFC73611C8A50B6D0319BD4258B45918,24.0,millimetre,WHOS,,,,,,,,,True,-22.8119,-45.1825,,,Brazil,WHOS,
0-76-4-83900000,DAF99EF5E6FE2A675967A91FFA985ED4095F5C61,AEAF735EBFC73611C8A50B6D0319BD4258B45918,24.0,millimetre,WHOS,,,,,,,,,True,-27.1006,-48.9167,,,Brazil,WHOS,
0-76-4-65141000,2CBA0D3523F68CCDA70D9BA4B6082A48A96A014A,AEAF735EBFC73611C8A50B6D0319BD4258B45918,24.0,millimetre,WHOS,,,,,,,,,True,-25.9736,-52.1683,,,Brazil,WHOS,Rio Parana
0-76-4-72700000,80C829207FA14D4A1F30114668D6CA09F0C1A2AC,AEAF735EBFC73611C8A50B6D0319BD4258B45918,24.0,millimetre,WHOS,,,,,,,,,True,-27.5206,-51.8108,,,Brazil,WHOS,Rio Uruguay
0-76-4-58347000,B635E3D4FE4B399515A899D7C24D278B972AE0AE,AEAF735EBFC73611C8A50B6D0319BD4258B45918,24.0,millimetre,WHOS,,,,,,,,,True,-22.7714,-44.0911,,,Brazil,WHOS,
0-76-4-82330000,B5EE89B480605F57E719F34B10E0A5805B2DB4C2,AEAF735EBFC73611C8A50B6D0319BD4258B45918,24.0,millimetre,WHOS,,,,,,,,,True,-26.3169,-49.3208,,,Brazil,WHOS,
0-76-4-58593800,617D77D0D652FDF821A30D301BDB902BE7152F47,AEAF735EBFC73611C8A50B6D0319BD4258B45918,24.0,millimetre,WHOS,,,,,,,,,True,-22.0142,-43.2831,,,Brazil,WHOS,
0-76-4-87398750,FB54B3EE83DDAAEBCEA8275B883A46DB66D0C739,AEAF735EBFC73611C8A50B6D0319BD4258B45918,24.0,millimetre,WHOS,,,,,,,,,True,-29.9803,-50.7439,,,Brazil,WHOS,
0-76-0-4107207000000178,973EC571DB2BCAD6D14B57B37CFF36ACB906F797,AEAF735EBFC73611C8A50B6D0319BD4258B45918,24.0,millimetre,WHOS,,,,,,,,,True,-25.69916666,-53.09527777,,,Brazil,INMET,Rio Parana
0-76-4-86451000,AE992A0E66FD84C32DC6ED2E111F3C840581B57E,AEAF735EBFC73611C8A50B6D0319BD4258B45918,24.0,millimetre,WHOS,,,,,,,,,True,-29.0156,-51.5428,,,Brazil,WHOS,
0-76-0-4203600000000587,579306F28FD733AA2E399FBECC3D744C33E21975,AEAF735EBFC73611C8A50B6D0319BD4258B45918,24.0,millimetre,WHOS,,,,,,,,,True,-27.3886111,-51.21583333,,,Brazil,INMET,Rio Uruguay
0-76-0-5004601000000367,EC6C96689C8ED79CD7A4BE0C870CBCB4862916F9,AEAF735EBFC73611C8A50B6D0319BD4258B45918,24.0,millimetre,WHOS,,,,,,,,,True,-23.449501,-54.181858,,,Brazil,INMET,Rio Parana
0-76-4-61465600,4EE025339D259F8567BE3854FB9578BA91A1B788,AEAF735EBFC73611C8A50B6D0319BD4258B45918,24.0,millimetre,WHOS,,,,,,,,,True,-22.1156,-44.8397,,,Brazil,WHOS,Rio Parana
0-76-4-61114500,1D667653B87DC5FF747E9D5B28945B76EE0CA9CC,AEAF735EBFC73611C8A50B6D0319BD4258B45918,24.0,millimetre,WHOS,,,,,,,,,True,-21.055,-44.21,,,Brazil,WHOS,Rio Parana
0-76-4-18409000,E8D0CC079BE6210DDFFFA5D87D36F93258F789A4,AEAF735EBFC73611C8A50B6D0319BD4258B45918,24.0,millimetre,WHOS,,,,,,,,,True,-14.6111,-53.9986,,,Brazil,WHOS,
0-76-4-24800000,FEF05A984F34BA2ED95E1CFC00C7D4A56F0DE58B,AEAF735EBFC73611C8A50B6D0319BD4258B45918,24.0,millimetre,WHOS,,,,,,,,,True,-15.8897,-51.8528,,,Brazil,WHOS,
0-76-4-86447000,E58925CEAE2B0E92555F701D5A35FB33563F1FB0,AEAF735EBFC73611C8A50B6D0319BD4258B45918,24.0,millimetre,WHOS,,,,,,,,,True,-28.9714,-51.4611,,,Brazil,WHOS,
0-76-4-43190900,C0215AE0671826301CF83ED2AC0C51B1D30C512C,AEAF735EBFC73611C8A50B6D0319BD4258B45918,24.0,millimetre,WHOS,,,,,,,,,True,-16.3725,-45.07,,,Brazil,WHOS,
0-76-4-66870000,34CD8EE7E910CEEF22936348E7A6E365C10FD517,AEAF735EBFC73611C8A50B6D0319BD4258B45918,24.0,millimetre,WHOS,,,,,,,,,True,-18.5078,-54.7619,,,Brazil,WHOS,Rio Paraguay
0-76-4-60478251,276E54940025AE6C87AC123D35EE571FE94DB834,AEAF735EBFC73611C8A50B6D0319BD4258B45918,24.0,millimetre,WHOS,,,,,,,,,True,-15.8194,-47.9556,,,Brazil,WHOS,Rio Parana
0-76-4-60975000,70C43FB84876C130CEA778985171F4B22076A4AC,AEAF735EBFC73611C8A50B6D0319BD4258B45918,24.0,millimetre,WHOS,,,,,,,,,True,-19.2964,-51.1319,,,Brazil,WHOS,Rio Parana
0-76-4-40410080,77438A85054A3668BE88977585EFD2EEB27E3F44,AEAF735EBFC73611C8A50B6D0319BD4258B45918,24.0,millimetre,WHOS,,,,,,,,,True,-19.6961,-45.0947,,,Brazil,WHOS,
0-76-4-62335000,3B52E18FF0C9BA3A163608507E4E44E255140B63,AEAF735EBFC73611C8A50B6D0319BD4258B45918,24.0,millimetre,WHOS,,,,,,,,,True,-23.4411,-46.9089,,,Brazil,WHOS,Rio Parana
0-76-4-58345000,C9874E4010E65BC99660843B37BB9ED0B3305FD7,AEAF735EBFC73611C8A50B6D0319BD4258B45918,24.0,millimetre,WHOS,,,,,,,,,True,-22.7489,-44.1247,,,Brazil,WHOS,
0-76-4-3054030,19D53BDFB170A7ED3743FF21D0EC1F2F6D1D68EA,AEAF735EBFC73611C8A50B6D0319BD4258B45918,24.0,millimetre,WHOS,,,,,,,,,True,-30.4811,-54.5533,,,Brazil,WHOS,Rio Uruguay
0-76-4-60190000,4CBC92038BC138F64AACB934E8D5135A5DFB73AA,AEAF735EBFC73611C8A50B6D0319BD4258B45918,24.0,millimetre,WHOS,,,,,,,,,True,-17.9211,-48.0308,,,Brazil,WHOS,Rio Parana
0-76-4-66052500,76A5BF22B75B8DCA020EA5BBB0BCECB424660BE0,AEAF735EBFC73611C8A50B6D0319BD4258B45918,24.0,millimetre,WHOS,,,,,,,,,True,-14.7606,-58.0242,,,Brazil,WHOS,Rio Paraguay
0-76-4-61872600,A323B19CC2F035339720A2791BFF433BA2C5188E,AEAF735EBFC73611C8A50B6D0319BD4258B45918,24.0,millimetre,WHOS,,,,,,,,,True,-22.2797,-46.7594,,,Brazil,WHOS,Rio Parana
0-76-0-4317103000000015,A03F4113524916F6038EDD52E99CB61B9ABD7643,AEAF735EBFC73611C8A50B6D0319BD4258B45918,24.0,millimetre,WHOS,,,,,,,,,True,-30.75055555,-55.40138888,,,Brazil,INMET,Rio Uruguay
0-76-4-64849000,5D5688F969FEC9D9F1669F5E27BF1F18BB7B9E7D,AEAF735EBFC73611C8A50B6D0319BD4258B45918,24.0,millimetre,WHOS,,,,,,,,,True,-24.3939,-54.1383,,,Brazil,WHOS,Rio Parana
0-76-4-58116900,7DE274DB9C1EE378B3D13B324FAA2010D1E7AEED,AEAF735EBFC73611C8A50B6D0319BD4258B45918,24.0,millimetre,WHOS,,,,,,,,,True,-23.3303,-46.2811,,,Brazil,WHOS,
0-76-4-64815000,FF9DE44773DBAAD0B45A82210DE0319A00F547BD,AEAF735EBFC73611C8A50B6D0319BD4258B45918,24.0,millimetre,WHOS,,,,,,,,,True,-24.1331,-53.3167,,,Brazil,WHOS,Rio Parana
0-76-4-62379050,C21DCCABD656105FAD6C8ADBD22F6DA5BF4EED62,AEAF735EBFC73611C8A50B6D0319BD4258B45918,24.0,millimetre,WHOS,,,,,,,,,True,-23.2033,-47.3017,,,Brazil,WHOS,Rio Parana
0-76-0-5107602000000065,EBE3334D1DAE06389541786DCDC195720AD50293,AEAF735EBFC73611C8A50B6D0319BD4258B45918,24.0,millimetre,WHOS,,,,,,,,,True,-16.4625,-54.58027777,,,Brazil,INMET,Rio Paraguay
0-76-0-4203600000000432,B7FBF39C7D5556BFAC00B4A847112E40CE815139,AEAF735EBFC73611C8A50B6D0319BD4258B45918,24.0,millimetre,WHOS,,,,,,,,,True,-26.40638888,-52.85027777,,,Brazil,INMET,Rio Uruguay
0-76-4-86479000,9BDE3CE04F0641B52BBE99CDEA8B705D5D665E05,AEAF735EBFC73611C8A50B6D0319BD4258B45918,24.0,millimetre,WHOS,,,,,,,,,True,-28.5792,-51.8686,,,Brazil,WHOS,
0-76-4-61997000,115DA75F28C3889CE04932C8897BF625413E4784,AEAF735EBFC73611C8A50B6D0319BD4258B45918,24.0,millimetre,WHOS,,,,,,,,,True,-20.1772,-50.0275,,,Brazil,WHOS,Rio Parana
0-76-4-65803001,24C524B466941BC204BCE4C84E78147F81C05EED,AEAF735EBFC73611C8A50B6D0319BD4258B45918,24.0,millimetre,WHOS,,,,,,,,,True,-25.7883,-52.1147,,,Brazil,WHOS,Rio Parana
0-76-4-3055017,9AAF6A741020B7A66D15155E1F8E68115092CD64,AEAF735EBFC73611C8A50B6D0319BD4258B45918,24.0,millimetre,WHOS,,,,,,,,,True,-30.665,-55.9531,,,Brazil,WHOS,Rio Uruguay
0-76-4-2650035,0E79537A5C83F57F6F950E524CAF8CB9CE4A059D,AEAF735EBFC73611C8A50B6D0319BD4258B45918,24.0,millimetre,WHOS,,,,,,,,,True,-26.8192,-50.9856,,,Brazil,WHOS,Rio Uruguay
0-76-4-72870200,5222AB2BB2E07F4A134C9A0F66824B2259BC1D60,AEAF735EBFC73611C8A50B6D0319BD4258B45918,24.0,millimetre,WHOS,,,,,,,,,True,-27.2975,-51.5522,,,Brazil,WHOS,Rio Uruguay
0-76-4-84534000,14B78804D6FBA793D7AD251E50A86F0771A687DA,AEAF735EBFC73611C8A50B6D0319BD4258B45918,24.0,millimetre,WHOS,,,,,,,,,True,-28.0817,-49.1481,,,Brazil,WHOS,
0-76-4-60500200,A34912D7E10F481AA124A2A1137E7B181BD41007,AEAF735EBFC73611C8A50B6D0319BD4258B45918,24.0,millimetre,WHOS,,,,,,,,,True,-16.7875,-47.8856,,,Brazil,WHOS,Rio Parana
0-76-4-73770000,761E51C0EA8A7F8F17ABEB3860483B127FB5AFBC,AEAF735EBFC73611C8A50B6D0319BD4258B45918,24.0,millimetre,WHOS,,,,,,,,,True,-26.8175,-52.7344,,,Brazil,WHOS,Rio Uruguay
0-76-0-3535606000000262,0EE98527EAEADD4FDC8136027AEA5F8E66184180,AEAF735EBFC73611C8A50B6D0319BD4258B45918,24.0,millimetre,WHOS,,,,,,,,,True,-23.22833332,-45.41694443,,,Brazil,INMET,
0-76-4-60883000,4E4D0B5F16F0561851437343A781C81097A52CF4,AEAF735EBFC73611C8A50B6D0319BD4258B45918,24.0,millimetre,WHOS,,,,,,,,,True,-17.6508,-52.0075,,,Brazil,WHOS,Rio Parana
0-76-4-72880000,D21A7CC7D80EC25EC825798E3D9AA5D384B2BD5D,AEAF735EBFC73611C8A50B6D0319BD4258B45918,24.0,millimetre,WHOS,,,,,,,,,True,-27.3394,-51.6114,,,Brazil,WHOS,Rio Uruguay
0-76-4-60045000,3F627FC36D24F4BC8B2D55D8F7923B465F76BB17,AEAF735EBFC73611C8A50B6D0319BD4258B45918,24.0,millimetre,WHOS,,,,,,,,,True,-17.7731,-47.5361,,,Brazil,WHOS,Rio Parana
0-76-0-3306008000000519,F992CCDCA647EF2FC173DEC4D18C2C1089047558,AEAF735EBFC73611C8A50B6D0319BD4258B45918,24.0,millimetre,WHOS,,,,,,,,,True,-22.09833333,-43.20833333,,,Brazil,INMET,
0-76-4-65260001,E8DF11E149511317C98F70FFFCEC0F13724AE293,AEAF735EBFC73611C8A50B6D0319BD4258B45918,24.0,millimetre,WHOS,,,,,,,,,True,-26.5875,-50.7283,,,Brazil,WHOS,Rio Parana
0-76-0-3119609000000485,DBD796E8DECEAAF34CCD80FD231EAC0BC0A1CBF7,AEAF735EBFC73611C8A50B6D0319BD4258B45918,24.0,millimetre,WHOS,,,,,,,,,True,-21.54666666,-43.26111111,,,Brazil,INMET,
0-76-4-84597300,8DC005F374BB8CC797734A76AA5D5C7714A6F124,AEAF735EBFC73611C8A50B6D0319BD4258B45918,24.0,millimetre,WHOS,,,,,,,,,True,-28.1175,-48.9714,,,Brazil,WHOS,
0-76-4-66071380,86C5AAC1AD8C74FCBE999C759A7BDD7630AF3B65,AEAF735EBFC73611C8A50B6D0319BD4258B45918,24.0,millimetre,WHOS,,,,,,,,,True,-15.1322,-58.7297,,,Brazil,WHOS,Rio Paraguay
0-76-4-2351080,EAFD08668F9F4A0313BE0111BC1742A1B725C79E,AEAF735EBFC73611C8A50B6D0319BD4258B45918,24.0,millimetre,WHOS,,,,,,,,,True,-23.5175,-51.5303,,,Brazil,WHOS,Rio Parana
0-76-4-62790080,B7582DF30C5A0C98E6FD86D2FD357AF59EF5363E,AEAF735EBFC73611C8A50B6D0319BD4258B45918,24.0,millimetre,WHOS,,,,,,,,,True,-21.7575,-48.9914,,,Brazil,WHOS,Rio Parana
0-76-4-66400050,86EA32A72B5A6511C62639ABF7E04BA70EB9FC35,AEAF735EBFC73611C8A50B6D0319BD4258B45918,24.0,millimetre,WHOS,,,,,,,,,True,-16.0964,-55.0425,,,Brazil,WHOS,Rio Paraguay
0-76-4-62760043,74E5DB617563331231EA96FF9FBAC6594D34173F,AEAF735EBFC73611C8A50B6D0319BD4258B45918,24.0,millimetre,WHOS,,,,,,,,,True,-22.1678,-47.9036,,,Brazil,WHOS,Rio Parana
0-76-4-86195000,E2D8C341E4B723465042F29E4CD5217AB2D8D956,AEAF735EBFC73611C8A50B6D0319BD4258B45918,24.0,millimetre,WHOS,,,,,,,,,True,-29.0206,-50.7314,,,Brazil,WHOS,
0-76-4-63001605,1C0DC0DE707C6828312F7C4AB0F416F66826DD90,AEAF735EBFC73611C8A50B6D0319BD4258B45918,24.0,millimetre,WHOS,,,,,,,,,True,-19.0656,-52.5017,,,Brazil,WHOS,Rio Parana
0-76-4-64320010,DF204476F649EA27FADF6AE08C1B4B36D9E1AC56,AEAF735EBFC73611C8A50B6D0319BD4258B45918,24.0,millimetre,WHOS,,,,,,,,,True,-22.9072,-49.6253,,,Brazil,WHOS,Rio Parana
0-76-0-3147907000000086,797F90F778D646A1361831BB945E32EC3D8F1663,AEAF735EBFC73611C8A50B6D0319BD4258B45918,24.0,millimetre,WHOS,,,,,,,,,True,-20.745237,-46.633916,,,Brazil,INMET,Rio Parana
0-76-4-60473000,E38BDFDA17993FBDF28CB55A11F005AF7D4C9CF8,AEAF735EBFC73611C8A50B6D0319BD4258B45918,24.0,millimetre,WHOS,,,,,,,,,True,-15.6572,-47.6247,,,Brazil,WHOS,Rio Parana
0-76-4-60622000,D82219803F931255145796EDE7D3A03BB2E19FCA,AEAF735EBFC73611C8A50B6D0319BD4258B45918,24.0,millimetre,WHOS,,,,,,,,,True,-18.525,-49.2156,,,Brazil,WHOS,Rio Parana
0-76-4-66380100,A2BD4DA37074F26F705F0357AFD93FDEC5D781B9,AEAF735EBFC73611C8A50B6D0319BD4258B45918,24.0,millimetre,WHOS,,,,,,,,,True,-15.9981,-54.9217,,,Brazil,WHOS,Rio Paraguay
0-76-4-64560000,6A0C56B1F94D051930B866BDED77A1E882016ADC,AEAF735EBFC73611C8A50B6D0319BD4258B45918,24.0,millimetre,WHOS,,,,,,,,,True,-22.6106,-52.0017,,,Brazil,WHOS,Rio Parana
0-76-0-5210208000000493,ADFF8926B9AFE767DFBD602EE6F46BFF346A3C97,AEAF735EBFC73611C8A50B6D0319BD4258B45918,24.0,millimetre,WHOS,,,,,,,,,True,-16.42305554,-51.14888888,,,Brazil,INMET,
0-76-4-60444500,13BE9735B454D40039CD4BA8E5777C5C60DCA867,AEAF735EBFC73611C8A50B6D0319BD4258B45918,24.0,millimetre,WHOS,,,,,,,,,True,-16.1544,-48.6664,,,Brazil,WHOS,Rio Parana
0-76-4-73691000,AFDB90CA99B4A17F1DD8F95F4CD331939E8C9E05,AEAF735EBFC73611C8A50B6D0319BD4258B45918,24.0,millimetre,WHOS,,,,,,,,,True,-26.7947,-52.1378,,,Brazil,WHOS,Rio Uruguay
0-76-4-75650900,FCF1B882A9AC72EB355BA01E6F603EFE3647787B,AEAF735EBFC73611C8A50B6D0319BD4258B45918,24.0,millimetre,WHOS,,,,,,,,,True,-28.6825,-55.5794,,,Brazil,WHOS,Rio Uruguay
0-76-4-61370000,D874C4B7F8EBAF7E274D04DAE2544AB0F4B4E32C,AEAF735EBFC73611C8A50B6D0319BD4258B45918,24.0,millimetre,WHOS,,,,,,,,,True,-22.3542,-45.8539,,,Brazil,WHOS,Rio Parana
0-76-4-42450900,08E20B6DD41835CC8E369FBE0A6E5A211704CFB2,AEAF735EBFC73611C8A50B6D0319BD4258B45918,24.0,millimetre,WHOS,,,,,,,,,True,-15.9739,-47.3986,,,Brazil,WHOS,
0-76-0-3169356000000100,51B05201C30FAE7DA0EC56E3CD7CFCD1D138E8AA,AEAF735EBFC73611C8A50B6D0319BD4258B45918,24.0,millimetre,WHOS,,,,,,,,,True,-18.200855,-45.459836,,,Brazil,INMET,
0-76-4-73698500,619452A0DECEFB596DEEE29541A294FA72A0B064,AEAF735EBFC73611C8A50B6D0319BD4258B45918,24.0,millimetre,WHOS,,,,,,,,,True,-26.7497,-52.3997,,,Brazil,WHOS,Rio Uruguay
0-76-0-1381098000000370,EACE08B25F1B7DF35ABD8AFAB52F72CA2B20B5B6,AEAF735EBFC73611C8A50B6D0319BD4258B45918,24.0,millimetre,WHOS,,,,,,,,,True,-14.92777777,-53.8836111,,,Brazil,INMET,
0-76-4-2549113,A2C0FE88726D8FFD636DD80ADD6D68DA4F212346,AEAF735EBFC73611C8A50B6D0319BD4258B45918,24.0,millimetre,WHOS,,,,,,,,,True,-25.4892,-49.0408,,,Brazil,WHOS,Rio Parana
0-76-4-65310001,22B0876322905B352911F3B081B8BBAB089781F5,AEAF735EBFC73611C8A50B6D0319BD4258B45918,24.0,millimetre,WHOS,,,,,,,,,True,-26.2281,-51.0803,,,Brazil,WHOS,Rio Parana
0-76-4-86450500,F3B4AD61B6CE619B034BB310C876DA4C22FC37AE,AEAF735EBFC73611C8A50B6D0319BD4258B45918,24.0,millimetre,WHOS,,,,,,,,,True,-29.0211,-51.5333,,,Brazil,WHOS,
0-76-4-60564000,282767A82ACAE55E1C86206EAB71C19A8B8FB69E,AEAF735EBFC73611C8A50B6D0319BD4258B45918,24.0,millimetre,WHOS,,,,,,,,,True,-17.5331,-48.5069,,,Brazil,WHOS,Rio Parana
0-76-0-3527108000000105,61DFF9415D9D7963048F0A184E68D6C45B5D582B,AEAF735EBFC73611C8A50B6D0319BD4258B45918,24.0,millimetre,WHOS,,,,,,,,,True,-21.66611111,-49.73472221,,,Brazil,INMET,Rio Parana
0-76-4-62871000,27D4A3E8CBA4D322E8138A6E185ECD20B19EE882,AEAF735EBFC73611C8A50B6D0319BD4258B45918,24.0,millimetre,WHOS,,,,,,,,,True,-20.9033,-50.2569,,,Brazil,WHOS,Rio Parana
0-76-4-2250100,4EDB78B4F6D0B4FA25E79BE849E111E4D9334B02,AEAF735EBFC73611C8A50B6D0319BD4258B45918,24.0,millimetre,WHOS,,,,,,,,,True,-22.7222,-50.1358,,,Brazil,WHOS,Rio Parana
0-76-4-41380000,9D334008ADD0B30D6FB21C55B7E9C11CEB96CE42,AEAF735EBFC73611C8A50B6D0319BD4258B45918,24.0,millimetre,WHOS,,,,,,,,,True,-19.4619,-43.9036,,,Brazil,WHOS,
0-76-4-61710000,0F336FC4D7552AF8FF6EEAB063C6BF918BB1A2D4,AEAF735EBFC73611C8A50B6D0319BD4258B45918,24.0,millimetre,WHOS,,,,,,,,,True,-20.8097,-46.8067,,,Brazil,WHOS,Rio Parana
0-76-4-66390090,DD2D89FC1D2192978481402309A39B11F66C7260,AEAF735EBFC73611C8A50B6D0319BD4258B45918,24.0,millimetre,WHOS,,,,,,,,,True,-16.045,-54.8867,,,Brazil,WHOS,Rio Paraguay
0-76-4-61898500,E30FD59A4248DA23550E4A17DDEABEA664FBCEAE,AEAF735EBFC73611C8A50B6D0319BD4258B45918,24.0,millimetre,WHOS,,,,,,,,,True,-21.9269,-47.3253,,,Brazil,WHOS,Rio Parana
0-76-0-3164209000000218,9E1D5C7C1F71EB1643ADC1679896D20AD6658C8D,AEAF735EBFC73611C8A50B6D0319BD4258B45918,24.0,millimetre,WHOS,,,,,,,,,True,-16.36277777,-45.12388888,,,Brazil,INMET,
0-76-4-62344000,07A1BA3E65349BF9340A5AA8C0AD264B7EE62A08,AEAF735EBFC73611C8A50B6D0319BD4258B45918,24.0,millimetre,WHOS,,,,,,,,,True,-23.2647,-46.4808,,,Brazil,WHOS,Rio Parana
0-76-4-70610000,4CB894CFEC3057F157951F3B54A3DCA9D60D2E3B,AEAF735EBFC73611C8A50B6D0319BD4258B45918,24.0,millimetre,WHOS,,,,,,,,,True,-28.2883,-50.6431,,,Brazil,WHOS,Rio Uruguay
0-76-4-66170100,65819083ECBAED086A1418B7F98F307B90CC4DF1,AEAF735EBFC73611C8A50B6D0319BD4258B45918,24.0,millimetre,WHOS,,,,,,,,,True,-15.3569,-55.3986,,,Brazil,WHOS,Rio Paraguay
0-76-4-62690500,D7F6312E20F50F01507D54E350FE1C2239C8A8B8,AEAF735EBFC73611C8A50B6D0319BD4258B45918,24.0,millimetre,WHOS,,,,,,,,,True,-22.7447,-47.1492,,,Brazil,WHOS,Rio Parana
0-76-4-60790001,25F422477C9F1CABE2CFAC83469B723C7612445B,AEAF735EBFC73611C8A50B6D0319BD4258B45918,24.0,millimetre,WHOS,,,,,,,,,True,-17.5408,-50.5556,,,Brazil,WHOS,Rio Parana
0-76-4-76500040,409D6627B308A3ACF3DEE8C067279E97D6432DC5,AEAF735EBFC73611C8A50B6D0319BD4258B45918,24.0,millimetre,WHOS,,,,,,,,,True,-29.6869,-55.1964,,,Brazil,WHOS,Rio Uruguay
0-76-0-3300100000000555,CE75FFFD9A821C80A553358267F8F7EC6D41AFD9,AEAF735EBFC73611C8A50B6D0319BD4258B45918,24.0,millimetre,WHOS,,,,,,,,,True,-22.97555554,-44.30333333,,,Brazil,INMET,
0-76-4-74340000,BB51E7F2A99DFDA9D67CD8D9DC899542E9BDC5A8,AEAF735EBFC73611C8A50B6D0319BD4258B45918,24.0,millimetre,WHOS,,,,,,,,,True,-27.7653,-53.5575,,,Brazil,WHOS,Rio Uruguay
0-76-4-64899500,D002A76FE3246A8656A37163B09143049C79F813,AEAF735EBFC73611C8A50B6D0319BD4258B45918,24.0,millimetre,WHOS,,,,,,,,,True,-25.2667,-54.4333,,,Brazil,WHOS,Rio Parana
0-76-4-42459080,89747DE9E09619FF42BDA972D4F43D9D563FA850,AEAF735EBFC73611C8A50B6D0319BD4258B45918,24.0,millimetre,WHOS,,,,,,,,,True,-16.2106,-47.3233,,,Brazil,WHOS,
0-76-4-61014950,86F971E300E96E829A97ACD02F9997AB968BB861,AEAF735EBFC73611C8A50B6D0319BD4258B45918,24.0,millimetre,WHOS,,,,,,,,,True,-22.23,-44.6661,,,Brazil,WHOS,Rio Parana
0-76-4-60436300,01B163A4CCC1CB3211C34ABA57B9D2D43336E174,AEAF735EBFC73611C8A50B6D0319BD4258B45918,24.0,millimetre,WHOS,,,,,,,,,True,-16.0081,-48.2719,,,Brazil,WHOS,Rio Parana
0-76-4-71497000,6F82E2132E7B058C2BDABDCF2DED2B678F1431FC,AEAF735EBFC73611C8A50B6D0319BD4258B45918,24.0,millimetre,WHOS,,,,,,,,,True,-27.225,-50.7339,,,Brazil,WHOS,Rio Uruguay
0-76-4-2143162,8D16E0327B8BDF130C9F00B0E3BE7CCB33AA56A4,AEAF735EBFC73611C8A50B6D0319BD4258B45918,24.0,millimetre,WHOS,,,,,,,,,True,-21.58527777,-43.52722221,,,Brazil,WHOS,
0-76-4-61895020,F7947498C6FC111170A6F3A1CA2A82036C64B760,AEAF735EBFC73611C8A50B6D0319BD4258B45918,24.0,millimetre,WHOS,,,,,,,,,True,-21.9389,-46.8161,,,Brazil,WHOS,Rio Parana
0-76-4-2044079,97C2E14D523C9A1CB4B7B4A27D5A7E3FFBCDE85E,AEAF735EBFC73611C8A50B6D0319BD4258B45918,24.0,millimetre,WHOS,,,,,,,,,True,-20.91027,-44.0775,,,Brazil,WHOS,
0-76-4-83800002,9BCEA6520E9F21D9D190BCB3039AB80AC758A9D9,AEAF735EBFC73611C8A50B6D0319BD4258B45918,24.0,millimetre,WHOS,,,,,,,,,True,-26.9186,-49.0656,,,Brazil,WHOS,
0-76-4-2949029,E0BF684E54565C2F6C46A2F8EB2BE718A1996791,AEAF735EBFC73611C8A50B6D0319BD4258B45918,24.0,millimetre,WHOS,,,,,,,,,True,-29.0922,-49.8808,,,Brazil,WHOS,
0-76-4-61078600,72F057E6BC84C2A6EEEEDB2D830C23695DE4DDAE,AEAF735EBFC73611C8A50B6D0319BD4258B45918,24.0,millimetre,WHOS,,,,,,,,,True,-21.3375,-44.8725,,,Brazil,WHOS,Rio Parana
0-76-4-3253030,BDE957B683E0B7C319405DD7E8ECDD6B0FC39E17,AEAF735EBFC73611C8A50B6D0319BD4258B45918,24.0,millimetre,WHOS,,,,,,,,,True,-32.0289,-53.3978,,,Brazil,WHOS,
0-76-4-41210000,7946AB49EB8D119704D7FEC0A57BECCC27FE9D90,AEAF735EBFC73611C8A50B6D0319BD4258B45918,24.0,millimetre,WHOS,,,,,,,,,True,-19.9028,-43.6664,,,Brazil,WHOS,
0-76-4-18408500,D3BBED9E06002C235443102C61FB8A6197314FC8,AEAF735EBFC73611C8A50B6D0319BD4258B45918,24.0,millimetre,WHOS,,,,,,,,,True,-14.6297,-53.9097,,,Brazil,WHOS,
0-76-4-87376000,0E4CE4E0E1342FA3AFBCF2E780B45A31EB1CB7CA,AEAF735EBFC73611C8A50B6D0319BD4258B45918,24.0,millimetre,WHOS,,,,,,,,,True,-29.6858,-50.8122,,,Brazil,WHOS,
0-76-4-20000950,E15DB87ABBAA9838C06AEE753A6189247FE5EE24,AEAF735EBFC73611C8A50B6D0319BD4258B45918,24.0,millimetre,WHOS,,,,,,,,,True,-15.5281,-47.7419,,,Brazil,WHOS,
0-76-4-61536000,8D8C66BD777B7605542DACFE16F5432DD97EA875,AEAF735EBFC73611C8A50B6D0319BD4258B45918,24.0,millimetre,WHOS,,,,,,,,,True,-21.5931,-45.4272,,,Brazil,WHOS,Rio Parana
0-76-4-62820080,9C661F93AE0C3DE104B858A38FACB2E6B6DB67EC,AEAF735EBFC73611C8A50B6D0319BD4258B45918,24.0,millimetre,WHOS,,,,,,,,,True,-21.2967,-49.7839,,,Brazil,WHOS,Rio Parana
0-76-4-81499200,9F831DDD6AC94882A79F5CA32BBFD26C33E93269,AEAF735EBFC73611C8A50B6D0319BD4258B45918,24.0,millimetre,WHOS,,,,,,,,,True,-23.9722,-47.3872,,,Brazil,WHOS,
0-76-4-61696000,8B211681095F98F1881487C5812AED7769B4B622,AEAF735EBFC73611C8A50B6D0319BD4258B45918,24.0,millimetre,WHOS,,,,,,,,,True,-20.6689,-46.8014,,,Brazil,WHOS,Rio Parana
0-76-4-86060010,008C1FB9A42BF48CAD8AC96151D5F2688A044209,AEAF735EBFC73611C8A50B6D0319BD4258B45918,24.0,millimetre,WHOS,,,,,,,,,True,-28.9489,-50.0556,,,Brazil,WHOS,
0-76-4-58586000,037ED8FF6F69E2E6DD483CD9287CD6D73500DC56,AEAF735EBFC73611C8A50B6D0319BD4258B45918,24.0,millimetre,WHOS,,,,,,,,,True,-22.0847,-43.56,,,Brazil,WHOS,
0-76-4-25130000,3CC213CE3818276F0E5728402F8011152EAF6286,AEAF735EBFC73611C8A50B6D0319BD4258B45918,24.0,millimetre,WHOS,,,,,,,,,True,-15.5358,-50.7047,,,Brazil,WHOS,
0-76-4-63010000,5801BC29B92959B41E290E8D43ED56D19E26C3B9,AEAF735EBFC73611C8A50B6D0319BD4258B45918,24.0,millimetre,WHOS,,,,,,,,,True,-20.8553,-51.635,,,Brazil,WHOS,Rio Parana
0-76-4-60444850,C337BA3044566A57199ECE264F55ACF05079F308,AEAF735EBFC73611C8A50B6D0319BD4258B45918,24.0,millimetre,WHOS,,,,,,,,,True,-16.1264,-48.1494,,,Brazil,WHOS,Rio Parana
0-76-0-5003207000000126,066485F601E8002E99757D9A607C446FD068B22D,AEAF735EBFC73611C8A50B6D0319BD4258B45918,24.0,millimetre,WHOS,,,,,,,,,True,-18.99666666,-57.63749999,,,Brazil,INMET,Rio Paraguay
0-76-4-2752035,5BC2A43AB0FA71849004EE68EA7DA764246369A0,AEAF735EBFC73611C8A50B6D0319BD4258B45918,24.0,millimetre,WHOS,,,,,,,,,True,-27.6575,-52.3203,,,Brazil,WHOS,Rio Uruguay
0-76-4-64506000,BA1BFDD5F2A762848FA520D75A629FAC670851C6,AEAF735EBFC73611C8A50B6D0319BD4258B45918,24.0,millimetre,WHOS,,,,,,,,,True,-23.3119,-50.9953,,,Brazil,WHOS,Rio Parana
0-76-4-61150001,84CF2B049AB199B00313B42C0BB9601403C253D4,AEAF735EBFC73611C8A50B6D0319BD4258B45918,24.0,millimetre,WHOS,,,,,,,,,True,-21.1903,-45.0569,,,Brazil,WHOS,Rio Parana
0-76-4-61872200,9B7BFFBDFDE0B5CD0F3F514CFB8B4CCA44FE5BB6,AEAF735EBFC73611C8A50B6D0319BD4258B45918,24.0,millimetre,WHOS,,,,,,,,,True,-22.2758,-46.7453,,,Brazil,WHOS,Rio Parana
0-76-4-63921000,303B312CB6D51193A92A947D580FB92BF79E49A0,AEAF735EBFC73611C8A50B6D0319BD4258B45918,24.0,millimetre,WHOS,,,,,,,,,True,-20.6808,-53.5564,,,Brazil,WHOS,Rio Parana
0-76-4-86410800,E412802F07049CBF71C7D7271407A39A4A6A9044,AEAF735EBFC73611C8A50B6D0319BD4258B45918,24.0,millimetre,WHOS,,,,,,,,,True,-28.7983,-51.4744,,,Brazil,WHOS,
0-76-4-66710000,AF147B96B2ADFB5086ADE7A65B843C705EA7578F,AEAF735EBFC73611C8A50B6D0319BD4258B45918,24.0,millimetre,WHOS,,,,,,,,,True,-17.3656,-56.7747,,,Brazil,WHOS,Rio Paraguay
0-76-0-5006903000000122,A4B4FCF3EB5D8B389E089CA3E470BFB387FC2DC5,AEAF735EBFC73611C8A50B6D0319BD4258B45918,24.0,millimetre,WHOS,,,,,,,,,True,-21.70583333,-57.88666666,,,Brazil,INMET,Rio Paraguay
0-76-4-61878500,D8AE72F511C37ABF6918F2956D955D7AB17A7B36,AEAF735EBFC73611C8A50B6D0319BD4258B45918,24.0,millimetre,WHOS,,,,,,,,,True,-22.6056,-46.5064,,,Brazil,WHOS,Rio Parana
0-76-4-60968000,51313F2282C1814B577A216161BF87D4E3345643,AEAF735EBFC73611C8A50B6D0319BD4258B45918,24.0,millimetre,WHOS,,,,,,,,,True,-19.1075,-51.7208,,,Brazil,WHOS,Rio Parana
0-76-4-62900080,6698F79B1D029542AB5F74789BF6716F7FA8E30B,AEAF735EBFC73611C8A50B6D0319BD4258B45918,24.0,millimetre,WHOS,,,,,,,,,True,-20.6711,-51.2986,,,Brazil,WHOS,Rio Parana
0-76-4-62726800,3E3CA6098CCCF8656D2D000F0A87F294ECC293B6,AEAF735EBFC73611C8A50B6D0319BD4258B45918,24.0,millimetre,WHOS,,,,,,,,,True,-22.5953,-48.6997,,,Brazil,WHOS,Rio Parana
0-76-4-20130000,857E9DCF8EFA1690AAED605FDF235F3BAEEDF482,AEAF735EBFC73611C8A50B6D0319BD4258B45918,24.0,millimetre,WHOS,,,,,,,,,True,-15.5142,-49.4853,,,Brazil,WHOS,
0-76-0-3529005000000547,B6380AAE71EBB90B12F28106350B98127EEFA610,AEAF735EBFC73611C8A50B6D0319BD4258B45918,24.0,millimetre,WHOS,,,,,,,,,True,-22.235222,-49.965111,,,Brazil,INMET,Rio Parana
0-76-0-3524105000000403,AF5C03CBEF60994698928AC44BCA6AFB0608A91A,AEAF735EBFC73611C8A50B6D0319BD4258B45918,24.0,millimetre,WHOS,,,,,,,,,True,-20.35972222,-47.77527777,,,Brazil,INMET,Rio Parana
0-76-4-61268700,8C3B0FD67EB8435B6C1022774F2FDD8AEDC2A66A,AEAF735EBFC73611C8A50B6D0319BD4258B45918,24.0,millimetre,WHOS,,,,,,,,,True,-22.4992,-45.3139,,,Brazil,WHOS,Rio Parana
0-76-4-25100000,DFAD6D4833F4A38F6AB94A9D67B71215537FF2E5,AEAF735EBFC73611C8A50B6D0319BD4258B45918,24.0,millimetre,WHOS,,,,,,,,,True,-15.9222,-50.1717,,,Brazil,WHOS,
0-76-4-73448000,08D5A78FE66F108C48C3295B8312E02965FDA3FE,AEAF735EBFC73611C8A50B6D0319BD4258B45918,24.0,millimetre,WHOS,,,,,,,,,True,-27.5703,-52.6781,,,Brazil,WHOS,Rio Uruguay
0-76-4-26150000,B05684B6C97CCA31B8D541BE525E484395AA0EE2,AEAF735EBFC73611C8A50B6D0319BD4258B45918,24.0,millimetre,WHOS,,,,,,,,,True,-14.5997,-51.7197,,,Brazil,WHOS,
0-76-4-85076000,0AECB7BABFE6E67F24B5FFD912CBB0832D09E895,AEAF735EBFC73611C8A50B6D0319BD4258B45918,24.0,millimetre,WHOS,,,,,,,,,True,-28.6728,-52.7311,,,Brazil,WHOS,
0-76-4-61284500,399D8548A4E0760E2DFDF29903D79B21A97ABB1D,AEAF735EBFC73611C8A50B6D0319BD4258B45918,24.0,millimetre,WHOS,,,,,,,,,True,-22.3717,-45.3472,,,Brazil,WHOS,Rio Parana
0-76-4-25200000,E7A99DD7EFBA67C2E99A7435A3295C6D5BF4ACED,AEAF735EBFC73611C8A50B6D0319BD4258B45918,24.0,millimetre,WHOS,,,,,,,,,True,-14.9128,-51.0814,,,Brazil,WHOS,
0-76-4-73204000,45A9C8B75FF862F26BB43131B27EC829A987BE47,AEAF735EBFC73611C8A50B6D0319BD4258B45918,24.0,millimetre,WHOS,,,,,,,,,True,-26.7169,-52.8914,,,Brazil,WHOS,Rio Uruguay
0-76-4-61271000,098FAB93BD93017DC1C722106B5C6D283D6571F1,AEAF735EBFC73611C8A50B6D0319BD4258B45918,24.0,millimetre,WHOS,,,,,,,,,True,-22.4458,-45.4242,,,Brazil,WHOS,Rio Parana
0-76-4-66162000,FF4C2285B8DE8196A558590EC35A85DFDD5789DF,AEAF735EBFC73611C8A50B6D0319BD4258B45918,24.0,millimetre,WHOS,,,,,,,,,True,-14.81,-55.2761,,,Brazil,WHOS,Rio Paraguay
0-76-4-86390900,F409708FA2358761E0AF1DA8AB453CE646248615,AEAF735EBFC73611C8A50B6D0319BD4258B45918,24.0,millimetre,WHOS,,,,,,,,,True,-28.5328,-51.4094,,,Brazil,WHOS,
0-76-4-86280500,A8F9E3712207EA55A2765EAA6893B8A0D906B69A,AEAF735EBFC73611C8A50B6D0319BD4258B45918,24.0,millimetre,WHOS,,,,,,,,,True,-29.0367,-51.0956,,,Brazil,WHOS,
0-76-4-61890800,652D5BB14A62CF44B6B04B8C3F4DC6A8FDB0C41C,AEAF735EBFC73611C8A50B6D0319BD4258B45918,24.0,millimetre,WHOS,,,,,,,,,True,-22.0981,-46.5672,,,Brazil,WHOS,Rio Parana
0-76-4-58551000,157013E4D07EE20B6081729B5D4EDB158034790E,AEAF735EBFC73611C8A50B6D0319BD4258B45918,24.0,millimetre,WHOS,,,,,,,,,True,-22.0858,-43.8183,,,Brazil,WHOS,
0-76-4-60614000,B403BC5BA59527E08B448C3AFC97595FD9F21D00,AEAF735EBFC73611C8A50B6D0319BD4258B45918,24.0,millimetre,WHOS,,,,,,,,,True,-18.5097,-49.2475,,,Brazil,WHOS,Rio Parana
0-76-4-58234900,9DE6ACC550FCD720DBFFDF622C346B729351ABB6,AEAF735EBFC73611C8A50B6D0319BD4258B45918,24.0,millimetre,WHOS,,,,,,,,,True,-22.5628,-44.8597,,,Brazil,WHOS,
0-76-4-84559800,117D394583EAFF6A19B90DFA017BE6145AFDEB4A,AEAF735EBFC73611C8A50B6D0319BD4258B45918,24.0,millimetre,WHOS,,,,,,,,,True,-28.2389,-49.1631,,,Brazil,WHOS,
0-76-4-72818000,3088F18A592F507104BB3DCE54AC57BE4EB9F615,AEAF735EBFC73611C8A50B6D0319BD4258B45918,24.0,millimetre,WHOS,,,,,,,,,True,-27.11,-51.325,,,Brazil,WHOS,Rio Uruguay
0-76-4-60650000,37EBEEA0B252B075E7BDCE9BFBE0396133C1936A,AEAF735EBFC73611C8A50B6D0319BD4258B45918,24.0,millimetre,WHOS,,,,,,,,,True,-16.6811,-49.1964,,,Brazil,WHOS,Rio Parana
0-76-0-3302254000000557,1A2FDB6233AF900181A030A873CD04826F6D307B,AEAF735EBFC73611C8A50B6D0319BD4258B45918,24.0,millimetre,WHOS,,,,,,,,,True,-22.37388888,-44.70305555,,,Brazil,INMET,
0-76-4-2450009,89F1531DD64C9062698F429CB6AE56C21365734A,AEAF735EBFC73611C8A50B6D0319BD4258B45918,24.0,millimetre,WHOS,,,,,,,,,True,-24.6778,-50.4844,,,Brazil,WHOS,Rio Parana
0-76-4-64507000,F1BB89F52C36E43F85D237D316089A07D6491A00,AEAF735EBFC73611C8A50B6D0319BD4258B45918,24.0,millimetre,WHOS,,,,,,,,,True,-23.2497,-50.9839,,,Brazil,WHOS,Rio Parana
0-76-4-62671200,BF70A8BDB29C9D173216EF338DAA84746EEAD062,AEAF735EBFC73611C8A50B6D0319BD4258B45918,24.0,millimetre,WHOS,,,,,,,,,True,-23.1058,-46.5958,,,Brazil,WHOS,Rio Parana
0-76-4-70720000,26222BC55AF88BE10CCB4D9BF7394F474E9B9AF5,AEAF735EBFC73611C8A50B6D0319BD4258B45918,24.0,millimetre,WHOS,,,,,,,,,True,-28.2869,-50.8333,,,Brazil,WHOS,Rio Uruguay
0-76-4-63250900,308BB69B6E9F958D442ED9B0E86FCEBA2FF1A16A,AEAF735EBFC73611C8A50B6D0319BD4258B45918,24.0,millimetre,WHOS,,,,,,,,,True,-19.8789,-53.3636,,,Brazil,WHOS,Rio Parana
0-76-4-65970001,C771B713DEE7E0A527E1C51916B16F65BA017D87,AEAF735EBFC73611C8A50B6D0319BD4258B45918,24.0,millimetre,WHOS,,,,,,,,,True,-25.3939,-53.1039,,,Brazil,WHOS,Rio Parana
0-76-4-60540000,5C80D09343C926953FC4E76F223FF47A349F2802,AEAF735EBFC73611C8A50B6D0319BD4258B45918,24.0,millimetre,WHOS,,,,,,,,,True,-17.1314,-48.1372,,,Brazil,WHOS,Rio Parana
0-76-4-2752032,B73091E0A9FA12D3FC890A873B26129BAF125A4E,AEAF735EBFC73611C8A50B6D0319BD4258B45918,24.0,millimetre,WHOS,,,,,,,,,True,-27.3325,-52.7872,,,Brazil,WHOS,Rio Uruguay
0-76-4-63001223,1EFD820DA69D036D75031981B97EB7BEE243C898,AEAF735EBFC73611C8A50B6D0319BD4258B45918,24.0,millimetre,WHOS,,,,,,,,,True,-19.0614,-52.9947,,,Brazil,WHOS,Rio Parana
0-76-4-1647023,2D04696DDFEC8C95857EE5148ED3B0392D32681E,AEAF735EBFC73611C8A50B6D0319BD4258B45918,24.0,millimetre,WHOS,,,,,,,,,True,-16.9683,-47.3419,,,Brazil,WHOS,Rio Parana
0-76-4-24745000,59CEB3D6605D79233F37B4E7D20E78E33C88CFC5,AEAF735EBFC73611C8A50B6D0319BD4258B45918,24.0,millimetre,WHOS,,,,,,,,,True,-16.4033,-51.4033,,,Brazil,WHOS,
0-76-4-64863100,0AD0BA77CC5AD5D17E2797A60CF0ED82275670D5,AEAF735EBFC73611C8A50B6D0319BD4258B45918,24.0,millimetre,WHOS,,,,,,,,,True,-24.7792,-53.7608,,,Brazil,WHOS,Rio Parana
0-76-4-40291000,8C1B4F6AE527528E29E425A9A7A753C8A449C6E5,AEAF735EBFC73611C8A50B6D0319BD4258B45918,24.0,millimetre,WHOS,,,,,,,,,True,-20.0611,-44.6069,,,Brazil,WHOS,
0-76-4-64247000,25DECB60F8D26D152E291801DB42919B1C878217,AEAF735EBFC73611C8A50B6D0319BD4258B45918,24.0,millimetre,WHOS,,,,,,,,,True,-23.7233,-49.5558,,,Brazil,WHOS,Rio Parana
0-76-4-73552000,13575E5621F3ED711886373DD72780F92F8B6652,AEAF735EBFC73611C8A50B6D0319BD4258B45918,24.0,millimetre,WHOS,,,,,,,,,True,-26.6822,-51.5617,,,Brazil,WHOS,Rio Uruguay
0-76-0-3506359000000536,8412A7FA036D2B3FD8C24F021ADFCB06760122B9,AEAF735EBFC73611C8A50B6D0319BD4258B45918,24.0,millimetre,WHOS,,,,,,,,,True,-23.84472221,-46.14333333,,,Brazil,INMET,
0-76-4-58370000,3647EE0F3EF29EEC1761543554A15FB0112DD482,AEAF735EBFC73611C8A50B6D0319BD4258B45918,24.0,millimetre,WHOS,,,,,,,,,True,-22.45,-43.7972,,,Brazil,WHOS,
0-76-4-73100300,D7CEC28F63E7EB8A9FCFBC262839E5ADFF81331B,AEAF735EBFC73611C8A50B6D0319BD4258B45918,24.0,millimetre,WHOS,,,,,,,,,True,-27.4161,-52.2361,,,Brazil,WHOS,Rio Uruguay
0-76-4-81139500,8E9CE6B7B0EE81FA08A8C69E172F28E580BBFD02,AEAF735EBFC73611C8A50B6D0319BD4258B45918,24.0,millimetre,WHOS,,,,,,,,,True,-24.8433,-49.2733,,,Brazil,WHOS,
0-76-4-41192900,00D0B6F2D66BD1FC1D8DABDFE2AECCB354212DA9,AEAF735EBFC73611C8A50B6D0319BD4258B45918,24.0,millimetre,WHOS,,,,,,,,,True,-20.1656,-43.8928,,,Brazil,WHOS,
0-76-4-85500990,E6C824403840E861116F0DE1970653F0AE412FB5,AEAF735EBFC73611C8A50B6D0319BD4258B45918,24.0,millimetre,WHOS,,,,,,,,,True,-28.6211,-52.9353,,,Brazil,WHOS,
0-76-0-3139904000000151,067185AD9C29857397067B70706985FDEF1167A6,AEAF735EBFC73611C8A50B6D0319BD4258B45918,24.0,millimetre,WHOS,,,,,,,,,True,-22.314567,-45.373049,,,Brazil,INMET,Rio Parana
0-76-4-81019000,1E3FF6D8391D818D6CB6FE0BCD1BBEB4A87F1620,AEAF735EBFC73611C8A50B6D0319BD4258B45918,24.0,millimetre,WHOS,,,,,,,,,True,-24.8939,-49.5858,,,Brazil,WHOS,
0-76-4-64101000,0915906C311C0516179C324F7CD580A37DAE221A,AEAF735EBFC73611C8A50B6D0319BD4258B45918,24.0,millimetre,WHOS,,,,,,,,,True,-24.1683,-48.7142,,,Brazil,WHOS,Rio Parana
0-76-0-5005004000000474,82903C2911E3455B54E74B9A94A390BCA5209656,AEAF735EBFC73611C8A50B6D0319BD4258B45918,24.0,millimetre,WHOS,,,,,,,,,True,-21.4786111,-56.13777777,,,Brazil,INMET,Rio Paraguay
0-76-4-63400000,50A347AA36AB516BFA51F64786D77D790E1BC854,AEAF735EBFC73611C8A50B6D0319BD4258B45918,24.0,millimetre,WHOS,,,,,,,,,True,-21.0033,-52.1678,,,Brazil,WHOS,Rio Parana
0-76-0-4116208000000317,D9BB46DD297CBC96A47460DB4BD12940D93E25C4,AEAF735EBFC73611C8A50B6D0319BD4258B45918,24.0,millimetre,WHOS,,,,,,,,,True,-25.50888888,-48.80861111,,,Brazil,INMET,
0-76-4-65010000,E32C87CECEBEC4BBD968DDC5BA766F80F623945F,AEAF735EBFC73611C8A50B6D0319BD4258B45918,24.0,millimetre,WHOS,,,,,,,,,True,-25.5192,-49.1456,,,Brazil,WHOS,Rio Parana
0-76-0-3304409000000518,C6D392958CA2E1C70982293AF73509D8A65E52A3,AEAF735EBFC73611C8A50B6D0319BD4258B45918,24.0,millimetre,WHOS,,,,,,,,,True,-22.653579,-44.040916,,,Brazil,INMET,
0-76-4-81420000,B4F54D6B4B10A886BFB4251832FACFE51B9265EF,AEAF735EBFC73611C8A50B6D0319BD4258B45918,24.0,millimetre,WHOS,,,,,,,,,True,-24.3925,-47.925,,,Brazil,WHOS,
0-76-4-64785000,A0D7E5B3B30FC960992CD4D66CD74700CD86CC66,AEAF735EBFC73611C8A50B6D0319BD4258B45918,24.0,millimetre,WHOS,,,,,,,,,True,-24.5544,-52.9014,,,Brazil,WHOS,Rio Parana
0-76-4-66945000,350EEA9A137AD91C37F448BBA3095FDDE2956FCB,AEAF735EBFC73611C8A50B6D0319BD4258B45918,24.0,millimetre,WHOS,,,,,,,,,True,-20.4783,-55.8014,,,Brazil,WHOS,Rio Paraguay
0-76-4-26033600,EDBF67E244108F1C68221D34591614D2F7D6968E,AEAF735EBFC73611C8A50B6D0319BD4258B45918,24.0,millimetre,WHOS,,,,,,,,,True,-15.3661,-54.8,,,Brazil,WHOS,
0-76-4-83040000,0871731EABA55882171AAC2548EC9F839E207152,AEAF735EBFC73611C8A50B6D0319BD4258B45918,24.0,millimetre,WHOS,,,,,,,,,True,-27.2006,-50.0708,,,Brazil,WHOS,
0-76-0-3111101000000085,9EE5C2E9F11FFE1FBA8344B7EE50972C8F232819,AEAF735EBFC73611C8A50B6D0319BD4258B45918,24.0,millimetre,WHOS,,,,,,,,,True,-19.53921,-49.518133,,,Brazil,INMET,Rio Parana
0-76-0-4318903000000237,6060FBF637242A7EA81A3AA37D4F9CABB2DBED92,AEAF735EBFC73611C8A50B6D0319BD4258B45918,24.0,millimetre,WHOS,,,,,,,,,True,-28.41722221,-54.9625,,,Brazil,INMET,Rio Uruguay
0-76-4-66910000,ACF11A655FB46318E0A1D5F101656D27EF4E18C0,AEAF735EBFC73611C8A50B6D0319BD4258B45918,24.0,millimetre,WHOS,,,,,,,,,True,-20.2408,-56.3992,,,Brazil,WHOS,Rio Paraguay
0-76-4-81429000,804538D70E7E1627326159C8B4ADF62E0BCA4570,AEAF735EBFC73611C8A50B6D0319BD4258B45918,24.0,millimetre,WHOS,,,,,,,,,True,-23.9364,-47.1036,,,Brazil,WHOS,
0-76-4-60492200,5532035C3236D491F3515000085F9BDF6DD8D6A2,AEAF735EBFC73611C8A50B6D0319BD4258B45918,24.0,millimetre,WHOS,,,,,,,,,True,-16.0633,-47.6797,,,Brazil,WHOS,Rio Parana
0-76-0-3145604000000560,A8F9721BE55DF67726BF8C3C005B8F7B8B77F99B,AEAF735EBFC73611C8A50B6D0319BD4258B45918,24.0,millimetre,WHOS,,,,,,,,,True,-20.715,-44.86444444,,,Brazil,INMET,Rio Parana
0-76-4-66052900,124B127D4CCE378D542347449A185C1092024B09,AEAF735EBFC73611C8A50B6D0319BD4258B45918,24.0,millimetre,WHOS,,,,,,,,,True,-14.8261,-57.9031,,,Brazil,WHOS,Rio Paraguay
0-76-4-71540000,5422946DCB0D65DD513F4AA9233674ABF716ACFE,AEAF735EBFC73611C8A50B6D0319BD4258B45918,24.0,millimetre,WHOS,,,,,,,,,True,-27.5169,-50.8322,,,Brazil,WHOS,Rio Uruguay
0-76-4-84853000,4378843A61F381B32CA3EB212C32595DE6A5CB43,AEAF735EBFC73611C8A50B6D0319BD4258B45918,24.0,millimetre,WHOS,,,,,,,,,True,-28.8536,-49.5897,,,Brazil,WHOS,
0-76-4-58305000,996420E59D345B17041269AD69BBD627D3D1AB0A,AEAF735EBFC73611C8A50B6D0319BD4258B45918,24.0,millimetre,WHOS,,,,,,,,,True,-22.5008,-44.0908,,,Brazil,WHOS,
0-76-4-15043000,E6B7AFB9F3C128BEEEEDFEC9B246478B02C19B65,AEAF735EBFC73611C8A50B6D0319BD4258B45918,24.0,millimetre,WHOS,,,,,,,,,True,-15.0594,-58.9106,,,Brazil,WHOS,
0-76-4-63001117,DB640DBB25BBCEBA7CFBB8A10C575BC24A072219,AEAF735EBFC73611C8A50B6D0319BD4258B45918,24.0,millimetre,WHOS,,,,,,,,,True,-18.8814,-53.0739,,,Brazil,WHOS,Rio Parana
0-76-0-4305439000000309,9BCA5F0480ABA770BCDAC0585C0AEA221E300378,AEAF735EBFC73611C8A50B6D0319BD4258B45918,24.0,millimetre,WHOS,,,,,,,,,True,-33.74222221,-53.37222221,,,Brazil,INMET,
0-76-4-66028500,BF035413D084C66FB3B5ACC8B216F21C669269E9,AEAF735EBFC73611C8A50B6D0319BD4258B45918,24.0,millimetre,WHOS,,,,,,,,,True,-14.5928,-57.7731,,,Brazil,WHOS,Rio Paraguay
0-76-4-24748000,EE4227D3AA3DF5B3F7A16B5B7C506734B3C106EA,AEAF735EBFC73611C8A50B6D0319BD4258B45918,24.0,millimetre,WHOS,,,,,,,,,True,-16.3419,-51.4397,,,Brazil,WHOS,
0-76-4-2854039,B06CC4B372086B712E097443C4483A5154514A62,AEAF735EBFC73611C8A50B6D0319BD4258B45918,24.0,millimetre,WHOS,,,,,,,,,True,-28.1389,-54.5464,,,Brazil,WHOS,Rio Uruguay
0-76-4-84580500,9D84781C1850FDC3A033BCC93BFACE2C5CB19B83,AEAF735EBFC73611C8A50B6D0319BD4258B45918,24.0,millimetre,WHOS,,,,,,,,,True,-28.47,-48.9917,,,Brazil,WHOS,
0-76-4-24180050,1C38CAF4CE0F5EC8B7F4CEA9B42E09633D2AC738,AEAF735EBFC73611C8A50B6D0319BD4258B45918,24.0,millimetre,WHOS,,,,,,,,,True,-16.3056,-52.7097,,,Brazil,WHOS,
0-76-0-4311304000000175,DDF51EF50A5734078E20E61098E18625AF05A5CE,AEAF735EBFC73611C8A50B6D0319BD4258B45918,24.0,millimetre,WHOS,,,,,,,,,True,-28.222381,-51.512845,,,Brazil,INMET,Rio Uruguay
0-76-4-60710800,920B0C6295012FD9C718D23B85E798986DA43AF0,AEAF735EBFC73611C8A50B6D0319BD4258B45918,24.0,millimetre,WHOS,,,,,,,,,True,-17.8692,-51.9339,,,Brazil,WHOS,Rio Parana
0-76-4-60935000,C69B5955D355FB934ABA3EE274531394E9250D3E,AEAF735EBFC73611C8A50B6D0319BD4258B45918,24.0,millimetre,WHOS,,,,,,,,,True,-18.4653,-52.3764,,,Brazil,WHOS,Rio Parana
0-76-4-86117000,8791C32960D597820C92B127FBF5DD136A249C9D,AEAF735EBFC73611C8A50B6D0319BD4258B45918,24.0,millimetre,WHOS,,,,,,,,,True,-28.79,-50.6789,,,Brazil,WHOS,
0-76-4-87350000,0C5BD66E6C95B9B9F9B2B8CE9B694BBE7261970E,AEAF735EBFC73611C8A50B6D0319BD4258B45918,24.0,millimetre,WHOS,,,,,,,,,True,-29.645,-50.5106,,,Brazil,WHOS,
0-76-4-62600000,3C90F516E3646016FB9CD8FB3820FE0B02EBFB3E,AEAF735EBFC73611C8A50B6D0319BD4258B45918,24.0,millimetre,WHOS,,,,,,,,,True,-22.8831,-46.6319,,,Brazil,WHOS,Rio Parana
0-76-0-5218805000000184,FA625A9C1695FADA2EE2E8169294AAD9CE93BB09,AEAF735EBFC73611C8A50B6D0319BD4258B45918,24.0,millimetre,WHOS,,,,,,,,,True,-17.78527777,-50.965,,,Brazil,INMET,Rio Parana
0-76-4-81301001,4C2EF0E452454327403CFD35EA6D0C26EA79F8E6,AEAF735EBFC73611C8A50B6D0319BD4258B45918,24.0,millimetre,WHOS,,,,,,,,,True,-25.1383,-48.8744,,,Brazil,WHOS,
0-76-4-3051074,CA82D3128CDAC125AD490BA85900132DA526A306,AEAF735EBFC73611C8A50B6D0319BD4258B45918,24.0,millimetre,WHOS,,,,,,,,,True,-30.5053,-51.9003,,,Brazil,WHOS,
0-76-4-40865001,A883C6724BA432A0EA182AD32CAB57BAC2FB0D4F,AEAF735EBFC73611C8A50B6D0319BD4258B45918,24.0,millimetre,WHOS,,,,,,,,,True,-19.1731,-44.7011,,,Brazil,WHOS,
0-76-4-74100000,738C730F9DB0CD5D892C727922007FBA4393D3D8,AEAF735EBFC73611C8A50B6D0319BD4258B45918,24.0,millimetre,WHOS,,,,,,,,,True,-27.1756,-53.2297,,,Brazil,WHOS,Rio Uruguay
0-76-4-81491100,B8DD1B7917D2155F77E1B7A2AE6EACABB88792F8,AEAF735EBFC73611C8A50B6D0319BD4258B45918,24.0,millimetre,WHOS,,,,,,,,,True,-23.9486,-47.1975,,,Brazil,WHOS,
0-76-4-72860000,4EA80EAE930DAB2D42F4E7BCF04BB0C4FEF1F0BC,AEAF735EBFC73611C8A50B6D0319BD4258B45918,24.0,millimetre,WHOS,,,,,,,,,True,-27.3197,-51.4456,,,Brazil,WHOS,Rio Uruguay
0-76-4-56149000,12EB36C6B25FB6A4F0615E054CBDD7DE67835B0F,AEAF735EBFC73611C8A50B6D0319BD4258B45918,24.0,millimetre,WHOS,,,,,,,,,True,-20.3586,-43.2067,,,Brazil,WHOS,
0-76-4-76660900,0237F11C60DDD28AAF59E830677A1373E8D294D2,AEAF735EBFC73611C8A50B6D0319BD4258B45918,24.0,millimetre,WHOS,,,,,,,,,True,-30.0681,-55.6594,,,Brazil,WHOS,Rio Uruguay
0-76-4-62705000,4C1DD9B68097432DBE3998CF580CE367FA0A4E5B,AEAF735EBFC73611C8A50B6D0319BD4258B45918,24.0,millimetre,WHOS,,,,,,,,,True,-22.7253,-47.6594,,,Brazil,WHOS,Rio Parana
0-76-4-60920700,78BA7BC26277BC8115ED2C534877D178C159B4CF,AEAF735EBFC73611C8A50B6D0319BD4258B45918,24.0,millimetre,WHOS,,,,,,,,,True,-18.9444,-50.9672,,,Brazil,WHOS,Rio Parana
0-76-4-66425000,82E7DF76F0B7D5CF82FF2DFDD7EBE1E98C590049,AEAF735EBFC73611C8A50B6D0319BD4258B45918,24.0,millimetre,WHOS,,,,,,,,,True,-14.4194,-57.8183,,,Brazil,WHOS,Rio Paraguay
0-76-4-64892500,6091E3681305625EFEBB65DE66CE6CEDAA46DF29,AEAF735EBFC73611C8A50B6D0319BD4258B45918,24.0,millimetre,WHOS,,,,,,,,,True,-24.96,-54.175,,,Brazil,WHOS,Rio Parana
0-76-4-61740040,79E7E967B2EE50D72D20A6AAC0C7DA3BB98E495C,AEAF735EBFC73611C8A50B6D0319BD4258B45918,24.0,millimetre,WHOS,,,,,,,,,True,-19.9564,-47.6086,,,Brazil,WHOS,Rio Parana
0-76-0-4208203000000461,5F2757F0D6F4550C28CC9AD6D8FB48ECAC26C1E9,AEAF735EBFC73611C8A50B6D0319BD4258B45918,24.0,millimetre,WHOS,,,,,,,,,True,-26.95083333,-48.76194444,,,Brazil,INMET,
0-76-4-41195050,C8A8C1473517485643EC6431E46A836138F3D499,AEAF735EBFC73611C8A50B6D0319BD4258B45918,24.0,millimetre,WHOS,,,,,,,,,True,-20.0919,-43.7919,,,Brazil,WHOS,
0-76-4-60640000,9BF3F49F371F74D1F7F798B4371E5FCEA3264BD4,AEAF735EBFC73611C8A50B6D0319BD4258B45918,24.0,millimetre,WHOS,,,,,,,,,True,-16.6136,-49.2797,,,Brazil,WHOS,Rio Parana
0-76-0-3552205000000098,3B6FC1AC8101B6B44AB027EE0E93C4A644B2E0E3,AEAF735EBFC73611C8A50B6D0319BD4258B45918,24.0,millimetre,WHOS,,,,,,,,,True,-23.4261111,-47.58555555,,,Brazil,INMET,Rio Parana
0-76-4-84034500,0FFC03B5B612A210A6F9ECB0AB0F3125984E0C18,AEAF735EBFC73611C8A50B6D0319BD4258B45918,24.0,millimetre,WHOS,,,,,,,,,True,-27.3997,-49.0325,,,Brazil,WHOS,
0-76-0-3524808000000242,B8D470706970AA9F474C999B211A5FC784F574BA,AEAF735EBFC73611C8A50B6D0319BD4258B45918,24.0,millimetre,WHOS,,,,,,,,,True,-20.165,-50.59499999,,,Brazil,INMET,Rio Parana
0-76-4-3054031,20C7FE2B192C8E5F2D2E2BEC6F1C5AC6F9EA5489,AEAF735EBFC73611C8A50B6D0319BD4258B45918,24.0,millimetre,WHOS,,,,,,,,,True,-30.2447,-54.3697,,,Brazil,WHOS,Rio Uruguay
0-76-0-3510807000000216,355BBA6092D934162CB11400DF9A4E9B3E08CAB4,AEAF735EBFC73611C8A50B6D0319BD4258B45918,24.0,millimetre,WHOS,,,,,,,,,True,-21.78055554,-47.07527777,,,Brazil,INMET,Rio Parana
0-76-4-58434500,9E97FDB295D622D4B6D1F03B4B55B71A55196759,AEAF735EBFC73611C8A50B6D0319BD4258B45918,24.0,millimetre,WHOS,,,,,,,,,True,-22.2183,-43.1653,,,Brazil,WHOS,
0-76-4-65975300,C4AFB66AE278779603797EFBFECF411DE34AC0C8,AEAF735EBFC73611C8A50B6D0319BD4258B45918,24.0,millimetre,WHOS,,,,,,,,,True,-25.4217,-53.5003,,,Brazil,WHOS,Rio Parana
0-76-4-74300000,5E73C47E10B0816747454B341236550E23AD6D34,AEAF735EBFC73611C8A50B6D0319BD4258B45918,24.0,millimetre,WHOS,,,,,,,,,True,-26.5881,-53.4536,,,Brazil,WHOS,Rio Uruguay
0-76-4-73249000,9469EA5F67C9176674526473E85025DFAC147F4D,AEAF735EBFC73611C8A50B6D0319BD4258B45918,24.0,millimetre,WHOS,,,,,,,,,True,-26.9361,-51.8958,,,Brazil,WHOS,Rio Uruguay
0-76-4-1848060,8971378CE4C7C65DA06B4164D6949E4DC6FED4B4,AEAF735EBFC73611C8A50B6D0319BD4258B45918,24.0,millimetre,WHOS,,,,,,,,,True,-18.3233,-48.2264,,,Brazil,WHOS,Rio Parana
0-76-4-58338500,1CE6B3D391BE98F1765DB767D2A27D757B5BA759,AEAF735EBFC73611C8A50B6D0319BD4258B45918,24.0,millimetre,WHOS,,,,,,,,,True,-22.7847,-44.1878,,,Brazil,WHOS,
0-76-4-61424900,E6999ACF540FDEB611895CA5B88E5BDD8C22FF3E,AEAF735EBFC73611C8A50B6D0319BD4258B45918,24.0,millimetre,WHOS,,,,,,,,,True,-21.5861,-45.6631,,,Brazil,WHOS,Rio Parana
0-76-0-3117306000000087,D85F3AB4B0CC8BA4E2A63714D20FB014CD192F5E,AEAF735EBFC73611C8A50B6D0319BD4258B45918,24.0,millimetre,WHOS,,,,,,,,,True,-19.98586,-48.151574,,,Brazil,INMET,Rio Parana
0-76-4-41714500,BD72430A6EADD67F99535F0E6F407D076572F3D7,AEAF735EBFC73611C8A50B6D0319BD4258B45918,24.0,millimetre,WHOS,,,,,,,,,True,-19.1792,-43.6889,,,Brazil,WHOS,
0-76-4-2951146,A1C19FC8FA5C11CACA5A5152E6E254571F0AB1EC,AEAF735EBFC73611C8A50B6D0319BD4258B45918,24.0,millimetre,WHOS,,,,,,,,,True,-29.4728,-51.8681,,,Brazil,WHOS,
0-76-4-60889000,606126CC0A039F984716CB73A6F0C7D3582367CD,AEAF735EBFC73611C8A50B6D0319BD4258B45918,24.0,millimetre,WHOS,,,,,,,,,True,-17.9558,-51.7192,,,Brazil,WHOS,Rio Parana
0-76-4-75331000,431FDA6E4F6C75BDB74C240F48D9B61E9839DEC9,AEAF735EBFC73611C8A50B6D0319BD4258B45918,24.0,millimetre,WHOS,,,,,,,,,True,-28.2069,-54.8697,,,Brazil,WHOS,Rio Uruguay
0-76-4-73600600,626779AEC5D4FC51F0737F5FC25D349837BB7FF3,AEAF735EBFC73611C8A50B6D0319BD4258B45918,24.0,millimetre,WHOS,,,,,,,,,True,-26.6561,-52.5433,,,Brazil,WHOS,Rio Uruguay
0-76-0-3520301000000088,2A972ABBE56EAB8A3F0ECEA4697F4BF9E26B33B1,AEAF735EBFC73611C8A50B6D0319BD4258B45918,24.0,millimetre,WHOS,,,,,,,,,True,-24.67166666,-47.54583333,,,Brazil,INMET,
0-76-4-60454000,FC54CA4F751F07C306C6E8276B651B7669F69FF9,AEAF735EBFC73611C8A50B6D0319BD4258B45918,24.0,millimetre,WHOS,,,,,,,,,True,-16.7933,-47.9322,,,Brazil,WHOS,Rio Parana
0-76-4-75550000,D25D66F02903D5D9081B15A4DF686FD664EECC93,AEAF735EBFC73611C8A50B6D0319BD4258B45918,24.0,millimetre,WHOS,,,,,,,,,True,-28.1822,-55.6433,,,Brazil,WHOS,Rio Uruguay
0-76-0-5108402000000028,D4FF4DF3EEEF5C382774C2C206A7AD5CA3CFC557,AEAF735EBFC73611C8A50B6D0319BD4258B45918,24.0,millimetre,WHOS,,,,,,,,,True,-15.559295,-56.062951,,,Brazil,INMET,Rio Paraguay
0-76-4-60492000,B71E3BC1C1441E7F73BD1A9BA4AC58C40D95F059,AEAF735EBFC73611C8A50B6D0319BD4258B45918,24.0,millimetre,WHOS,,,,,,,,,True,-16.0508,-47.7442,,,Brazil,WHOS,Rio Parana
0-76-4-58612000,A920258C499BB900F89F75B52B95152C76237EB7,AEAF735EBFC73611C8A50B6D0319BD4258B45918,24.0,millimetre,WHOS,,,,,,,,,True,-22.0914,-43.1453,,,Brazil,WHOS,
0-76-0-3516200000000031,8B8FAEC7E4B158F64A457B56A6130D9DEEA605E0,AEAF735EBFC73611C8A50B6D0319BD4258B45918,24.0,millimetre,WHOS,,,,,,,,,True,-20.58444444,-47.38249999,,,Brazil,INMET,Rio Parana
0-76-4-61203000,AEE6B1EDED5850119A7344A3ED8FFAB88989F6C6,AEAF735EBFC73611C8A50B6D0319BD4258B45918,24.0,millimetre,WHOS,,,,,,,,,True,-20.4517,-45.1531,,,Brazil,WHOS,Rio Parana
0-76-0-3170206000000036,A62D51C7F3B9A13B0BC01E73739B4F9B7AD4A235,AEAF735EBFC73611C8A50B6D0319BD4258B45918,24.0,millimetre,WHOS,,,,,,,,,True,-18.91694443,-48.25555555,,,Brazil,INMET,Rio Parana
0-76-4-64547500,8FB189F7122E63E776D3716121C581F7F288DCA3,AEAF735EBFC73611C8A50B6D0319BD4258B45918,24.0,millimetre,WHOS,,,,,,,,,True,-22.9864,-51.8222,,,Brazil,WHOS,Rio Parana
0-76-0-3504503000000107,6ED3035160E0A8B73EA45EC771A1FE556A8563DA,AEAF735EBFC73611C8A50B6D0319BD4258B45918,24.0,millimetre,WHOS,,,,,,,,,True,-23.10166666,-48.9411111,,,Brazil,INMET,Rio Parana
0-76-0-3525706000000249,A7A3EF681454AACD336157915CC1C6E0F395E001,AEAF735EBFC73611C8A50B6D0319BD4258B45918,24.0,millimetre,WHOS,,,,,,,,,True,-21.08555555,-49.92027777,,,Brazil,INMET,Rio Parana
0-76-0-5210901000000173,A5B5BDA62DD44A11A48578FF9D295855C7EA1AA2,AEAF735EBFC73611C8A50B6D0319BD4258B45918,24.0,millimetre,WHOS,,,,,,,,,True,-14.97972221,-49.53999999,,,Brazil,INMET,
0-76-4-65894991,D482D98D20DFDD8F22CFC1AC02BA815D6722F542,AEAF735EBFC73611C8A50B6D0319BD4258B45918,24.0,millimetre,WHOS,,,,,,,,,True,-25.5331,-53.0106,,,Brazil,WHOS,Rio Parana
0-76-4-61448880,65BBAF1D2E612CE8199A30C5B635C3D4C4AE8DF3,AEAF735EBFC73611C8A50B6D0319BD4258B45918,24.0,millimetre,WHOS,,,,,,,,,True,-21.8064,-46.1353,,,Brazil,WHOS,Rio Parana
0-76-4-86160000,1E13DECC5C97AE53C4E56E0E33D30D1C9E192FEA,AEAF735EBFC73611C8A50B6D0319BD4258B45918,24.0,millimetre,WHOS,,,,,,,,,True,-28.8681,-50.4561,,,Brazil,WHOS,
0-76-4-24748700,0331D27610084EDFFEECACE2888C4CCD9BBCF6E9,AEAF735EBFC73611C8A50B6D0319BD4258B45918,24.0,millimetre,WHOS,,,,,,,,,True,-16.3306,-51.46,,,Brazil,WHOS,
0-76-4-64314950,AE2C0A4F7AB17CD120FE4FE101890D7264A6391C,AEAF735EBFC73611C8A50B6D0319BD4258B45918,24.0,millimetre,WHOS,,,,,,,,,True,-22.8886,-49.2011,,,Brazil,WHOS,Rio Parana
0-76-4-63850000,4AF7E286AB60720B09066B264ADF3FB8A3E16C66,AEAF735EBFC73611C8A50B6D0319BD4258B45918,24.0,millimetre,WHOS,,,,,,,,,True,-19.8808,-53.9408,,,Brazil,WHOS,Rio Parana
0-76-0-3151206000000220,6DA9A6D9C6DAD0E46310A57CCB8415E42AF965E2,AEAF735EBFC73611C8A50B6D0319BD4258B45918,24.0,millimetre,WHOS,,,,,,,,,True,-17.258064,-44.835556,,,Brazil,INMET,
0-76-4-65962000,B11EEBD4A1B9DFCF76AD6BDDFC8005CF18AC4FE5,AEAF735EBFC73611C8A50B6D0319BD4258B45918,24.0,millimetre,WHOS,,,,,,,,,True,-25.6822,-52.9844,,,Brazil,WHOS,Rio Parana
0-76-4-72810000,7B20EA8C93A06DE9B742703EE994CE9623AD4196,AEAF735EBFC73611C8A50B6D0319BD4258B45918,24.0,millimetre,WHOS,,,,,,,,,True,-27.0881,-51.2581,,,Brazil,WHOS,Rio Uruguay
0-76-4-65987001,9235B199541EA40EB5C993E74974965BAA4B0039,AEAF735EBFC73611C8A50B6D0319BD4258B45918,24.0,millimetre,WHOS,,,,,,,,,True,-25.5667,-53.9333,,,Brazil,WHOS,Rio Parana
0-76-4-41193000,BB8BCEA79D20BC39CB9970CF77CE17896DC300A2,AEAF735EBFC73611C8A50B6D0319BD4258B45918,24.0,millimetre,WHOS,,,,,,,,,True,-20.1247,-43.865,,,Brazil,WHOS,
0-76-4-26054000,FA946CC05B4738904E79AA98F5C0ECC6C5FF5334,AEAF735EBFC73611C8A50B6D0319BD4258B45918,24.0,millimetre,WHOS,,,,,,,,,True,-14.8672,-53.2833,,,Brazil,WHOS,
0-76-4-72101000,82DCFED57DBDF87E99F33A4CD44BBC426759E0CE,AEAF735EBFC73611C8A50B6D0319BD4258B45918,24.0,millimetre,WHOS,,,,,,,,,True,-27.5242,-51.5075,,,Brazil,WHOS,Rio Uruguay
0-76-4-58519050,65188166D11108259314720D17F7BBC74945B1D6,AEAF735EBFC73611C8A50B6D0319BD4258B45918,24.0,millimetre,WHOS,,,,,,,,,True,-21.9675,-43.3736,,,Brazil,WHOS,
0-76-4-58358000,EA130F5EC094A65AEFA245E007934F29EE44CCFD,AEAF735EBFC73611C8A50B6D0319BD4258B45918,24.0,millimetre,WHOS,,,,,,,,,True,-22.5314,-43.8186,,,Brazil,WHOS,
0-76-4-60591000,6CB12A093BF654B3EF624E8830DE23A2DADF3081,AEAF735EBFC73611C8A50B6D0319BD4258B45918,24.0,millimetre,WHOS,,,,,,,,,True,-17.7478,-48.8444,,,Brazil,WHOS,Rio Parana
0-76-4-84030000,E9338F8F67385E43E23C778EA960F0C3BF4D3D77,AEAF735EBFC73611C8A50B6D0319BD4258B45918,24.0,millimetre,WHOS,,,,,,,,,True,-27.4167,-48.9544,,,Brazil,WHOS,
0-76-0-4112801000000144,DEC102E6D732F39A913847B68EC96F40B863E283,AEAF735EBFC73611C8A50B6D0319BD4258B45918,24.0,millimetre,WHOS,,,,,,,,,True,-23.505266,-49.946387,,,Brazil,INMET,Rio Parana
0-76-4-62346500,56693236DC9344ABFB2B09BCDFFD764A54BB9EC1,AEAF735EBFC73611C8A50B6D0319BD4258B45918,24.0,millimetre,WHOS,,,,,,,,,True,-23.3292,-46.6783,,,Brazil,WHOS,Rio Parana
0-76-0-3105103000000534,0FCB34BD13AAC78B19999D8794711F0C5DCC1F89,AEAF735EBFC73611C8A50B6D0319BD4258B45918,24.0,millimetre,WHOS,,,,,,,,,True,-20.0311111,-46.00888888,,,Brazil,INMET,
0-76-4-61537000,EB0B56C0C92614BE2892775610854F15667B1DCC,AEAF735EBFC73611C8A50B6D0319BD4258B45918,24.0,millimetre,WHOS,,,,,,,,,True,-21.6108,-45.4889,,,Brazil,WHOS,Rio Parana
0-76-0-4109906000000139,3C355EC20C30DA5A4843AB8EDCB71321980D3271,AEAF735EBFC73611C8A50B6D0319BD4258B45918,24.0,millimetre,WHOS,,,,,,,,,True,-23.39027777,-53.63583333,,,Brazil,INMET,Rio Parana
0-76-4-61195700,74D5445DE00CE0543DAC77D3ACA8AE2ABD637BE9,AEAF735EBFC73611C8A50B6D0319BD4258B45918,24.0,millimetre,WHOS,,,,,,,,,True,-20.7747,-44.6956,,,Brazil,WHOS,Rio Parana
0-76-4-62780700,7073D5976A615514C3D251F8019A81B3D91D23B9,AEAF735EBFC73611C8A50B6D0319BD4258B45918,24.0,millimetre,WHOS,,,,,,,,,True,-21.8194,-48.8281,,,Brazil,WHOS,Rio Parana
0-76-0-5003207000000092,AEDACEB85B1E0D39EE605F15591102B52F91C866,AEAF735EBFC73611C8A50B6D0319BD4258B45918,24.0,millimetre,WHOS,,,,,,,,,True,-18.9886111,-56.62277777,,,Brazil,INMET,Rio Paraguay
0-76-4-18407500,7B681310D2811F34AC514D0AC40B34AA80EC9F36,AEAF735EBFC73611C8A50B6D0319BD4258B45918,24.0,millimetre,WHOS,,,,,,,,,True,-14.6317,-53.9242,,,Brazil,WHOS,
0-76-4-65060001,C61A19C04D1CEB55BEA97A07B88B3C8DDF6966F0,AEAF735EBFC73611C8A50B6D0319BD4258B45918,24.0,millimetre,WHOS,,,,,,,,,True,-25.8756,-50.3894,,,Brazil,WHOS,Rio Parana
0-76-4-1848055,89F4117983F6FD058A4AB7380D4CF504FE3C2227,AEAF735EBFC73611C8A50B6D0319BD4258B45918,24.0,millimetre,WHOS,,,,,,,,,True,-18.6217,-48.6847,,,Brazil,WHOS,Rio Parana
0-76-4-83349600,710572BE122DD4716DAF0367D29A76B0FED741CD,AEAF735EBFC73611C8A50B6D0319BD4258B45918,24.0,millimetre,WHOS,,,,,,,,,True,-26.8992,-49.6628,,,Brazil,WHOS,
0-76-4-74314970,3AE72BAD1CF8C4F567907F4197D732612A25A6D0,AEAF735EBFC73611C8A50B6D0319BD4258B45918,24.0,millimetre,WHOS,,,,,,,,,True,-26.6381,-53.4156,,,Brazil,WHOS,Rio Uruguay
0-76-4-88260000,E27089C7809245330DEA7F33F6EB04C6E7665061,AEAF735EBFC73611C8A50B6D0319BD4258B45918,24.0,millimetre,WHOS,,,,,,,,,True,-32.5194,-53.4558,,,Brazil,WHOS,
0-76-4-63001608,968EE6FAD37329F1468070F9D689C7917D98ED9E,AEAF735EBFC73611C8A50B6D0319BD4258B45918,24.0,millimetre,WHOS,,,,,,,,,True,-19.1411,-52.3814,,,Brazil,WHOS,Rio Parana
0-76-4-65259000,D4627CD379EAA9B542FDD68385CA272167D772DF,AEAF735EBFC73611C8A50B6D0319BD4258B45918,24.0,millimetre,WHOS,,,,,,,,,True,-26.5936,-50.7283,,,Brazil,WHOS,Rio Parana
0-76-4-74300200,8DC8EA080B6E4DF76DA0FCA2615C8703E05E464D,AEAF735EBFC73611C8A50B6D0319BD4258B45918,24.0,millimetre,WHOS,,,,,,,,,True,-26.5869,-53.4281,,,Brazil,WHOS,Rio Uruguay
0-76-4-64773500,C52BE934AAE903AB19EEBDC1BA0567D38B6E9C84,AEAF735EBFC73611C8A50B6D0319BD4258B45918,24.0,millimetre,WHOS,,,,,,,,,True,-24.7247,-52.3931,,,Brazil,WHOS,Rio Parana
0-76-4-65220001,BD53401933372223D068D47FAEA52A76E72A1270,AEAF735EBFC73611C8A50B6D0319BD4258B45918,24.0,millimetre,WHOS,,,,,,,,,True,-26.0192,-50.5925,,,Brazil,WHOS,Rio Parana
0-76-4-60018200,3F9759BB931AA6ED78E23975CF6C36149EE4D0BC,AEAF735EBFC73611C8A50B6D0319BD4258B45918,24.0,millimetre,WHOS,,,,,,,,,True,-16.2086,-47.5681,,,Brazil,WHOS,Rio Parana
0-76-4-85309000,25C698C38038A358E5F7A886BFF0C56011CE6A4E,AEAF735EBFC73611C8A50B6D0319BD4258B45918,24.0,millimetre,WHOS,,,,,,,,,True,-29.0333,-53.5094,,,Brazil,WHOS,
0-76-4-74322200,EBC172408452A58F835225D836D16F6BA7AA0022,AEAF735EBFC73611C8A50B6D0319BD4258B45918,24.0,millimetre,WHOS,,,,,,,,,True,-26.7511,-53.3522,,,Brazil,WHOS,Rio Uruguay
0-76-4-74120700,B4C7C616AD5EBA87B5F3C1FA6721555CB417E505,AEAF735EBFC73611C8A50B6D0319BD4258B45918,24.0,millimetre,WHOS,,,,,,,,,True,-28.2472,-52.8011,,,Brazil,WHOS,Rio Uruguay
0-76-0-4314100000000147,53F1E142CD1F014E3581C884F2CE04548268419B,AEAF735EBFC73611C8A50B6D0319BD4258B45918,24.0,millimetre,WHOS,,,,,,,,,True,-28.226805,-52.403582,,,Brazil,INMET,Rio Uruguay
0-76-4-86471000,9FFE65981FE6DC10F9926DA29C87F98A63CDFBD6,AEAF735EBFC73611C8A50B6D0319BD4258B45918,24.0,millimetre,WHOS,,,,,,,,,True,-29.0797,-51.6814,,,Brazil,WHOS,
0-76-4-87318000,2D181CA10A43F066E8BFC1DD9B11E8274D8978F9,AEAF735EBFC73611C8A50B6D0319BD4258B45918,24.0,millimetre,WHOS,,,,,,,,,True,-29.7908,-50.4217,,,Brazil,WHOS,
0-76-4-66005960,BF3A4186FDF1D152E8750F60AA8C336C2504128C,AEAF735EBFC73611C8A50B6D0319BD4258B45918,24.0,millimetre,WHOS,,,,,,,,,True,-14.4253,-56.8247,,,Brazil,WHOS,Rio Paraguay
0-76-4-15050001,BE52DBBD163120F3B81733DBF70AD9C0B588A80F,AEAF735EBFC73611C8A50B6D0319BD4258B45918,24.0,millimetre,WHOS,,,,,,,,,True,-15.2153,-59.3539,,,Brazil,WHOS,
0-76-0-4308508000000281,09FCAD5F9B2FE856F73EAA1D046CA354BD30F510,AEAF735EBFC73611C8A50B6D0319BD4258B45918,24.0,millimetre,WHOS,,,,,,,,,True,-27.39555555,-53.42944443,,,Brazil,INMET,Rio Uruguay
0-76-4-74800000,14543B052B64BE32BE9A92B03DF905F1DE7270C0,AEAF735EBFC73611C8A50B6D0319BD4258B45918,24.0,millimetre,WHOS,,,,,,,,,True,-27.8525,-55.0256,,,Brazil,WHOS,Rio Uruguay
0-76-4-40712500,43DEF4DD0AB41F55C92164C9C3AD23A0D3C1846A,AEAF735EBFC73611C8A50B6D0319BD4258B45918,24.0,millimetre,WHOS,,,,,,,,,True,-20.3744,-44.1858,,,Brazil,WHOS,
0-76-4-84015900,6AA66827B3E4E484CCC126BA58DE9499D670292B,AEAF735EBFC73611C8A50B6D0319BD4258B45918,24.0,millimetre,WHOS,,,,,,,,,True,-27.5489,-49.0064,,,Brazil,WHOS,
0-76-4-41340000,C557AE331F2FB85B7600B8C14EDFD499C0AF4882,AEAF735EBFC73611C8A50B6D0319BD4258B45918,24.0,millimetre,WHOS,,,,,,,,,True,-19.5597,-43.9111,,,Brazil,WHOS,
0-76-4-64198000,634037ECB9C26FC4399EBD2816289D3058CA4274,AEAF735EBFC73611C8A50B6D0319BD4258B45918,24.0,millimetre,WHOS,,,,,,,,,True,-23.7858,-49.0558,,,Brazil,WHOS,Rio Parana
0-76-4-60680004,E90F069DBA93FD7AEA15C3D7BCFF6623571DF286,AEAF735EBFC73611C8A50B6D0319BD4258B45918,24.0,millimetre,WHOS,,,,,,,,,True,-18.4775,-49.615,,,Brazil,WHOS,Rio Parana
0-76-4-56661000,B688A20209124FF5B92ACFB4D199C558C5883DCE,AEAF735EBFC73611C8A50B6D0319BD4258B45918,24.0,millimetre,WHOS,,,,,,,,,True,-19.7667,-43.0261,,,Brazil,WHOS,
0-76-4-71386500,C9AB85BA2971437D4E0A39DF6F3E50B341749A9F,AEAF735EBFC73611C8A50B6D0319BD4258B45918,24.0,millimetre,WHOS,,,,,,,,,True,-27.4881,-50.5225,,,Brazil,WHOS,Rio Uruguay
0-76-4-66071355,4BBCD8F37794FA6B2C519A65B342BE4E82E544A2,AEAF735EBFC73611C8A50B6D0319BD4258B45918,24.0,millimetre,WHOS,,,,,,,,,True,-15.0369,-58.7358,,,Brazil,WHOS,Rio Paraguay
